SALE TYPE,SOLD DATE,PROPERTY TYPE,ADDRESS,CITY,STATE OR PROVINCE,ZIP OR POSTAL CODE,PRICE,BEDS,BATHS,LOCATION,SQUARE FEET,LOT SIZE,YEAR BUILT,DAYS ON MARKET,$/SQUARE FEET,HOA/MONTH,STATUS,NEXT OPEN HOUSE START TIME,NEXT OPEN HOUSE END TIME,URL (SEE https://www.redfin.com/buy-a-home/comparative-market-analysis FOR INFO ON PRICING),SOURCE,MLS#,FAVORITE,INTERESTED,LATITUDE,LONGITUDE
PAST SALE,December-7-2022,Condo/Co-op,238 SW 1st St Unit F-1,Pompano Beach,FL,33060,157000,2,2.0,Parkway Gardens,855,,1978,,184,346,Sold,,,https://www.redfin.com/FL/Pompano-Beach/238-SW-1st-St-33060/unit-F-1/home/41633972,Beaches MLS,RX-10846065,N,Y,26.2308661,-80.1281595
PAST SALE,January-6-2023,Condo/Co-op,9401 Sunrise Lakes Blvd #112,Sunrise,FL,33322,125000,1,1.5,SUNRISE LAKES 118 CONDO,750,,1978,,167,335,Sold,,,https://www.redfin.com/FL/Sunrise/9401-Sunrise-Lakes-Blvd-33322/unit-112/home/41612825,MARMLS,A11305513,N,Y,26.1606735,-80.2759054
PAST SALE,December-28-2022,Condo/Co-op,1600 S Ocean Dr Unit 17C,Hollywood,FL,33019,365000,1,1.5,ALLINGTON TOWERS CONDO,832,,1971,,439,513,Sold,,,https://www.redfin.com/FL/Hollywood/1600-S-Ocean-Dr-33019/unit-17C/home/41963248,MARMLS,A11305051,N,Y,25.999969,-80.1186497
PAST SALE,November-18-2022,Condo/Co-op,10005 Winding Lake Rd #101,Sunrise,FL,33351,225000,2,2.0,WINDING LAKE AT WELLEBY,772,,1982,,291,231,Sold,,,https://www.redfin.com/FL/Sunrise/10005-Winding-Lake-Rd-33351/unit-101/home/41582245,MARMLS,A11274395,N,Y,26.1724003,-80.2856907
PAST SALE,December-7-2022,Condo/Co-op,412 Tilford S #412,Deerfield Beach,FL,33442,103000,1,1.5,Tilford S Condo,700,,1979,,147,425,Sold,,,https://www.redfin.com/FL/Deerfield-Beach/412-Tilford-S-33442/unit-412/home/104357764,Beaches MLS,RX-10835412,N,Y,26.310483,-80.150792
PAST SALE,November-28-2022,Condo/Co-op,1809 Middle River Dr Unit 1809A,Fort Lauderdale,FL,33305,325000,2,2.0,Orchid Condo,1260,,1969,,258,775,Sold,,,https://www.redfin.com/FL/Fort-Lauderdale/1809-Middle-River-Dr-33305/unit-1809A/home/183341404,Beaches MLS,F10360049,N,Y,26.150268,-80.115008
PAST SALE,,Condo/Co-op,2900 NE 30th St Unit 3D,Fort Lauderdale,FL,33306,160000,1,1.0,,440,,1964,,364,,,,,https://www.redfin.com/FL/Fort-Lauderdale/2900-NE-30th-St-33306/unit-3D/home/42042936,,,N,Y,26.1660403,-80.1049288
PAST SALE,December-8-2022,Condo/Co-op,4174 Inverrary Dr #111,Lauderhill,FL,33319,88000,1,1.5,Manors Of Inverrary,783,,1974,,112,579,Sold,,,https://www.redfin.com/FL/Lauderhill/4174-Inverrary-Dr-33319/unit-111/home/41591010,Beaches MLS,F10359533,N,Y,26.175417,-80.226241
PAST SALE,,Condo/Co-op,4255 N University Dr #301,Sunrise,FL,33351,187000,2,2.0,,944,,1981,,198,,,,,https://www.redfin.com/FL/Sunrise/4255-N-University-Dr-33351/unit-301/home/41585242,,,N,Y,26.1767531,-80.2529976
PAST SALE,December-21-2022,Condo/Co-op,2000 Metropica Way #1510,Sunrise,FL,33323,618000,2,2.0,METROPICA NORTH TOWER ONE,1003,,2020,,616,844,Sold,,,https://www.redfin.com/FL/Sunrise/2000-Metropica-Way-33323/unit-1510/home/174071970,MARMLS,A11304278,N,Y,26.149294,-80.3281433
PAST SALE,,Condo/Co-op,3851 NE 21st Ave #31,Lighthouse Point,FL,33064,142500,2,2.0,,780,,1965,,183,,,,,https://www.redfin.com/FL/Lighthouse-Point/3851-NE-21st-Ave-33064/unit-31/home/41519943,,,N,Y,26.2784577,-80.0942983
PAST SALE,,Condo/Co-op,4164 Inverrary Dr #710,Lauderhill,FL,33319,65000,1,1.0,,729,,1975,,89,,,,,https://www.redfin.com/FL/Lauderhill/4164-Inverrary-Dr-33319/unit-710/home/41589378,,,N,Y,26.1760005,-80.2245067
PAST SALE,,Condo/Co-op,101 N Ocean Dr #305,Hollywood,FL,33019,216000,1,1.0,,360,,1925,,600,,,,,https://www.redfin.com/FL/Hollywood/101-N-Ocean-Dr-33019/unit-305/home/41930941,,,N,Y,26.0124577,-80.116163
PAST SALE,February-14-2023,Condo/Co-op,6855 W Broward Blvd #111,Plantation,FL,33317,215000,2,2.0,PLANTATION CLUB B CONDO,1120,,1975,,192,650,Sold,,,https://www.redfin.com/FL/Plantation/6855-W-Broward-Blvd-33317/unit-111/home/41748121,MARMLS,A11336791,N,Y,26.121871,-80.2374028
PAST SALE,December-14-2022,Condo/Co-op,4020 Galt Ocean Dr #405,Fort Lauderdale,FL,33308,555000,2,2.0,Ocean Club,1514,,1971,,367,982,Sold,,,https://www.redfin.com/FL/Fort-Lauderdale/4020-Galt-Ocean-Dr-33308/unit-405/home/41710586,Beaches MLS,F10359881,N,Y,26.1773419,-80.0970766
PAST SALE,November-29-2022,Condo/Co-op,551 N Fort Lauderdale Beach Blvd Unit H1111,Fort Lauderdale,FL,33304,552900,1,1.0,551 FLB CONDOMINIUM HOTEL,577,,2009,,958,1610,Sold,,,https://www.redfin.com/FL/Fort-Lauderdale/551-N-Fort-Lauderdale-Beach-Blvd-33304/unit-H1111/home/63058499,MARMLS,A11308531,N,Y,26.1308727,-80.1040339
PAST SALE,,Condo/Co-op,1050 Seminole Dr Unit 2A,Fort Lauderdale,FL,33304,1136300,3,3.0,,2940,,1994,,386,,,,,https://www.redfin.com/FL/Fort-Lauderdale/1050-Seminole-Dr-33304/unit-2A/home/41692713,,,N,Y,26.1394914,-80.1104477
PAST SALE,,Condo/Co-op,3700 Galt Ocean Dr #1509,Fort Lauderdale,FL,33308,300000,1,1.0,,600,,1967,,500,,,,,https://www.redfin.com/FL/Fort-Lauderdale/3700-Galt-Ocean-Dr-33308/unit-1509/home/41711650,,,N,Y,26.1734275,-80.0978815
PAST SALE,,Condo/Co-op,3310 Pinewalk Dr N #1815,Margate,FL,33063,200000,1,1.0,,712,,1990,,281,,,,,https://www.redfin.com/FL/Margate/3310-Pinewalk-Dr-N-33063/unit-1815/home/42051626,,,N,Y,26.2657637,-80.2293865
PAST SALE,,Condo/Co-op,12701 SW 14th St Unit 304J,Pembroke Pines,FL,33027,207000,2,2.0,,1100,,1990,,188,,,,,https://www.redfin.com/FL/Pembroke-Pines/12701-SW-14th-St-33027/unit-304J/home/41847719,,,N,Y,25.9955851,-80.3165667
PAST SALE,,Condo/Co-op,2500 Parkview Dr #809,Hallandale Beach,FL,33009,255000,1,2.0,,950,,1980,,268,,,,,https://www.redfin.com/FL/Hallandale-Beach/2500-Parkview-Dr-33009/unit-809/home/42046990,,,N,Y,25.9930327,-80.1248006
PAST SALE,December-1-2022,Condo/Co-op,333 Sunset Dr #1103,Fort Lauderdale,FL,33301,763000,2,2.0,Four Seasons,1867,,1958,,409,1284,Sold,,,https://www.redfin.com/FL/Fort-Lauderdale/333-Sunset-Dr-33301/unit-1103/home/41800087,Beaches MLS,F10358573,N,Y,26.1186379,-80.1141346
PAST SALE,,Condo/Co-op,3011 Harwood C,Deerfield Beach,FL,33442,119000,1,1.0,,600,,1975,,198,,,,,https://www.redfin.com/FL/Deerfield-Beach/3011-Harwood-C-33442/home/41461204,,,N,Y,26.3057797,-80.1351701
PAST SALE,January-27-2023,Condo/Co-op,551 N Fort Lauderdale Beach Blvd Unit R1912,Fort Lauderdale,FL,33304,575000,0,1.0,Conrad Fort Lauderdale Bea,648,,2017,,887,1616,Sold,,,https://www.redfin.com/FL/Fort-Lauderdale/551-N-Fort-Lauderdale-Beach-Blvd-33304/unit-R1912/home/82729169,MARMLS,A11334277,N,Y,26.1308727,-80.1040339
PAST SALE,,Condo/Co-op,82 Tilford D,Deerfield Beach,FL,33442,84000,1,2.0,,708,,1978,,119,,,,,https://www.redfin.com/FL/Deerfield-Beach/82-Tilford-D-33442/home/41465624,,,N,Y,26.3110417,-80.1447869
PAST SALE,,Condo/Co-op,6800 Royal Palm Blvd Unit 301F,Margate,FL,33063,85000,2,2.0,,1100,,1981,,77,,,,,https://www.redfin.com/FL/Margate/6800-Royal-Palm-Blvd-33063/unit-301F/home/41435414,,,N,Y,26.2523275,-80.2158791
PAST SALE,,Condo/Co-op,141 NW 93rd Ave #102,Pembroke Pines,FL,33024,130000,2,2.0,,790,,1984,,165,,,,,https://www.redfin.com/FL/Pembroke-Pines/141-NW-93rd-Ave-33024/unit-102/home/41892740,,,N,Y,26.0098933,-80.2696618
PAST SALE,,Condo/Co-op,1849 S Ocean Dr Ph 5,Hallandale Beach,FL,33009,300000,1,1.0,,870,,1970,,345,,,,,https://www.redfin.com/FL/Hallandale-Beach/1849-S-Ocean-Dr-33009/unit-5/home/41959670,,,N,Y,25.9842418,-80.1203191
PAST SALE,,Condo/Co-op,11600 SW 2nd St #18303,Pembroke Pines,FL,33025,270000,1,1.0,,858,,1999,,315,,,,,https://www.redfin.com/FL/Pembroke-Pines/11600-SW-2nd-St-33025/unit-18303/home/42050257,,,N,Y,26.0047066,-80.3026378
PAST SALE,,Condo/Co-op,133 N Pompano Beach Blvd #1508,Pompano Beach,FL,33062,285000,2,2.0,,1100,,1966,,259,,,,,https://www.redfin.com/FL/Pompano-Beach/133-N-Pompano-Beach-Blvd-33062/unit-1508/home/41525876,,,N,Y,26.2347009,-80.0899084
PAST SALE,,Condo/Co-op,2202 Lucaya Bnd Unit A2,Coconut Creek,FL,33066,230000,2,2.0,,1307,,1980,,176,,,,,https://www.redfin.com/FL/Coconut-Creek/2202-Lucaya-Bnd-33066/unit-A2/home/41499025,,,N,Y,26.254687,-80.1810113
PAST SALE,November-28-2022,Condo/Co-op,406 NW 68th Ave #204,Plantation,FL,33317,275000,2,2.0,POLYNESIAN GARDENS 2 COND,1260,,1973,,218,388,Sold,,,https://www.redfin.com/FL/Plantation/406-NW-68th-Ave-33317/unit-204/home/41744810,MARMLS,A11266676,N,Y,26.1264534,-80.2369236
PAST SALE,,Condo/Co-op,390 Racquet Club Rd #102,Weston,FL,33326,285000,2,2.0,,1320,,1980,,216,,,,,https://www.redfin.com/FL/Weston/390-Racquet-Club-Rd-33326/unit-102/home/41726865,,,N,Y,26.1241597,-80.3826755
PAST SALE,,Condo/Co-op,420 NE 12th Ave #703,Hallandale Beach,FL,33009,179400,1,2.0,,847,,1972,,212,,,,,https://www.redfin.com/FL/Hallandale-Beach/420-NE-12th-Ave-33009/unit-703/home/41947334,,,N,Y,25.9914617,-80.1358084
PAST SALE,,Condo/Co-op,8272 NW 24th St,Coral Springs,FL,33065,240000,2,2.0,,1140,,1992,,211,,,,,https://www.redfin.com/FL/Coral-Springs/8272-NW-24th-St-33065/home/42033920,,,N,Y,26.258766,-80.236896
PAST SALE,,Condo/Co-op,3601 Van Buren St #9,Hollywood,FL,33021,225000,2,2.0,,1014,,1966,,222,,,,,https://www.redfin.com/FL/Hollywood/3601-Van-Buren-St-33021/unit-9/home/42068304,,,N,Y,26.0091366,-80.1800397
PAST SALE,,Condo/Co-op,4750 NW 22nd Ct #211,Lauderhill,FL,33313,80000,1,2.0,,920,,1973,,87,,,,,https://www.redfin.com/FL/Lauderhill/4750-NW-22nd-Ct-33313/unit-211/home/41598580,,,N,Y,26.154352,-80.2138746
PAST SALE,,Condo/Co-op,12550 SW 15th St Unit 201E,Pembroke Pines,FL,33027,299000,2,2.0,,1533,,1995,,195,,,,,https://www.redfin.com/FL/Pembroke-Pines/12550-SW-15th-St-33027/unit-201E/home/41846419,,,N,Y,25.9946715,-80.3136207
PAST SALE,December-7-2022,Condo/Co-op,3508 SW Natura Blvd #301,Deerfield Beach,FL,33441,170000,2,2.0,Natura,907,,1974,,187,411,Sold,,,https://www.redfin.com/FL/Deerfield-Beach/3508-SW-Natura-Blvd-33441/unit-301/home/41454287,Beaches MLS,F10358955,N,Y,26.3131709,-80.1154621
PAST SALE,December-9-2022,Condo/Co-op,411 N New River Dr #2501,Fort Lauderdale,FL,33301,1650000,3,3.0,Las Olas Grand,2635,,2005,,626,2640,Sold,,,https://www.redfin.com/FL/Fort-Lauderdale/411-N-New-River-Dr-E-33301/unit-2501/home/42038902,Beaches MLS,F10359491,N,Y,26.1180851,-80.1385842
PAST SALE,,Condo/Co-op,7910 N Nob Hill Rd #101,Tamarac,FL,33321,140000,1,1.0,,691,,2005,,203,,,,,https://www.redfin.com/FL/Tamarac/7910-N-Nob-Hill-Rd-33321/unit-101/home/42025888,,,N,Y,26.2222667,-80.2854847
PAST SALE,,Condo/Co-op,1208 Congressional Way #1208,Deerfield Beach,FL,33442,241000,2,2.0,,1150,,1987,,210,,,,,https://www.redfin.com/FL/Deerfield-Beach/1208-Congressional-Way-33442/unit-1208/home/41473677,,,N,Y,26.2985909,-80.1607119
PAST SALE,,Condo/Co-op,3200 Holiday Springs Blvd Unit 3-111,Margate,FL,33063,87000,1,1.0,,593,,1974,,147,,,,,https://www.redfin.com/FL/Margate/3200-Holiday-Springs-Blvd-33063/unit-3-111/home/41429772,,,N,Y,26.2676022,-80.2333181
PAST SALE,,Condo/Co-op,530 S Park Rd Unit 36-11,Hollywood,FL,33021,235000,1,1.0,,841,,1991,,279,,,,,https://www.redfin.com/FL/Hollywood/530-S-Park-Rd-33021/unit-36-11/home/42041131,,,N,Y,26.006346,-80.177018
PAST SALE,,Condo/Co-op,5200 NW 31st Ave #130,Fort Lauderdale,FL,33309,193000,2,3.0,,1032,,1987,,187,,,,,https://www.redfin.com/FL/Fort-Lauderdale/5200-NW-31st-Ave-33309/unit-130/home/42038605,,,N,Y,26.1900805,-80.1837307
PAST SALE,,Condo/Co-op,1149 Hillsboro Mile #903,Hillsboro Beach,FL,33062,570000,2,2.0,,1200,,1971,,475,,,,,https://www.redfin.com/FL/Hillsboro-Beach/1149-Hillsboro-Mile-33062/unit-903/home/41511583,,,N,Y,26.2927049,-80.0785638
PAST SALE,,Condo/Co-op,615 N Riverside Dr #702,Pompano Beach,FL,33062,565000,2,2.0,,1600,,1969,,353,,,,,https://www.redfin.com/FL/Pompano-Beach/615-N-Riverside-Dr-33062/unit-702/home/41526313,,,N,Y,26.2421905,-80.0910398
PAST SALE,,Condo/Co-op,201 SE 6th Ave #13,Pompano Beach,FL,33060,158000,1,2.0,,700,,1970,,226,,,,,https://www.redfin.com/FL/Pompano-Beach/201-SE-6th-Ave-33060/unit-13/home/42061287,,,N,Y,26.229995,-80.11797
PAST SALE,,Condo/Co-op,627 Durham W,Deerfield Beach,FL,33442,85000,1,1.0,,593,,1974,,143,,,,,https://www.redfin.com/FL/Deerfield-Beach/627-Durham-W-33442/home/41463031,,,N,Y,26.3152459,-80.138687
PAST SALE,,Condo/Co-op,102 Freedom Ct,Deerfield Beach,FL,33442,279000,3,2.0,,1300,,1986,,215,,,,,https://www.redfin.com/FL/Deerfield-Beach/102-Freedom-Ct-33442/home/41472680,,,N,Y,26.3032899,-80.1562623
PAST SALE,,Condo/Co-op,310 SW 14th Ave,Fort Lauderdale,FL,33312,355000,2,3.0,,1679,,2005,,211,,,,,https://www.redfin.com/FL/Fort-Lauderdale/310-SW-14th-Ave-33312/home/42049888,,,N,Y,26.1186041,-80.1602152
PAST SALE,,Condo/Co-op,12501 SW 14th St Unit 103R,Pembroke Pines,FL,33027,192000,2,2.0,,1106,,1989,,174,,,,,https://www.redfin.com/FL/Pembroke-Pines/12501-SW-14th-St-33027/unit-103R/home/41851331,,,N,Y,25.9955268,-80.3138853
PAST SALE,,Condo/Co-op,2305 S Cypress Bend Dr Unit 202A,Pompano Beach,FL,33069,140000,2,2.0,,1200,,1973,,117,,,,,https://www.redfin.com/FL/Pompano-Beach/2305-S-Cypress-Bend-Dr-33069/unit-202A/home/41634478,,,N,Y,26.2155359,-80.1535429
PAST SALE,December-14-2022,Condo/Co-op,1101 S Riverside Dr #103,Pompano Beach,FL,33062,590000,2,2.0,Briney Mar Condo,1235,,1984,,478,734,Sold,,,https://www.redfin.com/FL/Pompano-Beach/1101-S-Riverside-Dr-33062/unit-103/home/41699778,Beaches MLS,F10356280,N,Y,26.2241002,-80.0947684
PAST SALE,December-1-2022,Condo/Co-op,525 N Ft Lauderdale Bch Blvd #702,Fort Lauderdale,FL,33304,3200000,2,2.5,Four Seasons,2230,,2019,,1435,3135,Sold,,,https://www.redfin.com/FL/Fort-Lauderdale/525-N-Fort-Lauderdale-Beach-Blvd-33304/unit-702/home/115471557,Beaches MLS,F10324236,N,Y,26.1301231,-80.1034426
PAST SALE,,Condo/Co-op,1900 S Ocean Blvd Unit 7K,Pompano Beach,FL,33062,300000,1,1.0,,870,,1969,,345,,,,,https://www.redfin.com/FL/Pompano-Beach/1900-S-Ocean-Blvd-33062/unit-7K/home/42013174,,,N,Y,26.2063924,-80.0936364
PAST SALE,,Condo/Co-op,8980 S Hollybrook Blvd #106,Pembroke Pines,FL,33025,90000,1,2.0,,900,,1973,,100,,,,,https://www.redfin.com/FL/Pembroke-Pines/8980-S-Hollybrook-Blvd-33025/unit-106/home/41892410,,,N,Y,26.0027579,-80.2683282
PAST SALE,,Condo/Co-op,8610 N Sherman Cir #508,Miramar,FL,33025,225000,2,2.0,,891,,1982,,253,,,,,https://www.redfin.com/FL/Miramar/8610-N-Sherman-Cir-33025/unit-508/home/41896717,,,N,Y,25.9920759,-80.2590953
PAST SALE,,Condo/Co-op,2670 E Sunrise Blvd #915,Fort Lauderdale,FL,33304,207000,1,1.0,,586,,1986,,353,,,,,https://www.redfin.com/FL/Fort-Lauderdale/2670-E-Sunrise-Blvd-33304/unit-915/home/42045066,,,N,Y,26.137312,-80.1093133
PAST SALE,,Condo/Co-op,3250 NE 28th St #302,Fort Lauderdale,FL,33308,135000,2,1.0,,760,,1966,,178,,,,,https://www.redfin.com/FL/Fort-Lauderdale/3250-NE-28th-St-33308/unit-302/home/42023143,,,N,Y,26.1628406,-80.1026226
PAST SALE,,Condo/Co-op,1800 S Ocean Blvd #1302,Pompano Beach,FL,33062,440000,2,2.0,,1724,,1980,,255,,,,,https://www.redfin.com/FL/Pompano-Beach/1800-S-Ocean-Blvd-33062/unit-1302/home/41703512,,,N,Y,26.2076128,-80.0933901
PAST SALE,,Condo/Co-op,6507 Bay Club Dr #4,Fort Lauderdale,FL,33308,215000,1,2.0,,850,,1973,,253,,,,,https://www.redfin.com/FL/Fort-Lauderdale/6507-Bay-Club-Dr-33308/unit-4/home/41652250,,,N,Y,26.207562,-80.104131
PAST SALE,,Condo/Co-op,3300 Spanish Moss Ter #106,Lauderhill,FL,33319,70000,1,2.0,,1000,,1972,,70,,,,,https://www.redfin.com/FL/Lauderhill/3300-Spanish-Moss-Ter-33319/unit-106/home/41585741,,,N,Y,26.1671238,-80.2326759
PAST SALE,December-21-2022,Condo/Co-op,800 S Hollybrook Dr #208,Pembroke Pines,FL,33025,207500,2,2.0,Hollybrook Golf & Tennis,1170,,1973,,177,456,Sold,,,https://www.redfin.com/FL/Pembroke-Pines/800-S-Hollybrook-Dr-33025/unit-208/home/41894059,Beaches MLS,F10357488,N,Y,26.0022214,-80.2658023
PAST SALE,,Condo/Co-op,2001 Granada Dr Unit K1,Coconut Creek,FL,33066,140000,2,2.0,,1161,,1983,,121,,,,,https://www.redfin.com/FL/Coconut-Creek/2001-Granada-Dr-33066/unit-K1/home/41499642,,,N,Y,26.2518245,-80.1765646
PAST SALE,,Condo/Co-op,2238 N Cypress Bend Dr #102,Pompano Beach,FL,33069,125800,2,2.0,,1340,,1990,,94,,,,,https://www.redfin.com/FL/Pompano-Beach/2238-N-Cypress-Bend-Dr-33069/unit-102/home/41640849,,,N,Y,26.2180337,-80.1533694
PAST SALE,February-7-2023,Condo/Co-op,2240 N Cypress Bend Dr #903,Pompano Beach,FL,33069,275000,2,2.0,CYPRESS BEND CONDOMINIUM,1222,,1992,,225,580,Sold,,,https://www.redfin.com/FL/Pompano-Beach/2240-N-Cypress-Bend-Dr-33069/unit-903/home/41637526,MARMLS,A11326212,N,Y,26.2175512,-80.1546834
PAST SALE,November-29-2022,Condo/Co-op,551 N Fort Lauderdale Beach Blvd Unit H706,Fort Lauderdale,FL,33304,505900,1,1.0,551 FLB CONDOMINIUM HOTEL,577,,2009,,877,1610,Sold,,,https://www.redfin.com/FL/Fort-Lauderdale/551-N-Fort-Lauderdale-Beach-Blvd-33304/unit-H706/home/63058475,MARMLS,A11308669,N,Y,26.1308727,-80.1040339
PAST SALE,,Condo/Co-op,101 SE 6th Ave #8,Pompano Beach,FL,33060,220000,2,2.0,,939,,1970,,234,,,,,https://www.redfin.com/FL/Pompano-Beach/101-SE-6th-Ave-33060/unit-8/home/42059799,,,N,Y,26.2306314,-80.1178447
PAST SALE,December-15-2022,Condo/Co-op,5849 Washington St #80,Hollywood,FL,33023,125000,1,1.0,HAMPTON COURT CONDO,650,,1982,,192,258,Sold,,,https://www.redfin.com/FL/Hollywood/5849-Washington-St-33023/unit-80/home/41885824,MARMLS,A11303266,N,Y,26.003343,-80.203091
PAST SALE,,Condo/Co-op,1665 S Ocean Ln #191,Fort Lauderdale,FL,33316,925000,2,2.0,,1264,,1973,,732,,,,,https://www.redfin.com/FL/Fort-Lauderdale/1665-S-Ocean-Ln-33316/unit-191/home/41806718,,,N,Y,26.1019113,-80.1070227
PAST SALE,,Condo/Co-op,3545 NW 94th Ave Unit 3C,Sunrise,FL,33351,275000,2,2.0,,925,,1984,,297,,,,,https://www.redfin.com/FL/Sunrise/3545-NW-94th-Ave-33351/unit-3C/home/41580427,,,N,Y,26.171088,-80.276444
PAST SALE,,Condo/Co-op,8620 N Sherman Cir #201,Miramar,FL,33025,215000,2,2.0,,891,,1982,,241,,,,,https://www.redfin.com/FL/Miramar/8620-N-Sherman-Cir-33025/unit-201/home/41896674,,,N,Y,25.9925683,-80.2594822
PAST SALE,,Condo/Co-op,1200 Saint Charles Pl Unit L21,Pembroke Pines,FL,33026,175000,2,2.0,,1120,,1979,,156,,,,,https://www.redfin.com/FL/Pembroke-Pines/1200-Saint-Charles-Pl-33026/unit-L21/home/41873295,,,N,Y,26.0166355,-80.2815661
PAST SALE,,Condo/Co-op,2731 NE 14th Street Cswy #614,Pompano Beach,FL,33062,265000,2,2.0,,980,,1970,,270,,,,,https://www.redfin.com/FL/Pompano-Beach/2731-NE-14th-Street-Cswy-33062/unit-614/home/41527438,,,N,Y,26.2510571,-80.0939542
PAST SALE,,Condo/Co-op,2440 Deer Creek Country Club Blvd Unit 106C,Deerfield Beach,FL,33442,212500,1,2.0,,850,,1974,,250,,,,,https://www.redfin.com/FL/Deerfield-Beach/2440-Deer-Creek-Country-Club-Blvd-33442/unit-106C/home/41400731,,,N,Y,26.3204777,-80.1366215
PAST SALE,,Condo/Co-op,1818 Rodman St Unit 3E,Hollywood,FL,33020,173000,1,2.0,,750,,1966,,231,,,,,https://www.redfin.com/FL/Hollywood/1818-Rodman-St-33020/unit-3E/home/41954007,,,N,Y,26.001148,-80.1433989
PAST SALE,,Condo/Co-op,3301 Spanish Moss Ter #605,Lauderhill,FL,33319,125000,2,2.0,,1230,,1971,,102,,,,,https://www.redfin.com/FL/Lauderhill/3301-Spanish-Moss-Ter-33319/unit-605/home/41586305,,,N,Y,26.1672668,-80.2344404
PAST SALE,,Condo/Co-op,500 NE 2nd St #222,Dania Beach,FL,33004,190000,2,2.0,,1100,,1975,,173,,,,,https://www.redfin.com/FL/Dania-Beach/500-NE-2nd-St-33004/unit-222/home/42029130,,,N,Y,26.0547572,-80.1352257
PAST SALE,,Condo/Co-op,6259 Bay Club Dr #3,Fort Lauderdale,FL,33308,349000,2,2.0,,1200,,1973,,291,,,,,https://www.redfin.com/FL/Fort-Lauderdale/6259-Bay-Club-Dr-33308/unit-3/home/41652018,,,N,Y,26.2075594,-80.1041557
PAST SALE,,Condo/Co-op,2030 S Ocean Dr #507,Hallandale Beach,FL,33009,455000,2,2.0,,1312,,1970,,347,,,,,https://www.redfin.com/FL/Hallandale-Beach/2030-S-Ocean-Dr-33009/unit-507/home/41964921,,,N,Y,25.9780358,-80.1193913
PAST SALE,,Condo/Co-op,5532 Courtyard Dr,Margate,FL,33063,250000,2,2.0,,970,,1992,,258,,,,,https://www.redfin.com/FL/Margate/5532-Courtyard-Dr-33063/home/41483556,,,N,Y,26.2664669,-80.198129
PAST SALE,,Condo/Co-op,129 Harwood J,Deerfield Beach,FL,33442,175000,2,2.0,,820,,1974,,213,,,,,https://www.redfin.com/FL/Deerfield-Beach/129-Harwood-J-33442/home/41460815,,,N,Y,26.306687,-80.135351
PAST SALE,,Condo/Co-op,2837 N Course Dr #102,Pompano Beach,FL,33069,230000,2,2.0,,1120,,1987,,205,,,,,https://www.redfin.com/FL/Pompano-Beach/2837-N-Course-Dr-33069/unit-102/home/42064127,,,N,Y,26.2279492,-80.1613919
PAST SALE,January-25-2023,Condo/Co-op,510 NW 84th Ave #215,Plantation,FL,33324,350000,2,2.0,VERANDA CONDO,1137,,2007,,308,1548,Sold,,,https://www.redfin.com/FL/Plantation/510-NW-84th-Ave-33324/unit-215/home/42069443,MARMLS,A11230440,N,Y,26.1275915,-80.2601774
PAST SALE,February-1-2023,Condo/Co-op,3550 Galt Ocean Dr #1506,Fort Lauderdale,FL,33308,650000,2,2.0,Riviera Condo,1656,,1971,,393,712,Sold,,,https://www.redfin.com/FL/Fort-Lauderdale/3550-Galt-Ocean-Dr-33308/unit-1506/home/41711391,Beaches MLS,F10235909,N,Y,26.1722888,-80.0979251
PAST SALE,,Condo/Co-op,7763 Southampton Ter #202,Tamarac,FL,33321,200000,2,2.0,,1275,,2000,,157,,,,,https://www.redfin.com/FL/Tamarac/7763-Southampton-Ter-33321/unit-202/home/41988961,,,N,Y,26.2215745,-80.2874005
PAST SALE,January-5-2023,Condo/Co-op,12177 Royal Palm Blvd Unit 1B,Coral Springs,FL,33065,200000,2,2.0,Royal Garden,1100,,1988,,182,341,Sold,,,https://www.redfin.com/FL/Coral-Springs/12177-Royal-Palm-Blvd-33065/unit-1B/home/41422031,Beaches MLS,F10359504,N,Y,26.2592695,-80.2881265
PAST SALE,,Condo/Co-op,3457 NW 44th St #204,Lauderdale Lakes,FL,33309,88200,2,2.0,,1096,,1989,,80,,,,,https://www.redfin.com/FL/Lauderdale-Lakes/3457-NW-44th-St-33309/unit-204/home/42044105,,,N,Y,26.1841597,-80.192145
PAST SALE,February-8-2023,Condo/Co-op,9410 Live Oak Pl #111,Davie,FL,33324,185000,3,2.5,LIVE OAK CONDOMINIUM TWO,1250,,1973,,148,765,Sold,,,https://www.redfin.com/FL/Davie/9410-Live-Oak-Pl-33324/unit-111/home/41764440,MARMLS,A11314419,N,Y,26.0967086,-80.2773859
PAST SALE,February-1-2023,Condo/Co-op,2200 S Cypress Bend Dr #905,Pompano Beach,FL,33069,290000,2,2.0,Cypress Bend,1399,,1981,,207,,Sold,,,https://www.redfin.com/FL/Pompano-Beach/2200-S-Cypress-Bend-Dr-33069/unit-905/home/41634455,Beaches MLS,F10365930,N,Y,26.2125612,-80.1484996
PAST SALE,,Condo/Co-op,2371 NW 33rd St #712,Oakland Park,FL,33309,154700,2,2.0,,1241,,1992,,125,,,,,https://www.redfin.com/FL/Oakland-Park/2371-NW-33rd-St-33309/unit-712/home/42036620,,,N,Y,26.1681879,-80.1743848
PAST SALE,,Condo/Co-op,4250 Galt Ocean Dr Unit 4U,Fort Lauderdale,FL,33308,580000,2,2.0,,1350,,1967,,430,,,,,https://www.redfin.com/FL/Fort-Lauderdale/4250-Galt-Ocean-Dr-33308/unit-4U/home/41711457,,,N,Y,26.1800183,-80.0968847
PAST SALE,,Condo/Co-op,1950 S Ocean Dr Unit PHL,Hallandale Beach,FL,33009,370000,1,2.0,,870,,1971,,425,,,,,https://www.redfin.com/FL/Hallandale-Beach/1950-S-Ocean-Dr-33009/unit-PHL/home/41966314,,,N,Y,25.9801777,-80.1189957
PAST SALE,,Condo/Co-op,9551 Weldon Cir Unit E111,Tamarac,FL,33321,225000,2,2.0,,1215,,1998,,185,,,,,https://www.redfin.com/FL/Tamarac/9551-Weldon-Cir-33321/unit-E111/home/41977749,,,N,Y,26.2193416,-80.2773859
PAST SALE,January-6-2023,Condo/Co-op,4153 NW 90th Ave #103,Coral Springs,FL,33065,95000,1,1.5,Ramblewood East,690,,1974,,138,234,Sold,,,https://www.redfin.com/FL/Coral-Springs/4153-NW-90th-Ave-33065/unit-103/home/41416892,Beaches MLS,F10357202,N,Y,26.280828,-80.248032
PAST SALE,,Condo/Co-op,2900 NE 30th St Unit 8D,Fort Lauderdale,FL,33306,175000,1,1.0,,440,,1964,,398,,,,,https://www.redfin.com/FL/Fort-Lauderdale/2900-NE-30th-St-33306/unit-8D/home/42050353,,,N,Y,26.1660403,-80.1049288
PAST SALE,,Condo/Co-op,2701 E Golf Blvd #1014,Pompano Beach,FL,33064,130000,2,1.0,,750,,1968,,173,,,,,https://www.redfin.com/FL/Pompano-Beach/2701-E-Golf-Blvd-33064/unit-1014/home/41487013,,,N,Y,26.2644689,-80.125784
PAST SALE,,Condo/Co-op,2853 Kinsington Cir Unit 17-1,Weston,FL,33332,640000,3,2.0,,1920,,2002,,333,,,,,https://www.redfin.com/FL/Weston/2853-Kinsington-Cir-33332/unit-17-1/home/42016510,,,N,Y,26.0930844,-80.3855739
PAST SALE,,Condo/Co-op,11090 Royal Palm Blvd Unit 5-8,Coral Springs,FL,33065,57200,2,2.0,,800,,1982,,72,,,,,https://www.redfin.com/FL/Coral-Springs/11090-Royal-Palm-Blvd-33065/unit-5-8/home/41425071,,,N,Y,26.258652,-80.274239
PAST SALE,,Condo/Co-op,11700 SW 1st St #3105,Pembroke Pines,FL,33025,185000,2,2.0,,1391,,1999,,133,,,,,https://www.redfin.com/FL/Pembroke-Pines/11700-SW-1st-St-33025/unit-3105/home/42041880,,,N,Y,26.0067793,-80.3049014
PAST SALE,,Condo/Co-op,3023 Durham a,Deerfield Beach,FL,33442,149000,1,1.0,,603,,1975,,247,,,,,https://www.redfin.com/FL/Deerfield-Beach/3023-Durham-a-33442/home/41459609,,,N,Y,26.3139851,-80.1372199
PAST SALE,February-8-2023,Condo/Co-op,1000 Colony Point Cir #221,Pembroke Pines,FL,33026,175000,2,2.0,COLONY POINT 2 CONDO,1021,,1980,,171,456,Sold,,,https://www.redfin.com/FL/Pembroke-Pines/1000-Colony-Point-Cir-33026/unit-221/home/41842575,MARMLS,A11318776,N,Y,26.0146147,-80.3017672
PAST SALE,,Condo/Co-op,1893 S Ocean Dr #810,Hallandale Beach,FL,33009,235000,1,1.0,,749,,1968,,314,,,,,https://www.redfin.com/FL/Hallandale-Beach/1893-S-Ocean-Dr-33009/unit-810/home/41961701,,,N,Y,25.9826173,-80.1202934
PAST SALE,,Condo/Co-op,1010 Twin Lakes Dr Unit 20-D,Coral Springs,FL,33071,200000,2,2.0,,768,,1981,,260,,,,,https://www.redfin.com/FL/Coral-Springs/1010-Twin-Lakes-Dr-33071/unit-20-D/home/41449515,,,N,Y,26.2429543,-80.2617181
PAST SALE,,Condo/Co-op,2670 E Sunrise Blvd #1401,Fort Lauderdale,FL,33304,225000,1,1.0,,636,,1986,,354,,,,,https://www.redfin.com/FL/Fort-Lauderdale/2670-E-Sunrise-Blvd-33304/unit-1401/home/42048384,,,N,Y,26.137312,-80.1093133
PAST SALE,,Condo/Co-op,7355 NW 18th St #104,Margate,FL,33063,80000,1,2.0,,850,,1979,,94,,,,,https://www.redfin.com/FL/Margate/7355-NW-18th-St-33063/unit-104/home/41439828,,,N,Y,26.2472778,-80.2231777
PAST SALE,,Condo/Co-op,3001 NW 46th Ave #205,Lauderdale Lakes,FL,33313,60000,1,1.0,,768,,1971,,78,,,,,https://www.redfin.com/FL/Lauderdale-Lakes/3001-NW-46th-Ave-33313/unit-205/home/41597356,,,N,Y,26.16319,-80.210911
PAST SALE,January-31-2023,Condo/Co-op,7574 Granville Dr #402,Tamarac,FL,33321,302000,2,2.0,Kings Point,1500,,1994,,201,598,Sold,,,https://www.redfin.com/FL/Tamarac/7574-Granville-Dr-33321/unit-402/home/41554769,Beaches MLS,F10357077,N,Y,26.220085,-80.291003
PAST SALE,December-21-2022,Condo/Co-op,1280 North-West 43rd Ave,Lauderhill,FL,33313,80000,1,1.0,Lauderhill,730,,1970,,110,260,Sold,,,https://www.redfin.com/FL/Lauderhill/1280-NW-43rd-Ave-33313/home/183630973,NEFLMLS,1206440,N,Y,26.1420443,-80.2067039
PAST SALE,,Condo/Co-op,1006 Westbury F #1006,Deerfield Beach,FL,33442,170000,2,2.0,,881,,1977,,193,,,,,https://www.redfin.com/FL/Deerfield-Beach/1006-Westbury-F-33442/unit-1006/home/41459541,,,N,Y,26.316008,-80.134175
PAST SALE,,Condo/Co-op,2100 N Ocean Blvd Unit 15E,Fort Lauderdale,FL,33305,1795000,3,3.0,,2341,,1999,,767,,,,,https://www.redfin.com/FL/Fort-Lauderdale/2100-N-Ocean-Blvd-33305/unit-15E/home/41985160,,,N,Y,26.155455,-80.1008487
PAST SALE,,Condo/Co-op,4374 NW 9th Ave Unit 17-3C,Deerfield Beach,FL,33064,165000,2,2.0,,1290,,1987,,128,,,,,https://www.redfin.com/FL/Deerfield-Beach/4374-NW-9th-Ave-33064/unit-17-3C/home/41482501,,,N,Y,26.2837889,-80.1339349
PAST SALE,,Condo/Co-op,4921 Leeward Ln #3403,Fort Lauderdale,FL,33312,330000,3,3.0,,1382,,2004,,239,,,,,https://www.redfin.com/FL/Fort-Lauderdale/4921-Leeward-Ln-33312/unit-3403/home/42026788,,,N,Y,26.061173,-80.172362
PAST SALE,,Condo/Co-op,511 SE 5th Ave #2012,Fort Lauderdale,FL,33301,338100,2,2.0,,1246,,2005,,271,,,,,https://www.redfin.com/FL/Fort-Lauderdale/511-SE-5th-Ave-33301/unit-2012/home/42065604,,,N,Y,26.116275,-80.1395001
PAST SALE,,Condo/Co-op,4042 SW 69th Ter Unit 16-M,Miramar,FL,33023,260000,2,2.0,,1050,,1974,,248,,,,,https://www.redfin.com/FL/Miramar/4042-SW-69th-Ter-33023/unit-16-M/home/41912160,,,N,Y,25.9729624,-80.2263182
PAST SALE,December-12-2022,Condo/Co-op,415 NE 2nd St #217,Hallandale Beach,FL,33009,160000,1,1.0,STAR PARADISE CONDO,561,,1979,,285,596,Sold,,,https://www.redfin.com/FL/Hallandale-Beach/415-NE-2nd-St-33009/unit-217/home/41975841,MARMLS,A11308137,N,Y,25.9883418,-80.1438681
PAST SALE,,Condo/Co-op,1500 SE 15th St #318,Fort Lauderdale,FL,33316,245000,2,2.0,,975,,1975,,251,,,,,https://www.redfin.com/FL/Fort-Lauderdale/1500-SE-15th-St-33316/unit-318/home/41805963,,,N,Y,26.1029787,-80.1275001
PAST SALE,November-22-2022,Condo/Co-op,6051 N Ocean Dr #1604,Hollywood,FL,33019,1300000,3,2.5,Renaissance On The Ocean,2350,,1999,,553,2306,Sold,,,https://www.redfin.com/FL/Hollywood/6051-N-Ocean-Dr-33019/unit-1604/home/41996591,Beaches MLS,F10355312,N,Y,26.0520355,-80.1130456
PAST SALE,,Condo/Co-op,140 NE 28th Ave #604,Pompano Beach,FL,33062,490000,2,2.0,,990,,1966,,495,,,,,https://www.redfin.com/FL/Pompano-Beach/140-NE-28th-Ave-33062/unit-604/home/41532660,,,N,Y,26.2334061,-80.0946676
PAST SALE,,Condo/Co-op,4009 Oakridge a,Deerfield Beach,FL,33442,138000,1,2.0,,753,,1977,,183,,,,,https://www.redfin.com/FL/Deerfield-Beach/4009-Oakridge-a-33442/home/41464385,,,N,Y,26.309718,-80.142598
PAST SALE,,Condo/Co-op,1632 Cypress Pointe Dr Unit 7-1,Coral Springs,FL,33071,205000,3,2.0,,1200,,1989,,171,,,,,https://www.redfin.com/FL/Coral-Springs/1632-Cypress-Pointe-Dr-33071/unit-7-1/home/41444968,,,N,Y,26.2514378,-80.2697319
PAST SALE,,Condo/Co-op,777 S Federal Hwy Unit RP115,Pompano Beach,FL,33062,185000,1,1.0,,630,,1972,,294,,,,,https://www.redfin.com/FL/Pompano-Beach/777-S-Federal-Hwy-33062/unit-RP115/home/41697448,,,N,Y,26.2236045,-80.1040121
PAST SALE,,Condo/Co-op,4221 W McNab Rd #16,Pompano Beach,FL,33069,160000,1,1.0,,470,,1989,,340,,,,,https://www.redfin.com/FL/Pompano-Beach/4221-W-McNab-Rd-33069/unit-16/home/42037949,,,N,Y,26.2096928,-80.1828422
PAST SALE,,Condo/Co-op,101 N Ocean Dr #728,Hollywood,FL,33019,124000,1,1.0,,335,,1925,,370,,,,,https://www.redfin.com/FL/Hollywood/101-N-Ocean-Dr-33019/unit-728/home/41935820,,,N,Y,26.0124577,-80.116163
PAST SALE,February-2-2023,Condo/Co-op,510 NW 84th Ave #328,Plantation,FL,33324,425000,2,2.0,VERANDA CONDO,1335,,2007,,318,978,Sold,,,https://www.redfin.com/FL/Plantation/510-NW-84th-Ave-33324/unit-328/home/42085371,MARMLS,A11317717,N,Y,26.1275915,-80.2601774
PAST SALE,December-16-2022,Condo/Co-op,181 NE 14th Ave Unit 19B,Hallandale,FL,33009,142000,1,1.0,Eldorado Plaza East Condo,736,,1966,,193,300,Sold,,,https://www.redfin.com/FL/Hallandale-Beach/181-NE-14th-Ave-33009/unit-19B/home/41973126,Beaches MLS,F10356362,N,Y,25.9879246,-80.134964
PAST SALE,,Condo/Co-op,1752 NW 3rd Ter Unit 117C,Fort Lauderdale,FL,33311,325000,2,2.0,,975,,1974,,333,,,,,https://www.redfin.com/FL/Fort-Lauderdale/1752-NW-3rd-Ter-33311/unit-117C/home/41694173,,,N,Y,26.1510725,-80.1478237
PAST SALE,,Condo/Co-op,2771 Taft St #105,Hollywood,FL,33020,150000,1,1.0,,780,,1972,,192,,,,,https://www.redfin.com/FL/Hollywood/2771-Taft-St-33020/unit-105/home/41934154,,,N,Y,26.0271956,-80.1648093
PAST SALE,,Condo/Co-op,500 SW 130th Ter Unit 201A,Pembroke Pines,FL,33027,195000,2,2.0,,1508,,1986,,129,,,,,https://www.redfin.com/FL/Pembroke-Pines/500-SW-130th-Ter-33027/unit-201A/home/41848666,,,N,Y,26.0037594,-80.3211801
PAST SALE,,Condo/Co-op,151 SE 6th Ave #15,Pompano Beach,FL,33060,210000,2,2.0,,939,,1970,,224,,,,,https://www.redfin.com/FL/Pompano-Beach/151-SE-6th-Ave-33060/unit-15/home/42061835,,,N,Y,26.2302528,-80.1179517
PAST SALE,,Condo/Co-op,3201 NE 14th Street Cswy #305,Pompano Beach,FL,33062,248000,1,1.0,,650,,1970,,382,,,,,https://www.redfin.com/FL/Pompano-Beach/3201-NE-14th-Street-Cswy-33062/unit-305/home/41524775,,,N,Y,26.2506353,-80.0882969
PAST SALE,,Condo/Co-op,3680 Inverrary Dr Unit 3A,Lauderhill,FL,33319,125000,1,2.0,,800,,1973,,156,,,,,https://www.redfin.com/FL/Lauderhill/3680-Inverrary-Dr-33319/unit-3A/home/41589291,,,N,Y,26.170823,-80.2316521
PAST SALE,,Condo/Co-op,4201 W McNab Rd #24,Pompano Beach,FL,33069,180000,2,2.0,,913,,1989,,197,,,,,https://www.redfin.com/FL/Pompano-Beach/4201-W-McNab-Rd-33069/unit-24/home/42027644,,,N,Y,26.2095234,-80.1820358
PAST SALE,January-6-2023,Condo/Co-op,5100 SW 41st St #107,Pembroke Park,FL,33023,108000,2,2.0,CONDADO REAL CONDO,810,,1973,,133,436,Sold,,,https://www.redfin.com/FL/Pembroke-Park/5100-SW-41st-St-33023/unit-107/home/42007098,MARMLS,A11301688,N,Y,25.9734425,-80.1933478
PAST SALE,,Condo/Co-op,3011 Ventnor G,Deerfield Beach,FL,33442,180000,2,2.0,,996,,1976,,181,,,,,https://www.redfin.com/FL/Deerfield-Beach/3011-Ventnor-G-33442/home/41463709,,,N,Y,26.3165869,-80.144224
PAST SALE,December-16-2022,Condo/Co-op,731 Vista Isles Dr #1525,Sunrise,FL,33325,220000,1,1.0,ISLES AT LAGO MAR CONDO,743,,1991,,296,260,Sold,,,https://www.redfin.com/FL/Plantation/731-Vista-Isles-Dr-33325/unit-1525/home/42060932,MARMLS,A11316636,N,Y,26.1301499,-80.3149607
PAST SALE,,Condo/Co-op,1410 S Ocean Dr #801,Hollywood,FL,33019,400000,2,2.0,,904,,1970,,442,,,,,https://www.redfin.com/FL/Hollywood/1410-S-Ocean-Dr-33019/unit-801/home/41962502,,,N,Y,26.002167,-80.1183966
PAST SALE,,Condo/Co-op,2611 NW 56th Ave Unit A329,Lauderhill,FL,33313,95000,2,1.0,,840,,1977,,113,,,,,https://www.redfin.com/FL/Lauderhill/2611-NW-56th-Ave-33313/unit-A329/home/41600032,,,N,Y,26.1594083,-80.2278874
PAST SALE,,Condo/Co-op,2812 NW 55th Ave Unit 1B,Lauderhill,FL,33313,140000,2,2.0,,1070,,1974,,131,,,,,https://www.redfin.com/FL/Lauderhill/2812-NW-55th-Ave-33313/unit-1B/home/41603637,,,N,Y,26.1617169,-80.2222743
PAST SALE,,Condo/Co-op,101 N Ocean Dr #720,Hollywood,FL,33019,150000,1,1.0,,310,,1925,,484,,,,,https://www.redfin.com/FL/Hollywood/101-N-Ocean-Dr-33019/unit-720/home/41938311,,,N,Y,26.0124577,-80.116163
PAST SALE,,Condo/Co-op,2219 Polk St Unit 10A,Hollywood,FL,33020,175000,1,1.0,,576,,1969,,304,,,,,https://www.redfin.com/FL/Hollywood/2219-Polk-St-33020/unit-10A/home/41938792,,,N,Y,26.0128932,-80.1517972
PAST SALE,,Condo/Co-op,4040 Galt Ocean Dr #325,Fort Lauderdale,FL,33308,295000,1,1.0,,330,,1960,,894,,,,,https://www.redfin.com/FL/Fort-Lauderdale/4040-Galt-Ocean-Dr-33308/unit-325/home/41708780,,,N,Y,26.1778801,-80.0971859
PAST SALE,,Condo/Co-op,101 NE 41st St Unit 91F,Oakland Park,FL,33334,157500,2,1.0,,590,,1978,,267,,,,,https://www.redfin.com/FL/Oakland-Park/101-NE-41st-St-33334/unit-91F/home/42063045,,,N,Y,26.1784913,-80.1456115
PAST SALE,,Condo/Co-op,123 Essex Rd Unit 4-25,Hollywood,FL,33024,275000,2,2.0,,1150,,1977,,239,,,,,https://www.redfin.com/FL/Hollywood/123-Essex-Rd-33024/unit-4-25/home/41867532,,,N,Y,26.0400263,-80.2272478
PAST SALE,November-21-2022,Condo/Co-op,3505 Oaks Way #506,Pompano Beach,FL,33069,329000,3,3.5,Palm Aire Country Club,1840,,1981,,179,588,Sold,,,https://www.redfin.com/FL/Pompano-Beach/3505-Oaks-Way-33069/unit-506/home/41644333,Beaches MLS,F10352650,N,Y,26.2275317,-80.1752568
PAST SALE,,Condo/Co-op,2970 NE 16th Ave #415,Oakland Park,FL,33334,152500,1,1.0,,600,,1966,,254,,,,,https://www.redfin.com/FL/Oakland-Park/2970-NE-16th-Ave-33334/unit-415/home/41675911,,,N,Y,26.1645194,-80.1257274
PAST SALE,January-13-2023,Condo/Co-op,11346 Taft St #11346,Pembroke Pines,FL,33026,190000,2,2.0,The Gardens At Pembroke,1225,,1982,,155,259,Sold,,,https://www.redfin.com/FL/Pembroke-Pines/11346-Taft-St-33026/unit-11346/home/41841742,Beaches MLS,F10359950,N,Y,26.022783,-80.30056
PAST SALE,November-18-2022,Condo/Co-op,7900 NW 50th St #108,Lauderhill,FL,33351,170000,2,2.0,Cascades Of Lauderhill,941,,1982,,181,364,Sold,,,https://www.redfin.com/FL/Lauderhill/7900-NW-50th-St-33351/unit-108/home/41577709,Beaches MLS,F10353876,N,Y,26.1868664,-80.2564362
PAST SALE,January-6-2023,Condo/Co-op,1040 Durham B #1040,Deerfield Beach,FL,33442,159000,1,1.5,DURHAM B CONDO,715,,1974,,222,425,Sold,,,https://www.redfin.com/FL/Deerfield-Beach/1040-Durham-B-33442/unit-1040/home/104343394,MARMLS,A11307802,N,Y,26.315122,-80.136404
PAST SALE,December-8-2022,Condo/Co-op,100 SW 130 Ter Unit C_311,Pembroke Pines,FL,33027,223000,2,2.0,Century Village,1351,,1986,,165,520,Sold,,,https://www.redfin.com/FL/Pembroke-Pines/100-SW-130th-Ter-33027/unit-C311/home/41847413,Beaches MLS,F10352582,N,Y,26.0060649,-80.3211004
PAST SALE,December-30-2022,Condo/Co-op,1490 NW 43rd Ave #110,Lauderhill,FL,33313,85000,2,2.0,PARK SOUTH SEVEN INC COND,950,,1969,,89,264,Sold,,,https://www.redfin.com/FL/Lauderhill/1490-NW-43rd-Ave-33313/unit-110/home/41629093,MARMLS,A11316180,N,Y,26.1446844,-80.2067713
PAST SALE,February-14-2023,Condo/Co-op,120 Lakeview Dr #311,Weston,FL,33326,328000,2,2.0,Racquet Club Apt,1106,,1981,,297,349,Sold,,,https://www.redfin.com/FL/Weston/120-Lakeview-Dr-33326/unit-311/home/41728318,Beaches MLS,F10362401,N,Y,26.1279182,-80.3831756
PAST SALE,February-7-2023,Condo/Co-op,1000 S Ocean Blvd Unit 7j,Pompano Beach,FL,33062,310000,2,2.0,Pompano Atlantis Condo,1400,,1973,,221,856,Sold,,,https://www.redfin.com/FL/Pompano-Beach/1000-S-Ocean-Blvd-33062/unit-7J/home/41697060,Beaches MLS,RX-10854390,N,Y,26.2253168,-80.0904092
PAST SALE,December-5-2022,Condo/Co-op,510 NW 84th Ave #505,Plantation,FL,33324,255000,1,1.0,VERANDA CONDO,789,,2007,,323,545,Sold,,,https://www.redfin.com/FL/Plantation/510-NW-84th-Ave-33324/unit-505/home/42071901,MARMLS,A11300280,N,Y,26.1275915,-80.2601774
PAST SALE,December-30-2022,Condo/Co-op,1833 NW 54th Ter #1,Lauderhill,FL,33313,140000,3,2.0,Windermere,1350,,1973,,104,288,Sold,,,https://www.redfin.com/FL/Lauderhill/1833-NW-54th-Ter-33313/unit-1/home/182232303,Beaches MLS,F10351852,N,Y,26.1485623,-80.2227638
PAST SALE,December-5-2022,Condo/Co-op,4128 W Palm Aire Dr Unit 281D,Pompano Beach,FL,33069,505000,3,2.0,Vizcaya,1810,,1986,,279,836,Sold,,,https://www.redfin.com/FL/Pompano-Beach/4128-W-Palm-Aire-Dr-33069/unit-281D/home/41640896,Beaches MLS,F10353143,N,Y,26.2181561,-80.1837141
PAST SALE,January-20-2023,Condo/Co-op,12901 SW 15th Ct Unit V-401,Pembroke Pines,FL,33027,265000,2,2.0,Century Village,1507,,1991,,176,651,Sold,,,https://www.redfin.com/FL/Pembroke-Pines/12901-SW-15th-Ct-33027/unit-V401/home/41843800,Beaches MLS,F10359397,N,Y,25.9949142,-80.3188299
PAST SALE,,Condo/Co-op,1200 SW 52nd Ave Unit 111-1,North Lauderdale,FL,33068,141000,1,1.0,,699,,1975,,202,,,,,https://www.redfin.com/FL/North-Lauderdale/1200-SW-52nd-Ave-33068/unit-111-1/home/42043762,,,N,Y,26.2125792,-80.2007708
PAST SALE,December-19-2022,Condo/Co-op,9720 S Hollybrook Lake Dr #103,Pembroke Pines,FL,33025,185000,2,2.0,Hollybrook Golf & Tennis,1170,,1973,,158,,Sold,,,https://www.redfin.com/FL/Pembroke-Pines/9720-S-Hollybrook-Lake-Dr-33025/unit-103/home/41900260,Beaches MLS,F10359427,N,Y,25.9960367,-80.2700539
PAST SALE,November-18-2022,Condo/Co-op,3200 Port Royale Dr N #1909,Fort Lauderdale,FL,33308,510000,2,2.0,TOWER AT PORT ROYALE,1379,,1981,,370,725,Sold,,,https://www.redfin.com/FL/Fort-Lauderdale/3200-Port-Royale-Dr-N-33308/unit-1909/home/41702201,MARMLS,A11294487,N,Y,26.2107393,-80.1016231
PAST SALE,December-13-2022,Condo/Co-op,8970 S Hollybrook Blvd #203,Pembroke Pines,FL,33025,257500,2,2.0,Hollybrook Golf & Tennis,1170,,1973,,220,,Sold,,,https://www.redfin.com/FL/Pembroke-Pines/8970-S-Hollybrook-Blvd-33025/unit-203/home/41887001,Beaches MLS,F10355503,N,Y,26.0036374,-80.2680719
PAST SALE,January-6-2023,Condo/Co-op,1021 Durham A,Deerfield Beach,FL,33442,135000,1,1.0,Durham A Condo,603,,1975,,224,390,Sold,,,https://www.redfin.com/FL/Deerfield-Beach/1021-Durham-a-33442/home/41458265,Beaches MLS,RX-10846297,N,Y,26.3139851,-80.1372199
PAST SALE,December-30-2022,Condo/Co-op,6672 W Sample Rd #6672,Coral Springs,FL,33067,195000,1,1.0,Cypress Pointe,716,,2004,,272,223,Sold,,,https://www.redfin.com/FL/Coral-Springs/6672-W-Sample-Rd-33067/unit-6672/home/42029193,Beaches MLS,F10358977,N,Y,26.2728574,-80.2141378
PAST SALE,December-23-2022,Condo/Co-op,1218 SW 147th Ter #1218,Pembroke Pines,FL,33027,360000,2,2.5,MEADOW PINES,1458,,2013,,247,636,Sold,,,https://www.redfin.com/FL/Pembroke-Pines/1218-SW-147th-Ter-33027/unit-1218/home/182716790,MARMLS,A11300058,N,Y,25.9980174,-80.3437757
PAST SALE,February-9-2023,Condo/Co-op,510 NW 84th Ave #523,Plantation,FL,33324,380000,2,2.0,VERANDA CONDO,1251,,2007,,304,1776,Sold,,,https://www.redfin.com/FL/Plantation/510-NW-84th-Ave-33324/unit-523/home/42077166,MARMLS,A11314673,N,Y,26.1275915,-80.2601774
PAST SALE,January-18-2023,Condo/Co-op,639 W Oakland Park Blvd Unit 220D,Wilton Manors,FL,33311,170000,1,1.0,Oakland Grove Village,685,,1969,,248,270,Sold,,,https://www.redfin.com/FL/Wilton-Manors/639-W-Oakland-Park-Blvd-33311/unit-220D/home/41669536,Beaches MLS,F10359314,N,Y,26.167556,-80.1516709
PAST SALE,January-12-2023,Condo/Co-op,1501 N 12th Ct Unit 1B,Hollywood,FL,33019,200000,2,1.5,Crystal Court Manor,900,,1970,,222,167,Sold,,,https://www.redfin.com/FL/Hollywood/1501-N-12th-Ct-33019/unit-1B/home/41934486,Beaches MLS,F10357895,N,Y,26.025344,-80.131219
PAST SALE,January-23-2023,Condo/Co-op,7118 S Devon Dr #109,Tamarac,FL,33321,217000,2,2.0,DEVON CONDOMINIUM,1142,,1989,,190,474,Sold,,,https://www.redfin.com/FL/Tamarac/7118-S-Devon-Dr-33321/unit-109/home/41555225,MARMLS,A11315453,N,Y,26.2149684,-80.2950051
PAST SALE,November-28-2022,Condo/Co-op,2900 N Course Dr #505,Pompano Beach,FL,33069,189000,2,2.0,PALM-AIRE C C APTS 53 CON,1216,,1982,,155,429,Sold,,,https://www.redfin.com/FL/Pompano-Beach/2900-N-Course-Dr-33069/unit-505/home/41636904,MARMLS,A11293969,N,Y,26.2265852,-80.1614791
PAST SALE,December-20-2022,Condo/Co-op,510 NW 84th Ave #319,Plantation,FL,33324,350000,2,3.0,VERANDA CONDO,1135,,2007,,308,808,Sold,,,https://www.redfin.com/FL/Plantation/510-NW-84th-Ave-33324/unit-319/home/42069405,MARMLS,A11301034,N,Y,26.1275915,-80.2601774
PAST SALE,February-15-2023,Condo/Co-op,2211 NE 67th St #1124,Fort Lauderdale,FL,33308,260000,2,2.0,Imperial Point Colonnades,1008,,1971,,258,586,Sold,,,https://www.redfin.com/FL/Fort-Lauderdale/2211-NE-67th-St-33308/unit-1124/home/41653404,Beaches MLS,F10363351,N,Y,26.2100513,-80.1115978
PAST SALE,February-10-2023,Condo/Co-op,1035 Durham B,Deerfield Beach,FL,33442,100000,1,1.5,Durham B Condo,715,,1974,,140,436,Sold,,,https://www.redfin.com/FL/Deerfield-Beach/1035-Durham-B-33442/home/41461212,Beaches MLS,RX-10855655,N,Y,26.3151427,-80.1364084
PAST SALE,February-3-2023,Condo/Co-op,464 Grantham E #464,Deerfield Beach,FL,33442,140000,1,1.5,Century Village East,719,,1977,,195,416,Sold,,,https://www.redfin.com/FL/Deerfield-Beach/464-Grantham-E-33442/unit-464/home/183329077,Beaches MLS,F10359740,N,Y,26.308518,-80.134908
PAST SALE,January-26-2023,Condo/Co-op,4445 El Mar Dr #210,Lauderdale By The Sea,FL,33308,1425000,3,3.0,Villas By The Sea,2152,,2008,,662,,Sold,,,https://www.redfin.com/FL/Lauderdale-By-The-Sea/4445-El-Mar-Dr-33308/unit-210/home/182099442,Beaches MLS,F10350823,N,Y,26.1915196,-80.0960051
PAST SALE,January-3-2023,Condo/Co-op,4040 Galt Ocean Dr #501,Fort Lauderdale,FL,33308,361000,1,1.0,Ocean Manor Condo,,,1957,,,670,Sold,,,https://www.redfin.com/FL/Fort-Lauderdale/4040-Galt-Ocean-Dr-33308/unit-501/home/41715887,Beaches MLS,F10357561,N,Y,26.1778801,-80.0971859
PAST SALE,January-27-2023,Condo/Co-op,511 Bayshore Dr #1010,Fort Lauderdale,FL,33304,875000,2,2.0,Bayshore Towers,1330,,1971,,658,745,Sold,,,https://www.redfin.com/FL/Fort-Lauderdale/511-Bayshore-Dr-33304/unit-1010/home/41783967,Beaches MLS,F10358859,N,Y,26.1291644,-80.1087078
PAST SALE,December-30-2022,Condo/Co-op,146 Upminster G #146,Deerfield Beach,FL,33442,210000,2,2.0,Century Village,832,,1976,,252,291,Sold,,,https://www.redfin.com/FL/Deerfield-Beach/146-Upminster-G-33442/unit-146/home/148132823,Beaches MLS,F10354952,N,Y,26.3120249,-80.1296519
PAST SALE,December-29-2022,Condo/Co-op,171 Ellesmere C Unit 171 C,Deerfield Beach,FL,33442,90000,2,1.5,Ellesmere C Condo,820,,1974,,110,453,Sold,,,https://www.redfin.com/FL/Deerfield-Beach/171-Ellesmere-C-33442/unit-171-C/home/182854402,Beaches MLS,RX-10845980,N,Y,26.317129,-80.140072
PAST SALE,,Condo/Co-op,103 NE 19th Ave #340,Deerfield Beach,FL,33441,464000,2,2.0,,941,,1968,,493,,,,,https://www.redfin.com/FL/Deerfield-Beach/103-NE-19th-Ave-33441/unit-340/home/41507728,,,N,Y,26.3155406,-80.0797409
PAST SALE,January-6-2023,Condo/Co-op,6031 Shakerwood Cir #105,Tamarac,FL,33319,131000,1,1.0,SHAKER WOODS VILLAGE COND,550,,1983,,238,186,Sold,,,https://www.redfin.com/FL/Tamarac/6031-Shakerwood-Cir-33319/unit-105/home/41566005,MARMLS,A11283834,N,Y,26.1995339,-80.2284617
PAST SALE,December-29-2022,Condo/Co-op,525 N Ft Lauderdale Bch Blvd #1409,Fort Lauderdale,FL,33304,2650000,3,3.5,Four Seasons,1759,,2019,,1507,4854,Sold,,,https://www.redfin.com/FL/Fort-Lauderdale/525-N-Fort-Lauderdale-Beach-Blvd-33304/unit-1409/home/121426632,Beaches MLS,F10072163,N,Y,26.1301231,-80.1034426
PAST SALE,February-1-2023,Condo/Co-op,1100 SE 5th Ct #22,Pompano Beach,FL,33060,635000,2,2.0,Nobel Point,1170,,1980,,543,567,Sold,,,https://www.redfin.com/FL/Pompano-Beach/1100-SE-5th-Ct-33060/unit-22/home/41634947,Beaches MLS,F10365952,N,Y,26.2224507,-80.1071456
PAST SALE,December-28-2022,Condo/Co-op,335 Durham J Unit 335 J,Deerfield Beach,FL,33442,108000,1,1.5,Century Village,703,,1974,,154,404,Sold,,,https://www.redfin.com/FL/Deerfield-Beach/335-Durham-Cir-33442/unit-335-J/home/182707427,Beaches MLS,F10355662,N,Y,26.316092,-80.136746
PAST SALE,December-8-2022,Condo/Co-op,8710 N Sherman Cir #508,Miramar,FL,33025,189,2,2.0,LAKESHORE AT UNIVERSITY P,832,,1984,,0,337,Sold,,,https://www.redfin.com/FL/Miramar/8710-N-Sherman-Cir-33025/unit-508/home/41898671,MARMLS,A11291079,N,Y,25.9914557,-80.2597269
PAST SALE,January-27-2023,Condo/Co-op,1180 N Federal Hwy #808,Fort Lauderdale,FL,33304,2100000,3,3.5,Riva Residences,2233,,2018,,940,1670,Sold,,,https://www.redfin.com/FL/Fort-Lauderdale/1180-N-Federal-Hwy-33304/unit-808/home/63058586,Beaches MLS,F10353041,N,Y,26.1396472,-80.1189664
PAST SALE,November-28-2022,Condo/Co-op,13350 SW 1st St Unit P-309,Pembroke Pines,FL,33027,130000,1,1.5,Century Village,811,,1986,,160,497,Sold,,,https://www.redfin.com/FL/Pembroke-Pines/13350-SW-1st-St-33027/unit-P-309/home/182223853,Beaches MLS,F10351816,N,Y,26.0068537,-80.325381
PAST SALE,November-18-2022,Condo/Co-op,6001 Shakerwood Cir #104,Tamarac,FL,33319,185000,2,2.0,SHAKER WOODS VILLAGE COND,775,,1983,,239,261,Sold,,,https://www.redfin.com/FL/Tamarac/6001-Shakerwood-Cir-33319/unit-104/home/41564998,MARMLS,A11283751,N,Y,26.1985634,-80.2283934
PAST SALE,November-30-2022,Condo/Co-op,5535 N Lakewood Cir N #311,Margate,FL,33063,200000,2,2.0,LAKEWOOD ON THE GREEN 1 C,970,,1974,,206,458,Sold,,,https://www.redfin.com/FL/Margate/5535-Lakewood-Cir-N-33063/unit-311/home/41503081,MARMLS,A11276623,N,Y,26.234397,-80.2005382
PAST SALE,December-8-2022,Condo/Co-op,767 NW 92nd Ave #767,Plantation,FL,33324,208000,1,1.0,COLONNADES CONDO,805,,1991,,258,395,Sold,,,https://www.redfin.com/FL/Plantation/767-NW-92nd-Ave-33324/unit-767/home/182596918,MARMLS,A11297605,N,Y,26.1314961,-80.2718494
PAST SALE,January-24-2023,Condo/Co-op,1502 Whitehall Dr #204,Davie,FL,33324,268800,2,2.0,Whitehall,1385,,1983,,194,567,Sold,,,https://www.redfin.com/FL/Davie/1502-Whitehall-Dr-33324/unit-204/home/41767712,Beaches MLS,F10362014,N,Y,26.1003463,-80.2707958
PAST SALE,January-12-2023,Condo/Co-op,6051 N Ocean Dr Ph 4,Hollywood,FL,33019,1500000,3,2.5,Renaissance Onthe Ocean,2233,,1999,,672,2092,Sold,,,https://www.redfin.com/FL/Hollywood/6051-N-Ocean-Dr-33019/unit-4/home/41992074,Beaches MLS,F10354973,N,Y,26.0520355,-80.1130456
PAST SALE,November-18-2022,Condo/Co-op,3505 Oaks Way #111,Pompano Beach,FL,33069,330000,3,2.5,Palm Aire Country Club,1710,,1981,,193,574,Sold,,,https://www.redfin.com/FL/Pompano-Beach/3505-Oaks-Way-33069/unit-111/home/41642805,Beaches MLS,F10351746,N,Y,26.2275317,-80.1752568
PAST SALE,January-20-2023,Condo/Co-op,2731 NE 14th Street Cswy #614,Pompano Beach,FL,33062,265000,2,2.0,GARDEN-AIRE VILLAGE,980,,1970,,270,632,Sold,,,https://www.redfin.com/FL/Pompano-Beach/2731-NE-14th-Street-Cswy-33062/unit-614/home/182748716,MARMLS,A11301263,N,Y,26.2510571,-80.0939542
PAST SALE,December-6-2022,Condo/Co-op,3800 Galt Ocean Dr #403,Fort Lauderdale,FL,33308,399900,1,1.5,Galt Ocean Club,802,,1983,,499,525,Sold,,,https://www.redfin.com/FL/Fort-Lauderdale/3800-Galt-Ocean-Dr-33308/unit-403/home/41710302,Beaches MLS,F10355871,N,Y,26.1746378,-80.0976084
PAST SALE,December-30-2022,Condo/Co-op,2601 S Course Dr #404,Pompano Beach,FL,33069,165000,1,1.5,Palmaire Country Club,900,,1971,,183,325,Sold,,,https://www.redfin.com/FL/Pompano-Beach/2601-S-Course-Dr-33069/unit-404/home/41636786,Beaches MLS,F10355829,N,Y,26.2217546,-80.1576419
PAST SALE,December-2-2022,Condo/Co-op,1333 E Hallandale Beach Blvd #141,Hallandale,FL,33009,175000,1,1.5,April Mist Condo,721,,1967,,243,206,Sold,,,https://www.redfin.com/FL/Hallandale-Beach/1333-E-Hallandale-Beach-Blvd-33009/unit-141/home/41971166,Beaches MLS,F10353511,N,Y,25.986767,-80.1347459
PAST SALE,January-20-2023,Condo/Co-op,9755 Westview Dr #1224,Coral Springs,FL,33076,232500,2,2.0,Citation Way,1000,,2005,,233,358,Sold,,,https://www.redfin.com/FL/Coral-Springs/9755-Westview-Dr-33076/unit-1224/home/42031980,Beaches MLS,F10357931,N,Y,26.2982786,-80.254827
PAST SALE,December-12-2022,Condo/Co-op,1747 Rodman St #310,Hollywood,FL,33020,185000,2,2.0,Rodman Of Hollywood,940,,1969,,197,328,Sold,,,https://www.redfin.com/FL/Hollywood/1747-Rodman-St-33020/unit-310/home/41951513,Beaches MLS,F10354885,N,Y,26.0017044,-80.1424237
PAST SALE,December-5-2022,Condo/Co-op,2701 E Sunrise Lakes Dr #106,Sunrise,FL,33322,125000,1,1.0,Sunrise Lakes,640,,1974,,195,303,Sold,,,https://www.redfin.com/FL/Sunrise/2701-E-Sunrise-Lakes-Dr-33322/unit-106/home/41602971,Beaches MLS,RX-10843506,N,Y,26.158927,-80.254797
PAST SALE,January-26-2023,Condo/Co-op,1113 Oakridge V #1113,Deerfield Beach,FL,33442,185000,2,2.0,Century Village East,983,,1977,,188,443,Sold,,,https://www.redfin.com/FL/Deerfield-Beach/1113-Oakridge-V-33442/unit-1113/home/183178541,Beaches MLS,F10358994,N,Y,26.3069099,-80.138204
PAST SALE,February-3-2023,Condo/Co-op,610 NE 12th Ave #603,Hallandale Beach,FL,33009,135000,1,1.5,MEADOWBROOK TOWERS CONDO,847,,1969,,159,336,Sold,,,https://www.redfin.com/FL/Hallandale-Beach/610-NE-12th-Ave-33009/unit-603/home/41943945,MARMLS,A11318219,N,Y,25.9920221,-80.1354522
PAST SALE,December-13-2022,Condo/Co-op,2812 N 46th Ave Unit G273,Hollywood,FL,33021,215000,1,1.5,GRANDVIEW AT EMERALD HILL,1008,,1982,,213,431,Sold,,,https://www.redfin.com/FL/Hollywood/2812-N-46th-Ave-33021/unit-G273/home/41916453,MARMLS,A11298511,N,Y,26.0350549,-80.1909241
PAST SALE,January-13-2023,Condo/Co-op,9947 Nob Hill Ln #9947,Sunrise,FL,33351,203000,1,1.0,Villa De Venezia,744,,1989,,273,293,Sold,,,https://www.redfin.com/FL/Sunrise/9947-Nob-Hill-Ct-33351/unit-9947/home/42055045,Beaches MLS,F10360380,N,Y,26.1744999,-80.2812299
PAST SALE,,Condo/Co-op,1616 Cypress Pointe Dr #1616,Coral Springs,FL,33071,225000,3,3.0,,1604,,1982,,140,,,,,https://www.redfin.com/FL/Coral-Springs/1616-Cypress-Pointe-Dr-33071/unit-1616/home/41444001,,,N,Y,26.2506067,-80.2701013
PAST SALE,February-3-2023,Condo/Co-op,1401 N Riverside Dr #604,Pompano Beach,FL,33062,285000,1,1.0,The Waterbury Condominium,762,,1975,,374,455,Sold,,,https://www.redfin.com/FL/Pompano-Beach/1401-N-Riverside-Dr-33062/unit-604/home/41525116,Beaches MLS,F10360275,N,Y,26.2508218,-80.0892411
PAST SALE,,Condo/Co-op,1093 Newport S,Deerfield Beach,FL,33442,135000,1,2.0,,753,,1974,,179,,,,,https://www.redfin.com/FL/Deerfield-Beach/1093-Newport-S-33442/home/41464432,,,N,Y,26.304727,-80.1427
PAST SALE,February-9-2023,Condo/Co-op,1919 Van Buren St Unit 616A,Hollywood,FL,33020,262000,1,1.0,REGENT PARK CONDO,736,,2004,,356,420,Sold,,,https://www.redfin.com/FL/Hollywood/1919-Van-Buren-St-33020/unit-616A/home/42027234,MARMLS,A11328827,N,Y,26.0097999,-80.1453879
PAST SALE,December-22-2022,Condo/Co-op,8950 Sunrise Lakes Blvd #306,Sunrise,FL,33322,110000,1,1.0,Sunrise Lakes 80 Condo,640,,1975,,172,312,Sold,,,https://www.redfin.com/FL/Sunrise/8950-Sunrise-Lakes-Blvd-33322/unit-306/home/41609041,Beaches MLS,F10353216,N,Y,26.1608486,-80.2704333
PAST SALE,December-27-2022,Condo/Co-op,9101 Lime Bay Blvd #106,Tamarac,FL,33321,110000,1,1.5,LIME BAY 6 CONDO,750,,1974,,147,331,Sold,,,https://www.redfin.com/FL/Tamarac/9101-Lime-Bay-Blvd-33321/unit-106/home/41556155,MARMLS,A11298942,N,Y,26.2075404,-80.2731185
PAST SALE,December-16-2022,Condo/Co-op,2681 S Course Dr #404,Pompano Beach,FL,33069,286000,2,2.0,Pacc2,1150,,1971,,249,387,Sold,,,https://www.redfin.com/FL/Pompano-Beach/2681-S-Course-Dr-33069/unit-404/home/41637339,Beaches MLS,F10354612,N,Y,26.2191031,-80.1602582
PAST SALE,December-19-2022,Condo/Co-op,12400 Vista Isles Dr #1425,Sunrise,FL,33325,220000,1,1.0,ISLES AT LAGO MAR CONDO,743,,1991,,296,260,Sold,,,https://www.redfin.com/FL/Plantation/12400-Vista-Isles-Dr-33325/unit-1425/home/42052379,MARMLS,A11301387,N,Y,26.129062,-80.3169829
PAST SALE,January-17-2023,Condo/Co-op,4050 Lyndhurst K #4050,Deerfield Beach,FL,33442,270000,2,2.0,Century Village East,1100,,1977,,245,506,Sold,,,https://www.redfin.com/FL/Deerfield-Beach/4050-Lyndhurst-K-33442/unit-4050/home/77445955,Beaches MLS,F10358053,N,Y,26.310253,-80.137963
PAST SALE,December-5-2022,Condo/Co-op,9977 Westview Dr #112,Coral Springs,FL,33076,235000,2,2.0,Citation Way,850,,1990,,276,353,Sold,,,https://www.redfin.com/FL/Coral-Springs/9977-Westview-Dr-33076/unit-112/home/42029422,Beaches MLS,F10354893,N,Y,26.2986957,-80.256591
PAST SALE,December-9-2022,Condo/Co-op,1980 S Ocean Dr Unit 6Q,Hallandale Beach,FL,33009,420000,3,2.5,HALLANDALE,1740,,1971,,241,1115,Sold,,,https://www.redfin.com/FL/Hallandale-Beach/1980-S-Ocean-Dr-33009/unit-6Q/home/41964857,MARMLS,A11299307,N,Y,25.9792729,-80.1194349
PAST SALE,November-29-2022,Condo/Co-op,1560 Mckinley St Unit 214 W,Hollywood,FL,33020,135000,1,1.5,Mayfair Apt Co-op,665,,1964,,203,397,Sold,,,https://www.redfin.com/FL/Hollywood/1560-McKinley-St-33020/unit-214W/home/41926277,Beaches MLS,F10354090,N,Y,26.0242875,-80.138715
PAST SALE,December-29-2022,Condo/Co-op,2846 S University Dr #4204,Davie,FL,33328,205000,1,1.0,Sundance,565,,1989,,363,408,Sold,,,https://www.redfin.com/FL/Davie/2846-S-University-Dr-33328/unit-4204/home/42049111,Beaches MLS,F10358569,N,Y,26.0854965,-80.249513
PAST SALE,December-7-2022,Condo/Co-op,2864 NE 32nd St #6,Fort Lauderdale,FL,33306,190000,1,1.0,Royal Plaza,680,,1977,,279,258,Sold,,,https://www.redfin.com/FL/Fort-Lauderdale/2864-NE-32nd-St-33306/unit-6/home/41672172,Beaches MLS,F10353916,N,Y,26.1683071,-80.1060588
PAST SALE,January-18-2023,Condo/Co-op,3900 Galt Ocean Dr #2815,Fort Lauderdale,FL,33308,790000,2,2.0,Playa Del Mar,1435,,1975,,551,694,Sold,,,https://www.redfin.com/FL/Fort-Lauderdale/3900-Galt-Ocean-Dr-33308/unit-2815/home/41710440,Beaches MLS,F10361156,N,Y,26.1758696,-80.0975324
PAST SALE,January-27-2023,Condo/Co-op,640 Tennis Club Dr #105,Fort Lauderdale,FL,33311,265000,2,1.5,TENNIS CLUB MC LOUGHLIN C,1056,,1972,,251,477,Sold,,,https://www.redfin.com/FL/Fort-Lauderdale/640-Tennis-Club-Dr-33311/unit-105/home/41692487,MARMLS,A11314308,N,Y,26.1514848,-80.1482089
PAST SALE,December-8-2022,Condo/Co-op,3160 Holiday Springs Blvd Unit 7-209,Margate,FL,33063,134500,2,2.0,Holiday Springs Village,958,,1974,,140,536,Sold,,,https://www.redfin.com/FL/Margate/3160-Holiday-Springs-Blvd-33063/unit-7-209/home/41430603,Beaches MLS,F10355574,N,Y,26.265849,-80.2333077
PAST SALE,November-30-2022,Condo/Co-op,3399 Foxcroft Rd #214,Miramar,FL,33025,210000,2,2.0,MIRAMAR CLUB #4 CONDO,820,,1984,,256,357,Sold,,,https://www.redfin.com/FL/Miramar/3399-Foxcroft-Rd-33025/unit-214/home/41917033,MARMLS,A11292597,N,Y,25.9797711,-80.2676331
PAST SALE,December-28-2022,Condo/Co-op,427 Golden Isles Dr Unit 4C,Hallandale Beach,FL,33009,245000,2,2.0,GOLDEN HORN SOUTH CONDO,1522,,1972,,161,448,Sold,,,https://www.redfin.com/FL/Hallandale-Beach/427-Golden-Isles-Dr-33009/unit-4C/home/41964919,MARMLS,A11291839,N,Y,25.9823384,-80.1288138
PAST SALE,January-6-2023,Condo/Co-op,1833 S Ocean Dr #1503,Hallandale Beach,FL,33009,330000,2,2.0,PLAZA TOWERS NORTH CONDO,1100,,1972,,300,639,Sold,,,https://www.redfin.com/FL/Hallandale-Beach/1833-S-Ocean-Dr-33009/unit-1503/home/41966484,MARMLS,A11303855,N,Y,25.984768,-80.1209182
PAST SALE,February-10-2023,Condo/Co-op,9410 Poinciana Pl #303,Davie,FL,33324,227000,2,2.0,Pine Island Ridge,970,,1974,,234,435,Sold,,,https://www.redfin.com/FL/Davie/9410-Poinciana-Pl-33324/unit-303/home/41767464,Beaches MLS,F10358828,N,Y,26.0967836,-80.273371
PAST SALE,December-2-2022,Condo/Co-op,8030 Hampton Blvd #504,North Lauderdale,FL,33068,185000,2,2.0,Dorado At Hamptons West,1350,,1984,,137,433,Sold,,,https://www.redfin.com/FL/North-Lauderdale/8030-Hampton-Blvd-33068/unit-504/home/41543173,Beaches MLS,F10353073,N,Y,26.2137187,-80.2357038
PAST SALE,,Condo/Co-op,2601 NW 56th Ave Unit B103,Lauderhill,FL,33313,116000,2,1.0,,840,,1975,,138,,,,,https://www.redfin.com/FL/Lauderhill/2601-NW-56th-Ave-33313/unit-B103/home/41604059,,,N,Y,26.1590984,-80.2275348
PAST SALE,January-12-2023,Condo/Co-op,3500 Blue Lake Dr #104,Pompano Beach,FL,33064,213000,2,2.0,BLUE LAKE APTS CONDO,1150,,1980,,185,411,Sold,,,https://www.redfin.com/FL/Pompano-Beach/3500-Blue-Lake-Dr-33064/unit-104/home/41484536,MARMLS,A11304433,N,Y,26.273551,-80.142424
PAST SALE,December-7-2022,Condo/Co-op,12500 SW 6th St Unit 404N,Pembroke Pines,FL,33027,210000,2,2.0,BUCKINGHAM EAST AT CENTUR,1192,,1987,,176,543,Sold,,,https://www.redfin.com/FL/Pembroke-Pines/12500-SW-6th-St-33027/unit-N404/home/41844449,MARMLS,A11282623,N,Y,26.0021316,-80.3146443
PAST SALE,December-29-2022,Condo/Co-op,6451 N University Dr #223,Tamarac,FL,33321,195,2,2.0,CONCORD VILLAGE 1 CONDO,1023,,1979,,0,412,Sold,,,https://www.redfin.com/FL/Tamarac/6451-N-University-Dr-33321/unit-223/home/41561127,MARMLS,A11282792,N,Y,26.2047508,-80.2530888
PAST SALE,December-29-2022,Condo/Co-op,2100 S Ocean Ln #1901,Fort Lauderdale,FL,33316,560000,1,1.5,POINT OF AMERICAS CONDO,1297,,1969,,432,1343,Sold,,,https://www.redfin.com/FL/Fort-Lauderdale/2100-S-Ocean-Ln-33316/unit-1901/home/41803087,MARMLS,A11310260,N,Y,26.0965298,-80.1068264
PAST SALE,December-27-2022,Condo/Co-op,2991 NW 46th Ave #304,Lauderdale Lakes,FL,33313,89000,1,1.5,Lauderdale Oaks,768,,1971,,116,241,Sold,,,https://www.redfin.com/FL/Lauderdale-Lakes/2991-NW-46th-Ave-33313/unit-304/home/41598868,Beaches MLS,F10357454,N,Y,26.162696,-80.210447
PAST SALE,December-19-2022,Condo/Co-op,151 SE 6th Ave #6,Pompano Beach,FL,33060,160000,1,1.5,PARK PLACE AT POMPANO,700,,1970,,229,245,Sold,,,https://www.redfin.com/FL/Pompano-Beach/151-SE-6th-Ave-33060/unit-6/home/42059854,MARMLS,A11314879,N,Y,26.2302528,-80.1179517
PAST SALE,November-23-2022,Condo/Co-op,82 Tilford D Unit D,Deerfield Beach,FL,33442,84000,1,1.5,Century Village East,700,,1978,,120,402,Sold,,,https://www.redfin.com/FL/Deerfield-Beach/82-Tilford-D-33442/unit-D/home/182461591,Beaches MLS,F10353598,N,Y,26.3110458,-80.1447767
PAST SALE,November-23-2022,Condo/Co-op,1024 Durham A #1024,Deerfield Beach,FL,33442,169000,1,1.5,Century Village East,715,,1975,,236,423,Sold,,,https://www.redfin.com/FL/Deerfield-Beach/1024-Durham-A-33442/unit-1024/home/171737815,Beaches MLS,F10354294,N,Y,26.3140259,-80.137163
PAST SALE,December-1-2022,Condo/Co-op,3800 Oaks Clubhouse Dr #106,Pompano Beach,FL,33069,425000,3,2.5,Palm Aire Cc 70 Condo,2098,,1976,,203,487,Sold,,,https://www.redfin.com/FL/Pompano-Beach/3800-Oaks-Clubhouse-Dr-33069/unit-106/home/41643658,Beaches MLS,F10350846,N,Y,26.2214121,-80.1752568
PAST SALE,January-6-2023,Condo/Co-op,808 Cypress Blvd #409,Pompano Beach,FL,33069,360000,3,2.5,Palm Aire Country Club,1620,,1979,,222,649,Sold,,,https://www.redfin.com/FL/Pompano-Beach/808-Cypress-Blvd-33069/unit-409/home/41643642,Beaches MLS,F10355690,N,Y,26.2133363,-80.1813601
PAST SALE,February-2-2023,Condo/Co-op,350 S Hollybrook Ter #107,Pembroke Pines,FL,33025,287000,2,2.0,HOLLYBROOK GOLF AND,1459,,1987,,197,1126,Sold,,,https://www.redfin.com/FL/Pembroke-Pines/350-S-Hollybrook-Ter-33025/unit-107/home/41892874,MARMLS,A11318898,N,Y,26.0055695,-80.2683834
PAST SALE,February-9-2023,Condo/Co-op,7173 Orange Dr Unit 102B,Davie,FL,33314,185000,1,1.0,COUNTRY PINES CONDO,800,,1974,,231,320,Sold,,,https://www.redfin.com/FL/Davie/7173-Orange-Dr-33314/unit-102B/home/41775759,MARMLS,A11324225,N,Y,26.0660604,-80.2417636
PAST SALE,December-30-2022,Condo/Co-op,7081 Environ Blvd #439,Lauderhill,FL,33319,91000,1,1.5,Environ I,1148,,1973,,79,443,Sold,,,https://www.redfin.com/FL/Lauderhill/7081-Environ-Blvd-33319/unit-439/home/41583928,Beaches MLS,F10342443,N,Y,26.1751285,-80.2452703
PAST SALE,November-29-2022,Condo/Co-op,2551 Aragon Blvd #110,Sunrise,FL,33322,90000,2,2.0,Aragon,1162,,1975,,77,354,Sold,,,https://www.redfin.com/FL/Sunrise/2551-Aragon-Blvd-33322/unit-110/home/41608679,Beaches MLS,F10350528,N,Y,26.156614,-80.2538586
PAST SALE,December-9-2022,Condo/Co-op,4770 NW 21st St #104,Lauderhill,FL,33313,87000,1,1.5,CASTLE APTS 15 CONDO,928,,1973,,94,369,Sold,,,https://www.redfin.com/FL/Lauderhill/4770-NW-21st-St-33313/unit-104/home/41598002,MARMLS,A11297826,N,Y,26.1522186,-80.2147461
PAST SALE,December-16-2022,Condo/Co-op,2720 Yacht Club Blvd Unit 8B,Fort Lauderdale,FL,33304,270000,1,1.0,Coral Cove,670,,1955,,403,476,Sold,,,https://www.redfin.com/FL/Fort-Lauderdale/2720-Yacht-Club-Blvd-33304/unit-8B/home/41693730,Beaches MLS,F10356255,N,Y,26.1405636,-80.1100987
PAST SALE,January-24-2023,Condo/Co-op,2039 SE 10th Ave #519,Fort Lauderdale,FL,33316,399000,2,2.0,Village East Condominiums,1054,,2002,,379,541,Sold,,,https://www.redfin.com/FL/Fort-Lauderdale/2039-SE-10th-Ave-33316/unit-519/home/42064261,Beaches MLS,F10358348,N,Y,26.095774,-80.132868
PAST SALE,November-28-2022,Condo/Co-op,3011 Farnham N #3011,Deerfield Beach,FL,33442,137500,1,1.5,Century Village East,700,,1976,,196,398,Sold,,,https://www.redfin.com/FL/Deerfield-Beach/3011-Farnham-N-33442/unit-3011/home/182443656,Beaches MLS,F10352917,N,Y,26.305973,-80.133345
PAST SALE,January-12-2023,Condo/Co-op,10451 Sunrise Lakes Blvd #109,Sunrise,FL,33322,190000,2,2.0,SUNRISE LAKES 163 CONDO,1200,,1981,,158,472,Sold,,,https://www.redfin.com/FL/Sunrise/10451-Sunrise-Lakes-Blvd-33322/unit-109/home/41614262,MARMLS,A11282078,N,Y,26.1626932,-80.2881807
PAST SALE,December-29-2022,Condo/Co-op,3095 N Course Dr #1005,Pompano Beach,FL,33069,220000,2,2.0,Palm Aire Country Club,1225,,1980,,180,438,Sold,,,https://www.redfin.com/FL/Pompano-Beach/3095-N-Course-Dr-33069/unit-1005/home/41638427,Beaches MLS,F10358482,N,Y,26.2273864,-80.1638337
PAST SALE,November-18-2022,Condo/Co-op,2751 N Palm Aire Dr #508,Pompano Beach,FL,33069,269000,2,2.0,PALM-AIRE COUNTRY CLUB CO,1064,,1969,,253,515,Sold,,,https://www.redfin.com/FL/Pompano-Beach/2751-N-Palm-Aire-Dr-33069/unit-508/home/41639166,MARMLS,A11287314,N,Y,26.2244126,-80.1604326
PAST SALE,January-17-2023,Condo/Co-op,3993 Cypress Reach Ct #202,Pompano Beach,FL,33069,265000,2,2.0,Cypress Reach,1352,,1987,,196,485,Sold,,,https://www.redfin.com/FL/Pompano-Beach/3993-Cypress-Reach-Ct-33069/unit-202/home/41645357,Beaches MLS,F10352603,N,Y,26.2098071,-80.1791804
PAST SALE,January-26-2023,Condo/Co-op,1110 SW 125th Ave Unit 213M,Pembroke Pines,FL,33027,180000,1,1.5,CAMBRIDGE AT CENTURY VILL,1045,,1989,,172,453,Sold,,,https://www.redfin.com/FL/Pembroke-Pines/1110-SW-125th-Ave-33027/unit-213M/home/41859485,MARMLS,A11309368,N,Y,25.9987461,-80.3132588
PAST SALE,January-13-2023,Condo/Co-op,2128 Cambridge F #2128,Deerfield Beach,FL,33442,140500,1,1.5,Century Village,721,,1974,,195,444,Sold,,,https://www.redfin.com/FL/Deerfield-Beach/Unknown-33442/unit-2128/home/104343646,Beaches MLS,F10358176,N,Y,26.3042864,-80.1540226
PAST SALE,December-14-2022,Condo/Co-op,3200 Port Royale Dr N #1108,Fort Lauderdale,FL,33308,559900,2,2.0,TOWER AT PORT ROYALE,,,1981,,,668,Sold,,,https://www.redfin.com/FL/Fort-Lauderdale/3200-Port-Royale-Dr-N-33308/unit-1108/home/41705628,MARMLS,A11286157,N,Y,26.2107393,-80.1016231
PAST SALE,December-16-2022,Condo/Co-op,3080 S Oakland Forest Dr #105,Oakland Park,FL,33309,251000,2,2.5,Pines West,1100,,1988,,228,410,Sold,,,https://www.redfin.com/FL/Oakland-Park/3080-S-Oakland-Forest-Dr-33309/unit-105/home/41663090,Beaches MLS,F10356825,N,Y,26.1686425,-80.1861655
PAST SALE,,Condo/Co-op,3530 NW 52nd Ave #506,Lauderdale Lakes,FL,33319,125000,1,1.0,,650,,1972,,192,,,,,https://www.redfin.com/FL/Lauderdale-Lakes/3530-NW-52nd-Ave-33319/unit-506/home/41592001,,,N,Y,26.1706863,-80.2189294
PAST SALE,December-29-2022,Condo/Co-op,1000 S Ocean Blvd Unit 16 G,Pompano Beach,FL,33062,350000,2,2.0,Pompano Atlantis,1400,,1973,,250,728,Sold,,,https://www.redfin.com/FL/Pompano-Beach/1000-S-Ocean-Blvd-33062/unit-16G/home/41694883,Beaches MLS,F10356247,N,Y,26.2253168,-80.0904092
PAST SALE,January-18-2023,Condo/Co-op,900 Atlantic Shores Blvd #122,Hallandale,FL,33009,118500,1,1.0,Berkeley Diplomat Coop,604,,1959,,196,188,Sold,,,https://www.redfin.com/FL/Hallandale-Beach/900-Atlantic-Shores-Blvd-33009/unit-122/home/41954122,Beaches MLS,F10359360,N,Y,25.9946209,-80.1392883
PAST SALE,November-30-2022,Condo/Co-op,100 SW 132nd Way Unit 203K,Pembroke Pines,FL,33027,105000,1,1.5,NEW HAMPTON AT CENTURY VI,811,,1986,,129,484,Sold,,,https://www.redfin.com/FL/Pembroke-Pines/100-SW-132nd-Way-33027/unit-203K/home/41854341,MARMLS,A11219399,N,Y,26.0068967,-80.3238237
PAST SALE,December-19-2022,Condo/Co-op,4164 Inverrary Dr #106,Lauderhill,FL,33319,120000,1,1.5,MANORS OF INVERRARY,783,,1975,,153,453,Sold,,,https://www.redfin.com/FL/Lauderhill/4164-Inverrary-Dr-33319/unit-106/home/41589582,MARMLS,A11297114,N,Y,26.1760005,-80.2245067
PAST SALE,January-6-2023,Condo/Co-op,1385 NW 94th Way #1385,Coral Springs,FL,33071,190000,2,2.0,University Club,972,,1982,,195,400,Sold,,,https://www.redfin.com/FL/Coral-Springs/1385-NW-94th-Way-33071/unit-1385/home/41443850,Beaches MLS,F10361776,N,Y,26.2478441,-80.2512685
PAST SALE,December-12-2022,Condo/Co-op,7850 W Mcnab Rd #318,Tamarac,FL,33321,149995,2,2.0,Concord Village 6 Condo,865,,1980,,173,380,Sold,,,https://www.redfin.com/FL/Tamarac/7850-W-McNab-Rd-33321/unit-318/home/41558902,Beaches MLS,RX-10843317,N,Y,26.2077743,-80.2561006
PAST SALE,,Condo/Co-op,5160 SW 40th Ave Unit 4D,Fort Lauderdale,FL,33314,100000,1,1.0,,860,,1972,,116,,,,,https://www.redfin.com/FL/Fort-Lauderdale/5160-SW-40th-Ave-33314/unit-4D/home/41816274,,,N,Y,26.0571573,-80.1993215
PAST SALE,November-30-2022,Condo/Co-op,3243 104 Ave #3243,Coral Springs,FL,33065,201400,2,2.0,Springs Park Condo,,,1983,,,321,Sold,,,https://www.redfin.com/FL/Coral-Springs/3243-NW-104th-Ave-33065/unit-3243/home/41428553,Beaches MLS,F10348010,N,Y,26.270648,-80.265055
PAST SALE,January-18-2023,Condo/Co-op,4009 Oakridge A #4009,Deerfield Beach,FL,33442,138000,1,1.5,Oakridge A,753,,1977,,183,397,Sold,,,https://www.redfin.com/FL/Deerfield-Beach/4009-Oakridge-A-33442/unit-4009/home/183026094,Beaches MLS,F10357665,N,Y,26.309718,-80.142598
PAST SALE,January-5-2023,Condo/Co-op,3910 Inverrary Blvd Unit 708-B,Lauderhill,FL,33319,245000,3,2.5,18TH HOLE AT INVERRARY CO,1760,,1980,,139,547,Sold,,,https://www.redfin.com/FL/Lauderhill/3910-Inverrary-Blvd-33319/unit-708-B/home/41583407,MARMLS,A11297978,N,Y,26.174376,-80.2382756
PAST SALE,December-31-2022,Condo/Co-op,9901 Westview Dr #323,Coral Springs,FL,33076,232230,2,2.0,CITATION WAY CONDO,850,,1990,,273,316,Sold,,,https://www.redfin.com/FL/Coral-Springs/9901-Westview-Dr-33076/unit-323/home/42030964,MARMLS,A11293764,N,Y,26.2995208,-80.2583114
PAST SALE,December-5-2022,Condo/Co-op,404 NW 70th Ave #218,Plantation,FL,33317,245000,2,2.0,FRENCH QUARTER PH I CONDO,1092,,1971,,224,414,Sold,,,https://www.redfin.com/FL/Plantation/404-NW-70th-Ave-33317/unit-218/home/41746335,MARMLS,A11284440,N,Y,26.126115,-80.240094
PAST SALE,November-23-2022,Condo/Co-op,4701 NW 34th St #409,Lauderdale Lakes,FL,33319,89000,1,1.0,HAWAIIAN GARDENS PHASE 8,684,,1974,,130,492,Sold,,,https://www.redfin.com/FL/Lauderdale-Lakes/4701-NW-34th-St-33319/unit-409/home/41593689,MARMLS,A11291217,N,Y,26.1687996,-80.2123712
PAST SALE,December-9-2022,Condo/Co-op,2681 N Flamingo Rd Unit 401S,Sunrise,FL,33323,375000,3,3.0,Tao,1570,,2009,,239,1366,Sold,,,https://www.redfin.com/FL/Sunrise/2681-N-Flamingo-Rd-33323/unit-401S/home/148436443,Beaches MLS,F10353530,N,Y,26.1575642,-80.3152684
PAST SALE,January-17-2023,Condo/Co-op,250 Jacaranda Dr #401,Plantation,FL,33324,200000,2,2.0,Coronado,1015,,1975,,197,452,Sold,,,https://www.redfin.com/FL/Plantation/250-Jacaranda-Dr-33324/unit-401/home/41754321,Beaches MLS,F10351401,N,Y,26.1179592,-80.2699006
PAST SALE,January-13-2023,Condo/Co-op,511 SE 5th Ave #1823,Fort Lauderdale,FL,33301,425000,1,1.0,Nuriver Landing,801,,2006,,531,493,Sold,,,https://www.redfin.com/FL/Fort-Lauderdale/511-SE-5th-Ave-33301/unit-1823/home/42065112,Beaches MLS,F10350105,N,Y,26.116275,-80.1395001
PAST SALE,November-18-2022,Condo/Co-op,1849 S Ocean Dr #303,Hallandale Beach,FL,33009,275000,1,1.5,PLAZA TOWERS SOUTH CONDO,870,,1970,,316,473,Sold,,,https://www.redfin.com/FL/Hallandale-Beach/1849-S-Ocean-Dr-33009/unit-303/home/41957772,MARMLS,A11293898,N,Y,25.9842418,-80.1203191
PAST SALE,December-27-2022,Condo/Co-op,4250 SE Galt Ocean Dr Unit 15P,Fort Lauderdale,FL,33308,382000,1,1.5,GALT TOWERS CONDO,950,,1967,,402,579,Sold,,,https://www.redfin.com/FL/Fort-Lauderdale/4250-Galt-Ocean-Dr-33308/unit-15P/home/41707591,MARMLS,A11312563,N,Y,26.1800183,-80.0968847
PAST SALE,January-27-2023,Condo/Co-op,6655 W Broward Blvd #111,Plantation,FL,33317,245000,2,2.0,PLANTATION CLUB D CONDO,1120,,1976,,219,347,Sold,,,https://www.redfin.com/FL/Plantation/6655-W-Broward-Blvd-33317/unit-111/home/41746019,MARMLS,A11318654,N,Y,26.1212338,-80.2360959
PAST SALE,December-1-2022,Condo/Co-op,2080 S Ocean Dr Ph 1,Hallandale Beach,FL,33009,835000,2,2.5,2080 OCEAN DRIVE CONDO,1200,,2003,,696,958,Sold,,,https://www.redfin.com/FL/Hallandale-Beach/2080-S-Ocean-Dr-33009/unit-1/home/42016177,MARMLS,A11284762,N,Y,25.9771337,-80.1195658
PAST SALE,January-24-2023,Condo/Co-op,1101 NW 58 Terace #107,Sunrise,FL,33313,90000,1,1.5,Water Bridge,870,,1973,,103,209,Sold,,,https://www.redfin.com/FL/Sunrise/1101-NW-58th-Ter-33313/unit-107/home/41624896,Beaches MLS,F10357914,N,Y,26.1361929,-80.2269345
PAST SALE,December-23-2022,Condo/Co-op,1101 Hillcrest Ct #102,Hollywood,FL,33021,174900,2,2.0,HILLCREST COUNTRY CLUB AP,899,,1966,,195,291,Sold,,,https://www.redfin.com/FL/Hollywood/1101-Hillcrest-Ct-33021/unit-102/home/41946748,MARMLS,A11303989,N,Y,25.9999681,-80.1921706
PAST SALE,December-12-2022,Condo/Co-op,3111 N Ocean Dr #404,Hollywood,FL,33019,580000,2,2.0,HOLLYWOOD TOWERS CONDO,1120,,1967,,518,728,Sold,,,https://www.redfin.com/FL/Hollywood/3111-N-Ocean-Dr-33019/unit-404/home/41935486,MARMLS,A11305649,N,Y,26.0306894,-80.1155152
PAST SALE,December-8-2022,Condo/Co-op,3390 Pinewalk Dr N #1033,Margate,FL,33063,190000,1,1.0,CORAL KEY CONDO,712,,1990,,267,223,Sold,,,https://www.redfin.com/FL/Margate/3390-Pinewalk-Dr-N-33063/unit-1033/home/42057245,MARMLS,A11294168,N,Y,26.2656724,-80.2253781
PAST SALE,January-6-2023,Condo/Co-op,250 Jacaranda Dr #810,Plantation,FL,33324,170000,2,2.0,Coronado At Jacaranda,1015,,1975,,167,380,Sold,,,https://www.redfin.com/FL/Plantation/250-Jacaranda-Dr-33324/unit-810/home/41756254,Beaches MLS,F10355086,N,Y,26.1179592,-80.2699006
PAST SALE,November-29-2022,Condo/Co-op,919 Hillcrest Dr #612,Hollywood,FL,33021,204000,2,2.0,Hillcrest East,1087,,1985,,188,542,Sold,,,https://www.redfin.com/FL/Hollywood/919-Hillcrest-Dr-33021/unit-612/home/41939266,Beaches MLS,F10352906,N,Y,26.0017142,-80.1887815
PAST SALE,January-31-2023,Condo/Co-op,4848 NW 24th Ct #219,Lauderdale Lakes,FL,33313,141000,1,1.0,TOWN SQUARE CONDO,850,,1979,,166,420,Sold,,,https://www.redfin.com/FL/Lauderdale-Lakes/4848-NW-24th-Ct-33313/unit-219/home/41603567,MARMLS,A11310974,N,Y,26.1563887,-80.2162713
PAST SALE,December-23-2022,Condo/Co-op,1800 N Andrews Ave Unit 12E,Fort Lauderdale,FL,33311,250000,1,1.5,DRAKE TOWER CONDO,775,,1975,,323,499,Sold,,,https://www.redfin.com/FL/Fort-Lauderdale/1800-N-Andrews-Ave-33311/unit-12E/home/41690673,MARMLS,A11288849,N,Y,26.150949,-80.1453579
PAST SALE,January-17-2023,Condo/Co-op,4250 Galt Ocean Dr Unit 8G,Fort Lauderdale,FL,33308,320000,1,1.0,Galt Towers,850,,1968,,376,532,Sold,,,https://www.redfin.com/FL/Fort-Lauderdale/4250-Galt-Ocean-Dr-33308/unit-8G/home/41708583,Beaches MLS,F10357621,N,Y,26.1800183,-80.0968847
PAST SALE,December-22-2022,Condo/Co-op,2940 N Course Dr #808,Pompano Beach,FL,33069,228000,1,1.5,NO 39 Palm-aire Country Club,1071,,1972,,213,406,Sold,,,https://www.redfin.com/FL/Pompano-Beach/2940-N-Course-Dr-33069/unit-808/home/41640014,Beaches MLS,RX-10848403,N,Y,26.2252191,-80.1635285
PAST SALE,December-8-2022,Condo/Co-op,1435 SE 15th St #101,Fort Lauderdale,FL,33316,381000,2,2.0,Riverbend,,,1969,,,600,Sold,,,https://www.redfin.com/FL/Fort-Lauderdale/1435-SE-15th-St-33316/unit-101/home/41802628,Beaches MLS,F10355146,N,Y,26.103535,-80.1294379
PAST SALE,December-13-2022,Condo/Co-op,1501 S Ocean Blvd #118,Pompano Beach,FL,33062,290000,1,1.5,Gardens By The Sea,850,,1973,,341,383,Sold,,,https://www.redfin.com/FL/Pompano-Beach/1501-S-Ocean-Blvd-33062/unit-118/home/41700190,Beaches MLS,F10355426,N,Y,26.211274,-80.0940725
PAST SALE,December-23-2022,Condo/Co-op,3040 NE 16 Ave Unit A106,Oakland Park,FL,33334,205000,1,1.0,River Shores,600,,1977,,342,375,Sold,,,https://www.redfin.com/FL/Oakland-Park/3040-NE-16th-Ave-33334/unit-A106/home/104405391,Beaches MLS,F10354888,N,Y,26.165684,-80.125725
PAST SALE,November-18-2022,Condo/Co-op,3794 SW 60th #8,Davie,FL,33314,310000,3,2.5,Nova Condo,,,1973,,,175,Sold,,,https://www.redfin.com/FL/Davie/3794-SW-60th-Ter-33314/unit-8/home/41773365,Beaches MLS,F10351329,N,Y,26.074653,-80.227401
PAST SALE,December-1-2022,Condo/Co-op,1501 S Ocean Dr #1505,Hollywood,FL,33019,475000,2,2.0,Oxford Towers,1476,,1970,,322,743,Sold,,,https://www.redfin.com/FL/Hollywood/1501-S-Ocean-Dr-33019/unit-1505/home/41963109,Beaches MLS,F10349905,N,Y,26.0029883,-80.1176645
PAST SALE,December-9-2022,Condo/Co-op,33 Oakridge C #33,Deerfield Beach,FL,33442,110000,1,1.5,Century Village East,706,,1977,,156,377,Sold,,,https://www.redfin.com/FL/Deerfield-Beach/33-Oakridge-C-33442/unit-33/home/41461076,Beaches MLS,F10354169,N,Y,26.3088513,-80.1439705
PAST SALE,December-2-2022,Condo/Co-op,2204 Congressional Way Unit N/A,Deerfield Beach,FL,33442,320000,2,2.0,EMBASSY SQUARE CONDO,1050,,1988,,305,325,Sold,,,https://www.redfin.com/FL/Deerfield-Beach/2204-Congressional-Way-33442/unit-N-A/home/182263104,MARMLS,A11285964,N,Y,26.2964878,-80.1620896
PAST SALE,December-23-2022,Condo/Co-op,114 Lake Emerald Dr #306,Oakland Park,FL,33309,199800,2,2.0,Lake Emerald Condominium NO,1120,,1981,,178,635,Sold,,,https://www.redfin.com/FL/Oakland-Park/114-Lake-Emerald-Dr-33309/unit-306/home/41665536,Beaches MLS,RX-10847089,N,Y,26.1740904,-80.1748962
PAST SALE,January-27-2023,Condo/Co-op,13475 SW 9th St Unit 209A,Pembroke Pines,FL,33027,178000,2,1.5,KINGSLEY AT CENTURY VILLA,,,1985,,,520,Sold,,,https://www.redfin.com/FL/Pembroke-Pines/13475-SW-9th-St-33027/unit-209A/home/41855461,MARMLS,A11312402,N,Y,26.0002754,-80.3264896
PAST SALE,January-3-2023,Condo/Co-op,4330 Hillcrest Dr #207,Hollywood,FL,33021,125000,1,1.5,Hillcrest,,,1972,,,394,Sold,,,https://www.redfin.com/FL/Hollywood/4330-Hillcrest-Dr-33021/unit-207/home/41936708,Beaches MLS,F10355100,N,Y,25.9989571,-80.1846023
PAST SALE,December-16-2022,Condo/Co-op,2998 E Sunrise Lakes Dr #214,Sunrise,FL,33322,137500,2,2.0,QUAIL RUN OF SUNRISE UNIT,868,,1977,,158,343,Sold,,,https://www.redfin.com/FL/Sunrise/2998-E-Sunrise-Lakes-Dr-33322/unit-214/home/41605317,MARMLS,A11276477,N,Y,26.161165,-80.250832
PAST SALE,December-30-2022,Condo/Co-op,2291 NW 48th Ter #105,Lauderhill,FL,33313,125000,1,1.5,CASTLE APARTMENTS 9 CONDO,928,,1972,,135,359,Sold,,,https://www.redfin.com/FL/Lauderhill/2291-NW-48th-Ter-33313/unit-105/home/41595725,MARMLS,A11308915,N,Y,26.1555296,-80.216402
PAST SALE,February-7-2023,Condo/Co-op,5300 Washington St Unit 115C,Hollywood,FL,33021,125000,2,1.5,Beverly Hills Condo,840,,1968,,149,498,Sold,,,https://www.redfin.com/FL/Hollywood/5300-Washington-St-33021/unit-C115/home/41943892,Beaches MLS,F10359942,N,Y,26.000708,-80.1960959
PAST SALE,November-30-2022,Condo/Co-op,3650 Inverrary Dr Unit G 2N,Lauderhill,FL,33319,105000,1,1.5,International Village,800,,1973,,131,,Sold,,,https://www.redfin.com/FL/Lauderhill/3650-Inverrary-Dr-33319/unit-G-2N/home/181493669,Beaches MLS,F10347343,N,Y,26.1704334,-80.2327161
PAST SALE,January-11-2023,Condo/Co-op,800 Parkview Dr #505,Hallandale Beach,FL,33009,250000,1,1.5,OCEANVIEW PARK CONDO,915,,1976,,273,399,Sold,,,https://www.redfin.com/FL/Hallandale-Beach/800-Parkview-Dr-33009/unit-505/home/41950347,MARMLS,A11312644,N,Y,25.9951947,-80.1210054
PAST SALE,January-27-2023,Condo/Co-op,709 Gardens Dr #202,Pompano Beach,FL,33069,250100,2,2.0,Gardens North Condo,1090,,1986,,229,300,Sold,,,https://www.redfin.com/FL/Pompano-Beach/709-Gardens-Dr-33069/unit-202/home/41645512,Beaches MLS,F10361752,N,Y,26.209435,-80.195006
PAST SALE,December-27-2022,Condo/Co-op,4090 Westbury H #4090,Deerfield Beach,FL,33442,135000,1,1.5,Century Village East,753,,1977,,179,405,Sold,,,https://www.redfin.com/FL/Deerfield-Beach/4090-Westbury-H-33442/unit-4090/home/104000728,Beaches MLS,F10351093,N,Y,26.3156399,-80.132768
PAST SALE,January-20-2023,Condo/Co-op,4541 N Ocean Dr #5,Lauderdale By The Sea,FL,33308,246500,2,1.0,Ocean Dream Condo,970,,1978,,254,662,Sold,,,https://www.redfin.com/FL/Lauderdale-by-the-Sea/4541-N-Ocean-Dr-33308/unit-5/home/41705901,Beaches MLS,F10358943,N,Y,26.1938501,-80.0965917
PAST SALE,January-13-2023,Condo/Co-op,721 N Pine Island Rd #302,Plantation,FL,33324,245000,2,2.0,Belasera,1057,,1986,,232,342,Sold,,,https://www.redfin.com/FL/Plantation/721-N-Pine-Island-Rd-33324/unit-302/home/42023425,Beaches MLS,F10357066,N,Y,26.1278273,-80.2650887
PAST SALE,February-3-2023,Condo/Co-op,4013 N Ocean Dr #107,Lauderdale By The Sea,FL,33308,350000,2,2.0,Top Of The Mile,1128,,1978,,310,719,Sold,,,https://www.redfin.com/FL/Lauderdale-by-the-Sea/4013-N-Ocean-Dr-33308/unit-107/home/41704927,Beaches MLS,F10359970,N,Y,26.1833417,-80.0976857
PAST SALE,December-7-2022,Condo/Co-op,3300 W Rolling Hills Cir #108,Davie,FL,33328,214000,1,1.5,ROLLING HILLS GOLF & TENN,900,,1981,,238,260,Sold,,,https://www.redfin.com/FL/Davie/3300-W-Rolling-Hills-Cir-33328/unit-108/home/41774847,MARMLS,A11297645,N,Y,26.0795512,-80.2559634
PAST SALE,December-6-2022,Condo/Co-op,404 Grantham A #404,Deerfield Beach,FL,33442,217475,2,2.0,Century Village,1100,,1976,,198,484,Sold,,,https://www.redfin.com/FL/Deerfield-Beach/404-Grantham-A-33442/unit-404/home/182493295,Beaches MLS,F10354024,N,Y,26.307764,-80.133849
PAST SALE,December-9-2022,Condo/Co-op,202 Lake Pointe Dr #104,Oakland Park,FL,33309,176000,2,2.0,LAKE POINTE 1 CONDO,880,,1981,,200,548,Sold,,,https://www.redfin.com/FL/Oakland-Park/202-Lake-Pointe-Dr-33309/unit-104/home/41661599,MARMLS,A11298074,N,Y,26.1822589,-80.1864168
PAST SALE,December-8-2022,Condo/Co-op,6720 Nova Dr Unit 105-8,Davie,FL,33317,222000,2,2.0,Villa Nova,808,,1985,,275,350,Sold,,,https://www.redfin.com/FL/Davie/6720-Nova-Dr-33317/unit-105-8/home/42063023,Beaches MLS,F10332963,N,Y,26.0875983,-80.2377296
PAST SALE,January-27-2023,Condo/Co-op,211 S Hollybrook Dr #106,Pembroke Pines,FL,33025,272500,2,2.0,Hollybrook Golf & Tennis,1459,,1987,,187,,Sold,,,https://www.redfin.com/FL/Pembroke-Pines/211-S-Hollybrook-Dr-33025/unit-106/home/41891969,Beaches MLS,F10359572,N,Y,26.0066339,-80.2661884
PAST SALE,December-29-2022,Condo/Co-op,118 Lake Emerald Dr #401,Oakland Park,FL,33309,252500,2,2.0,Lake Emerald,920,,1987,,274,778,Sold,,,https://www.redfin.com/FL/Oakland-Park/118-Lake-Emerald-Dr-33309/unit-401/home/41662680,Beaches MLS,F10346742,N,Y,26.1739885,-80.1805791
PAST SALE,December-8-2022,Condo/Co-op,3170 Holiday Springs Blvd Unit 6-206,Margate,FL,33063,65000,1,1.0,HOLIDAY SPRINGS VILLAGE 1,720,,1974,,90,424,Sold,,,https://www.redfin.com/FL/Margate/3170-Holiday-Springs-Blvd-33063/unit-6-206/home/41429593,MARMLS,A11290280,N,Y,26.2618474,-80.2334267
PAST SALE,December-9-2022,Condo/Co-op,533 NE 3rd Ave #339,Fort Lauderdale,FL,33301,355000,2,2.0,Sole At Fort Lauderdale,1270,,2005,,280,,Sold,,,https://www.redfin.com/FL/Fort-Lauderdale/533-NE-3rd-Ave-33301/unit-339/home/42044542,Beaches MLS,F10353189,N,Y,26.1288755,-80.1413755
PAST SALE,December-2-2022,Condo/Co-op,3000 N Palm Aire Dr #404,Pompano Beach,FL,33069,227000,1,1.5,Palm Aire Country Club,960,,1968,,236,426,Sold,,,https://www.redfin.com/FL/Pompano-Beach/3000-N-Palm-Aire-Dr-33069/unit-404/home/41639394,Beaches MLS,F10354404,N,Y,26.2210349,-80.1644441
PAST SALE,December-29-2022,Condo/Co-op,10101 W Sunrise Blvd #301,Plantation,FL,33322,248000,2,2.0,GRANDE MARQUIS CONDO,963,,1988,,258,420,Sold,,,https://www.redfin.com/FL/Plantation/10101-W-Sunrise-Blvd-33322/unit-301/home/42028734,MARMLS,A11298221,N,Y,26.1473431,-80.2841164
PAST SALE,January-27-2023,Condo/Co-op,1254 S Military Trl #1315,Deerfield Beach,FL,33442,237000,2,2.0,VILLAS AT MEADOW LAKES CO,916,,1985,,259,313,Sold,,,https://www.redfin.com/FL/Deerfield-Beach/1254-S-Military-Trl-33442/unit-1315/home/42038780,MARMLS,A11312663,N,Y,26.3005952,-80.1311726
PAST SALE,January-27-2023,Condo/Co-op,7955 NW 5th Ct #208,Margate,FL,33063,123000,2,2.0,Oriole Gardens Two 58 Condo,1090,,1974,,113,321,Sold,,,https://www.redfin.com/FL/Margate/7955-NW-5th-Ct-33063/unit-208/home/41458002,Beaches MLS,RX-10850588,N,Y,26.237624,-80.232303
PAST SALE,,Condo/Co-op,8595 Sunrise Lakes Blvd #209,Sunrise,FL,33322,153000,2,2.0,,850,,1974,,180,,,,,https://www.redfin.com/FL/Sunrise/8595-Sunrise-Lakes-Blvd-33322/unit-209/home/41608418,,,N,Y,26.1619779,-80.2668475
PAST SALE,January-19-2023,Condo/Co-op,1201 SW 128th Ter Unit 311E,Pembroke Pines,FL,33027,220000,2,2.0,CENTURY VILLAGE,1192,,1990,,185,546,Sold,,,https://www.redfin.com/FL/Pembroke-Pines/1201-SW-128th-Ter-33027/unit-311E/home/41843581,MARMLS,A11314197,N,Y,25.9971171,-80.3171773
PAST SALE,December-6-2022,Condo/Co-op,502 Gardens Dr #101,Pompano Beach,FL,33069,179000,1,1.0,Gardens North,630,,1984,,284,298,Sold,,,https://www.redfin.com/FL/Pompano-Beach/502-Gardens-Dr-33069/unit-101/home/41647924,Beaches MLS,F10354600,N,Y,26.2111708,-80.1920724
PAST SALE,December-26-2022,Condo/Co-op,101 SE 6th Ave #4,Pompano Beach,FL,33060,158000,1,1.5,PARK PLACE AT POMPANO CON,700,,1970,,226,245,Sold,,,https://www.redfin.com/FL/Pompano-Beach/101-SE-6th-Ave-33060/unit-4/home/42053656,MARMLS,A11304361,N,Y,26.2306314,-80.1178447
PAST SALE,February-10-2023,Condo/Co-op,5161 W Oakland Park Blvd #310,Lauderdale Lakes,FL,33313,135000,2,2.0,OLEANDER GARDENS CONDO,944,,1971,,143,323,Sold,,,https://www.redfin.com/FL/Lauderdale-Lakes/5161-W-Oakland-Park-Blvd-33313/unit-310/home/41590863,MARMLS,A11314859,N,Y,26.1670363,-80.2179925
PAST SALE,January-18-2023,Condo/Co-op,3957 Carambola Cir N #2916,Coconut Creek,FL,33066,299900,2,2.0,Karanda Village Iv-a Condo,955,,1984,,314,492,Sold,,,https://www.redfin.com/FL/Coconut-Creek/3957-Carambola-Cir-N-33066/unit-2916/home/41484638,Beaches MLS,RX-10852812,N,Y,26.27126,-80.18311
PAST SALE,January-23-2023,Condo/Co-op,500 Three Islands Blvd #505,Hallandale Beach,FL,33009,410000,2,2.0,OLYMPUS CONDO PHASE,1450,,1974,,283,958,Sold,,,https://www.redfin.com/FL/Hallandale-Beach/500-Three-Islands-Blvd-33009/unit-505/home/41957925,MARMLS,A11320287,N,Y,25.9916231,-80.1262402
PAST SALE,December-9-2022,Condo/Co-op,215 N Birch Rd Unit 3B,Fort Lauderdale,FL,33304,1275000,2,2.0,The Versailles,1318,,1959,,967,944,Sold,,,https://www.redfin.com/FL/Fort-Lauderdale/215-N-Birch-Rd-33304/unit-B3/home/41800343,Beaches MLS,F10352687,N,Y,26.1254527,-80.1059028
PAST SALE,December-12-2022,Condo/Co-op,2461 Polk St #7,Hollywood,FL,33020,160000,1,1.0,Coronet Village,574,,1971,,279,248,Sold,,,https://www.redfin.com/FL/Hollywood/2461-Polk-St-33020/unit-7/home/41943486,Beaches MLS,F10356706,N,Y,26.0128476,-80.1568118
PAST SALE,January-27-2023,Condo/Co-op,8479 E Shadow Ct #8479,Coral Springs,FL,33071,257000,3,2.0,SHADOW WOOD CONDO,1245,,1986,,206,534,Sold,,,https://www.redfin.com/FL/Coral-Springs/8479-Shadow-Ct-33071/unit-8479/home/178713214,MARMLS,A11310775,N,Y,26.2351315,-80.2393868
PAST SALE,January-16-2023,Condo/Co-op,1043 N Newport #1043,Deerfield Beach,FL,33442,175000,2,2.0,Century Village,881,,1978,,199,399,Sold,,,https://www.redfin.com/FL/Deerfield-Beach/1043-E-Newport-Center-Dr-33442/unit-1043/home/104333184,Beaches MLS,F10353944,N,Y,26.3037823,-80.1235579
PAST SALE,December-5-2022,Condo/Co-op,3400 Galt Ocean Dr #204,Fort Lauderdale,FL,33308,864000,2,2.0,Southpoint,1662,,1974,,520,1109,Sold,,,https://www.redfin.com/FL/Fort-Lauderdale/3400-Galt-Ocean-Dr-33308/unit-204/home/182475725,Beaches MLS,F10354125,N,Y,26.1698853,-80.0983393
PAST SALE,November-21-2022,Condo/Co-op,11211 W Atlantic Blvd #103,Coral Springs,FL,33071,255500,3,2.0,ATLANTIC SPRINGS CONDO,1305,,1991,,196,419,Sold,,,https://www.redfin.com/FL/Coral-Springs/11211-W-Atlantic-Blvd-33071/unit-103/home/42060379,MARMLS,A11294228,N,Y,26.2418995,-80.274599
PAST SALE,January-30-2023,Condo/Co-op,10155 W Sunrise Blvd #205,Plantation,FL,33322,272000,2,2.0,GRAND MARQUIS CONDO HOMES,996,,1988,,273,474,Sold,,,https://www.redfin.com/FL/Plantation/10155-W-Sunrise-Blvd-33322/unit-205/home/42020171,MARMLS,A11325381,N,Y,26.1477606,-80.2848191
PAST SALE,December-19-2022,Condo/Co-op,6020 NW 64th Ave #311,Tamarac,FL,33319,111000,2,2.0,Bermuda Club Condominiums,880,,1973,,126,402,Sold,,,https://www.redfin.com/FL/Tamarac/6020-NW-64th-Ave-33319/unit-311/home/41564143,Beaches MLS,F10345955,N,Y,26.1992197,-80.2350634
PAST SALE,January-20-2023,Condo/Co-op,4836 N State Road 7 #201,Coconut Creek,FL,33073,180000,1,1.0,Carrington,703,,2002,,256,311,Sold,,,https://www.redfin.com/FL/Coconut-Creek/4836-N-State-Road-7-33073/unit-201/home/183318386,Beaches MLS,F10359815,N,Y,26.2894781,-80.2001758
PAST SALE,November-30-2022,Condo/Co-op,3041 Holiday Springs Blvd #202,Margate,FL,33063,185000,2,2.0,GOLFSIDE CONDO,950,,1986,,195,375,Sold,,,https://www.redfin.com/FL/Margate/3041-Holiday-Springs-Blvd-33063/unit-202/home/41437414,MARMLS,A11287587,N,Y,26.26335,-80.2313922
PAST SALE,November-18-2022,Condo/Co-op,808 Cypress Blvd #401,Pompano Beach,FL,33069,380000,3,2.0,Palm Aire Cc,1500,,1979,,253,649,Sold,,,https://www.redfin.com/FL/Pompano-Beach/808-Cypress-Blvd-33069/unit-401/home/41640126,Beaches MLS,F10344532,N,Y,26.2133363,-80.1813601
PAST SALE,December-16-2022,Condo/Co-op,3930 Inverrary Blvd Unit 205-D,Lauderhill,FL,33319,150000,2,2.0,18th Hole At Inverrary,1260,,1978,,119,547,Sold,,,https://www.redfin.com/FL/Lauderhill/3930-Inverrary-Blvd-33319/unit-205-D/home/41583802,Beaches MLS,F10356312,N,Y,26.174291,-80.238377
PAST SALE,January-18-2023,Condo/Co-op,1831 Sabal Palm Dr #301,Davie,FL,33324,275000,3,2.0,Sabal Palm Condo,1170,,1980,,235,578,Sold,,,https://www.redfin.com/FL/Davie/1831-Sabal-Palm-Dr-33324/unit-301/home/41767246,Beaches MLS,F10359153,N,Y,26.0955911,-80.2755558
PAST SALE,December-29-2022,Condo/Co-op,2881 N Oakland Forest Dr #213,Oakland Park,FL,33309,260000,2,2.0,LAKEVIEW CLUB CONDO,981,,1992,,265,322,Sold,,,https://www.redfin.com/FL/Oakland-Park/2881-N-Oakland-Forest-Dr-33309/unit-213/home/42026089,MARMLS,A11304300,N,Y,26.1726531,-80.1828858
PAST SALE,December-23-2022,Condo/Co-op,1101 SW 128th Ter Unit 311C,Pembroke Pines,FL,33027,190000,2,2.0,CENTURY VILLAGE,1192,,1987,,159,278,Sold,,,https://www.redfin.com/FL/Pembroke-Pines/1101-SW-128th-Ter-33027/unit-311C/home/41849568,MARMLS,A11299779,N,Y,25.9992473,-80.3191729
PAST SALE,December-1-2022,Condo/Co-op,1045 Country Club Dr #106,Margate,FL,33063,103700,1,1.5,Oriole Golf & Tennis Club,775,,1974,,134,250,Sold,,,https://www.redfin.com/FL/Margate/1045-Country-Club-Dr-33063/unit-106/home/41448845,Beaches MLS,F10353577,N,Y,26.243293,-80.2292181
PAST SALE,January-18-2023,Condo/Co-op,1401 S Ocean Blvd #707,Pompano Beach,FL,33062,480000,2,2.0,Emerald Tower,1426,,1972,,337,678,Sold,,,https://www.redfin.com/FL/Pompano-Beach/1401-S-Ocean-Blvd-33062/unit-707/home/41695945,Beaches MLS,F10359035,N,Y,26.2158874,-80.0929478
PAST SALE,December-23-2022,Condo/Co-op,5760 Rock Island Rd #330,Tamarac,FL,33319,137000,1,1.0,Sun Vista,780,,1988,,176,248,Sold,,,https://www.redfin.com/FL/Tamarac/5760-Rock-Island-Rd-33319/unit-330/home/42056803,Beaches MLS,F10358327,N,Y,26.1969624,-80.2184065
PAST SALE,January-3-2023,Condo/Co-op,300 SW 134th Way Unit 311E,Pembroke Pines,FL,33027,154000,1,1.5,NEW HAMPTON AT CENTURY VI,811,,1984,,190,,Sold,,,https://www.redfin.com/FL/Pembroke-Pines/300-SW-134th-Way-33027/unit-311E/home/41841865,MARMLS,A11303064,N,Y,26.0052464,-80.3256192
PAST SALE,December-20-2022,Condo/Co-op,11604 NW 29th Ct Unit 5C,Coral Springs,FL,33065,164900,2,2.0,PALM VILLAS,1100,,1981,,150,381,Sold,,,https://www.redfin.com/FL/Coral-Springs/11604-NW-29th-Ct-33065/unit-5C/home/104334537,MARMLS,A11299808,N,Y,26.2673401,-80.2820015
PAST SALE,January-17-2023,Condo/Co-op,5511 Lakeside Dr #104,Margate,FL,33063,170000,1,1.5,Viewpointe,630,,1986,,270,314,Sold,,,https://www.redfin.com/FL/Margate/5511-Lakeside-Dr-33063/unit-104/home/41502422,Beaches MLS,F10357611,N,Y,26.2384504,-80.1986213
PAST SALE,December-28-2022,Condo/Co-op,9141 Sunrise Lakes Blvd #115,Sunrise,FL,33322,65000,1,1.0,SUNRISE LAKES 113 CONDO,590,,1978,,110,315,Sold,,,https://www.redfin.com/FL/Sunrise/9141-Sunrise-Lakes-Blvd-33322/unit-115/home/41613889,MARMLS,A11307490,N,Y,26.1635563,-80.2752958
PAST SALE,December-9-2022,Condo/Co-op,4299 NW 16th St #309,Lauderhill,FL,33313,125000,2,2.0,Lauderhill East,893,,1967,,140,321,Sold,,,https://www.redfin.com/FL/Lauderhill/4299-NW-16th-St-33313/unit-309/home/41630983,Beaches MLS,F10354344,N,Y,26.1464632,-80.2067277
PAST SALE,December-19-2022,Condo/Co-op,4400 Hillcrest Dr Unit 707A,Hollywood,FL,33021,170000,1,1.5,HILLCREST NO 21 CONDO,844,,1969,,201,792,Sold,,,https://www.redfin.com/FL/Hollywood/4400-Hillcrest-Dr-33021/unit-707A/home/41948952,MARMLS,A11293824,N,Y,25.9994886,-80.1870776
PAST SALE,January-9-2023,Condo/Co-op,9461 Evergreen Pl #204,Davie,FL,33324,235000,2,2.0,Evergreen - Pine Island,1050,,1974,,224,499,Sold,,,https://www.redfin.com/FL/Davie/9461-Evergreen-Pl-33324/unit-204/home/41768454,Beaches MLS,F10355948,N,Y,26.1042897,-80.2758982
PAST SALE,January-11-2023,Condo/Co-op,2270 NE 68th St #1924,Fort Lauderdale,FL,33308,245000,2,2.0,IMPERIAL POINT COLONNADES,1008,,1971,,243,488,Sold,,,https://www.redfin.com/FL/Fort-Lauderdale/2270-NE-68th-St-33308/unit-1924/home/41650309,MARMLS,A11307829,N,Y,26.210362,-80.1112406
PAST SALE,November-21-2022,Condo/Co-op,101 Upminster E #101,Deerfield Beach,FL,33442,135000,1,1.5,Century Village East,705,,1976,,191,382,Sold,,,https://www.redfin.com/FL/Deerfield-Beach/101-Upminster-Cres-33442/unit-101/home/180725090,Beaches MLS,F10346661,N,Y,26.313025,-80.1293759
PAST SALE,January-24-2023,Condo/Co-op,3020 NE 32nd Ave #1106,Fort Lauderdale,FL,33308,560000,2,2.0,TIDES AT BRIDGESIDE SQUAR,1200,,2002,,467,820,Sold,,,https://www.redfin.com/FL/Fort-Lauderdale/3020-NE-32nd-Ave-33308/unit-1106/home/42023775,MARMLS,A11314321,N,Y,26.1660836,-80.1030953
PAST SALE,,Condo/Co-op,3575 Broken Woods Dr #205,Coral Springs,FL,33065,192000,2,2.0,,900,,1971,,213,,,,,https://www.redfin.com/FL/Coral-Springs/3575-Broken-Woods-Dr-33065/unit-205/home/41418092,,,N,Y,26.2745736,-80.2487289
PAST SALE,,Condo/Co-op,275 Gate Rd #116,Hollywood,FL,33024,140000,2,2.0,,1000,,1980,,140,,,,,https://www.redfin.com/FL/Hollywood/275-Gate-Rd-33024/unit-116/home/41870786,,,N,Y,26.0396206,-80.2294737
PAST SALE,December-8-2022,Condo/Co-op,6090 NW 64th Ave #302,Tamarac,FL,33319,92500,2,2.0,Bermuda Club,880,,1973,,105,403,Sold,,,https://www.redfin.com/FL/Tamarac/6090-NW-64th-Ave-33319/unit-302/home/41563171,Beaches MLS,F10351979,N,Y,26.1999829,-80.2356653
PAST SALE,December-23-2022,Condo/Co-op,3927 N Carambola Cir #2901,Coconut Creek,FL,33066-2448,230000,2,2.0,Karanda Iv The Township,955,,1984,,241,471,Sold,,,https://www.redfin.com/FL/Coconut-Creek/3927-Carambola-Cir-N-33066/unit-2901/home/41482063,Beaches MLS,F10356018,N,Y,26.27126,-80.18311
PAST SALE,December-20-2022,Condo/Co-op,357 N Rock Island Rd #101,Margate,FL,33063,205000,2,2.0,Palm Lakes,1110,,1980,,185,385,Sold,,,https://www.redfin.com/FL/Margate/357-N-Rock-Island-Rd-33063/unit-101/home/41456690,Beaches MLS,F10355810,N,Y,26.2318478,-80.2222742
PAST SALE,November-28-2022,Condo/Co-op,6952 SW 39th St Unit C102,Davie,FL,33314,280000,2,2.0,COURTYARDS AT DAVIE CONDO,1183,,1999,,237,361,Sold,,,https://www.redfin.com/FL/Davie/6952-SW-39th-St-33314/unit-C102/home/42040783,MARMLS,A11292388,N,Y,26.0721768,-80.2390281
PAST SALE,,Condo/Co-op,7216 Southgate Blvd #7216,Tamarac,FL,33321,160000,1,1.0,,550,,1985,,291,,,,,https://www.redfin.com/FL/Tamarac/7216-Southgate-Blvd-33321/unit-7216/home/42044626,,,N,Y,26.2286323,-80.2476674
PAST SALE,December-19-2022,Condo/Co-op,1093 S Newport S #1093,Deerfield Beach,FL,33442,135000,1,1.5,Century Village,753,,1974,,179,392,Sold,,,https://www.redfin.com/FL/Deerfield-Beach/Unknown-33442/unit-1093/home/104333888,Beaches MLS,F10355603,N,Y,26.3042864,-80.1540226
PAST SALE,January-9-2023,Condo/Co-op,211 S Ocean Dr #604,Hollywood,FL,33019,419900,2,2.0,VICTORIA TOWERS CONDO,1130,,1971,,372,270,Sold,,,https://www.redfin.com/FL/Hollywood/211-S-Ocean-Dr-33019/unit-604/home/41935270,MARMLS,A11300695,N,Y,26.010764,-80.117472
PAST SALE,December-13-2022,Condo/Co-op,6550 Royal Palm Blvd Unit 304A,Margate,FL,33063,85000,1,1.5,Royal Park Gardens,850,,1975,,100,255,Sold,,,https://www.redfin.com/FL/Margate/6550-Royal-Palm-Blvd-33063/unit-304A/home/41440189,Beaches MLS,F10351581,N,Y,26.2519492,-80.2130555
PAST SALE,January-16-2023,Condo/Co-op,2001 N Ocean Blvd Unit 1305 S,Fort Lauderdale,FL,33305,990000,3,3.0,The Vue,1685,,2005,,588,1630,Sold,,,https://www.redfin.com/FL/Fort-Lauderdale/2001-N-Ocean-Blvd-33305/unit-1305/home/42036037,Beaches MLS,F10355537,N,Y,26.153527,-80.100717
PAST SALE,December-2-2022,Condo/Co-op,6903 Cypress Rd Unit B25,Plantation,FL,33317,115000,1,1.5,PLANTATION ROYAL SEC 1,900,,1968,,128,562,Sold,,,https://www.redfin.com/FL/Plantation/6903-Cypress-Rd-33317/unit-B25/home/41746163,MARMLS,A11296920,N,Y,26.1238435,-80.2393832
PAST SALE,,Condo/Co-op,2017 NW 46th Ave Unit A104,Lauderhill,FL,33313,125000,1,2.0,,800,,1973,,156,,,,,https://www.redfin.com/FL/Lauderhill/2017-NW-46th-Ave-33313/unit-A104/home/41598214,,,N,Y,26.1516958,-80.210432
PAST SALE,November-22-2022,Condo/Co-op,450 Golden Isles Dr Unit 1C,Hallandale Beach,FL,33009,290000,2,2.0,CRYSTAL COVE CONDO,1020,,1986,,284,399,Sold,,,https://www.redfin.com/FL/Hallandale-Beach/450-Golden-Isles-Dr-33009/unit-1C/home/42083607,MARMLS,A11286285,N,Y,25.9835837,-80.1288766
PAST SALE,December-22-2022,Condo/Co-op,7525 NW 61st Ter #1701,Parkland,FL,33067,380000,2,2.0,CARRIAGE HOMES AT TERRAMAR,1382,,1991,,275,320,Sold,,,https://www.redfin.com/FL/Parkland/7525-NW-61st-Ter-33067/unit-1701/home/42045955,MARMLS,A11297973,N,Y,26.3250177,-80.2120063
PAST SALE,,Condo/Co-op,2017 NW 46th Ave Unit A404,Lauderhill,FL,33313,125000,1,2.0,,800,,1973,,156,,,,,https://www.redfin.com/FL/Lauderhill/2017-NW-46th-Ave-33313/unit-A404/home/41597228,,,N,Y,26.1516958,-80.210432
PAST SALE,December-30-2022,Condo/Co-op,3100 NE 49th St #403,Fort Lauderdale,FL,33308,430000,2,2.0,The Royal Mariner,1400,,1970,,307,625,Sold,,,https://www.redfin.com/FL/Fort-Lauderdale/3100-NE-49th-St-33308/unit-403/home/41706154,Beaches MLS,F10357701,N,Y,26.18911,-80.1033615
PAST SALE,January-18-2023,Condo/Co-op,600 Three Islands Blvd Unit 1118  NEW,Hallandale Beach,FL,33009,215000,1,1.5,OLYMPUS,,,1975,,,1220,Sold,,,https://www.redfin.com/FL/Hallandale-Beach/600-Three-Islands-Blvd-33009/unit-1118-NEW/home/183342463,MARMLS,A11314851,N,Y,25.9932179,-80.1261886
PAST SALE,November-30-2022,Condo/Co-op,4250 NW 30th St #351,Coconut Creek,FL,33066,285000,3,2.0,Bayport Village E Condo,1392,,1993,,205,460,Sold,,,https://www.redfin.com/FL/Coconut-Creek/4250-NW-30th-St-33066/unit-351/home/41481848,Beaches MLS,RX-10840131,N,Y,26.2634395,-80.1838795
PAST SALE,November-23-2022,Condo/Co-op,1400 NW 45th St Unit B7,Deerfield Beach,FL,33064,222800,2,2.0,SERENITY PLACE 2 CONDO,1270,,1984,,175,515,Sold,,,https://www.redfin.com/FL/Deerfield-Beach/1400-NW-45th-St-33064/unit-B7/home/41482503,MARMLS,A11292740,N,Y,26.284933,-80.143223
PAST SALE,January-12-2023,Condo/Co-op,7011 Environ Blvd #310,Lauderhill,FL,33319,128000,2,2.0,ENVIRON I 1 & 2 CONDO,1184,,1973,,108,585,Sold,,,https://www.redfin.com/FL/Lauderhill/7011-Environ-Blvd-33319/unit-310/home/42083021,MARMLS,A11159915,N,Y,26.1745677,-80.2440973
PAST SALE,December-23-2022,Condo/Co-op,3399 Foxcroft Rd #108,Miramar,FL,33025,215000,2,2.0,MIRAMAR CLUB CONDOMINIUM,820,,1984,,262,358,Sold,,,https://www.redfin.com/FL/Miramar/3399-Foxcroft-Rd-33025/unit-108/home/41908547,MARMLS,A11305488,N,Y,25.9797711,-80.2676331
PAST SALE,January-13-2023,Condo/Co-op,8000 Hampton Blvd #514,North Lauderdale,FL,33068,197000,2,2.0,AMBASSADOR AT HAMPTON,1350,,1984,,146,482,Sold,,,https://www.redfin.com/FL/North-Lauderdale/8000-Hampton-Blvd-33068/unit-514/home/41544203,MARMLS,A11302509,N,Y,26.2115511,-80.2353988
PAST SALE,February-1-2023,Condo/Co-op,2320 S Cypress Bend Dr #403,Pompano Beach,FL,33069,171000,2,2.0,Cypress Bend,1100,,1974,,155,403,Sold,,,https://www.redfin.com/FL/Pompano-Beach/2320-S-Cypress-Bend-Dr-33069/unit-403/home/41632812,Beaches MLS,RX-10848936,N,Y,26.2133949,-80.1535949
PAST SALE,December-22-2022,Condo/Co-op,1425 Atlantic Shores Blvd #604,Hallandale,FL,33009,139900,1,1.5,Fairways Royale,785,,1969,,178,335,Sold,,,https://www.redfin.com/FL/Hallandale-Beach/1425-Atlantic-Shores-Blvd-33009/unit-604/home/41963053,Beaches MLS,F10355171,N,Y,25.9954461,-80.1340044
PAST SALE,November-28-2022,Condo/Co-op,5200 NW 31st Ave #115,Fort Lauderdale,FL,33309,155660,1,1.0,VILLAS AT LAKEVIEW CONDO,702,,1987,,222,238,Sold,,,https://www.redfin.com/FL/Fort-Lauderdale/5200-NW-31st-Ave-33309/unit-115/home/42035645,MARMLS,A11291076,N,Y,26.1900805,-80.1837307
PAST SALE,November-22-2022,Condo/Co-op,9311 Orange Grove Dr #316,Davie,FL,33324,240000,3,2.0,POINCIANA,1260,,1980,,190,1038,Sold,,,https://www.redfin.com/FL/Davie/9311-Orange-Grove-Dr-33324/unit-316/home/41766302,MARMLS,A11283950,N,Y,26.0938015,-80.2722475
PAST SALE,February-10-2023,Condo/Co-op,75 Gulfstream Rd Unit 303B,Dania Beach,FL,33004,295000,2,2.0,SEA OAKS CONDO,1102,,1995,,268,443,Sold,,,https://www.redfin.com/FL/Dania/75-Gulfstream-Rd-33004/unit-303B/home/41820353,MARMLS,A11321894,N,Y,26.0549784,-80.1316388
PAST SALE,November-30-2022,Condo/Co-op,3001 S Course Dr #107,Pompano Beach,FL,33069,200000,1,1.5,Palm Aire Country Club,960,,1970,,208,316,Sold,,,https://www.redfin.com/FL/Pompano-Beach/3001-S-Course-Dr-33069/unit-107/home/41639538,Beaches MLS,F10354242,N,Y,26.2182285,-80.1581652
PAST SALE,December-9-2022,Condo/Co-op,3550 NW 104th Ave #7,Coral Springs,FL,33065,170000,2,2.0,Coral Springs Gardens,975,,1975,,174,350,Sold,,,https://www.redfin.com/FL/Coral-Springs/3550-NW-104th-Ave-33065/unit-7/home/41418176,Beaches MLS,F10352932,N,Y,26.2742285,-80.2651055
PAST SALE,December-15-2022,Condo/Co-op,6850 Royal Palm Blvd Unit 204G,Margate,FL,33063,100000,1,1.5,Royal Park Gardens,850,,1981,,118,362,Sold,,,https://www.redfin.com/FL/Margate/6850-Royal-Palm-Blvd-33063/unit-204G/home/41439378,Beaches MLS,F10330854,N,Y,26.2522898,-80.2166635
PAST SALE,December-12-2022,Condo/Co-op,201 SW 113th Way #201,Pembroke Pines,FL,33025,300000,2,2.0,FAIRWAY GREENS CONDO HOME,978,,1989,,307,416,Sold,,,https://www.redfin.com/FL/Pembroke-Pines/201-SW-113th-Way-33025/unit-201/home/42043347,MARMLS,A11298956,N,Y,26.0035273,-80.2997041
PAST SALE,January-25-2023,Condo/Co-op,2291 NW 48th Ter #214,Lauderhill,FL,33313,145000,1,1.5,CASTLE APARTMENTS 9 CONDO,928,,1972,,156,359,Sold,,,https://www.redfin.com/FL/Lauderhill/2291-NW-48th-Ter-33313/unit-214/home/41598237,MARMLS,A11314973,N,Y,26.1555296,-80.216402
PAST SALE,December-14-2022,Condo/Co-op,1050 Hillsboro Mile Unit 606w,Hillsboro Beach,FL,33062,535000,2,2.0,Hillsboro LE Baron Condo,1000,,1969,,535,540,Sold,,,https://www.redfin.com/FL/Hillsboro-Beach/1050-Hillsboro-Mile-33062/unit-606W/home/41519604,Beaches MLS,RX-10843453,N,Y,26.2796774,-80.0800678
PAST SALE,January-12-2023,Condo/Co-op,2860 NE 14th St Unit 409-D,Pompano Beach,FL,33062,302000,2,2.0,Casa La Quinta,1000,,1979,,302,520,Sold,,,https://www.redfin.com/FL/Pompano-Beach/2860-NE-14th-St-33062/unit-409-D/home/182646460,Beaches MLS,RX-10842097,N,Y,26.249277,-80.0925604
