SALE TYPE,SOLD DATE,PROPERTY TYPE,ADDRESS,CITY,STATE OR PROVINCE,ZIP OR POSTAL CODE,PRICE,BEDS,BATHS,LOCATION,SQUARE FEET,LOT SIZE,YEAR BUILT,DAYS ON MARKET,$/SQUARE FEET,HOA/MONTH,STATUS,NEXT OPEN HOUSE START TIME,NEXT OPEN HOUSE END TIME,URL (SEE https://www.redfin.com/buy-a-home/comparative-market-analysis FOR INFO ON PRICING),SOURCE,MLS#,FAVORITE,INTERESTED,LATITUDE,LONGITUDE
PAST SALE,April-25-2023,Condo/Co-op,9430 Poinciana Pl #408,Davie,FL,33324,165000,1,1.5,PINE ISLAND Ridge,940,,1978,,176,413,Sold,,,https://www.redfin.com/FL/Davie/9430-Poinciana-Pl-33324/unit-408/home/41767909,MARMLS,A11350770,N,Y,26.0980401,-80.2727489
PAST SALE,April-28-2023,Condo/Co-op,1000 Parkview Dr #329,Hallandale Beach,FL,33009,340000,2,2.0,OCEANVIEW PARK CONDO,1130,,1976,,301,664,Sold,,,https://www.redfin.com/FL/Hallandale-Beach/1000-Parkview-Dr-33009/unit-329/home/41958977,MARMLS,A11350234,N,Y,25.9966452,-80.1208309
PAST SALE,May-31-2023,Condo/Co-op,112 Royal Park Dr Unit 3G,Oakland Park,FL,33309,190000,2,2.0,ROYAL PARK CONDO,975,,1974,,195,463,Sold,,,https://www.redfin.com/FL/Oakland-Park/112-Royal-Park-Dr-33309/unit-3G/home/41666812,MARMLS,A11342433,N,Y,26.1705807,-80.1653162
PAST SALE,June-22-2023,Condo/Co-op,2124 NE 5th Ave #107,Wilton Manors,FL,33305,255000,1,1.0,Marvilla Condominium,549,,1965,,464,525,Sold,,,https://www.redfin.com/FL/Wilton-Manors/2124-NE-5th-Ave-33305/unit-107/home/42059980,Beaches MLS,RX-10888227,N,Y,26.1556701,-80.1397618
PAST SALE,April-25-2023,Condo/Co-op,501 Blue Heron Dr Unit 112-A,Hallandale Beach,FL,33009,230000,2,2.0,PARADISE VILLAS CONDO,1200,,1979,,192,511,Sold,,,https://www.redfin.com/FL/Hallandale-Beach/501-Blue-Heron-Dr-33009/unit-112A/home/41967740,MARMLS,A11351864,N,Y,25.9822485,-80.1321725
PAST SALE,April-26-2023,Condo/Co-op,105 Lake Emerald Dr #216,Oakland Park,FL,33309,320000,2,2.0,LAKE EMERALD CONDOMINIUM,1300,,1982,,246,687,Sold,,,https://www.redfin.com/FL/Oakland-Park/105-Lake-Emerald-Dr-33309/unit-216/home/41663993,MARMLS,A11349982,N,Y,26.1800684,-80.1757799
PAST SALE,June-30-2023,Condo/Co-op,2323 SW 15th St #50,Deerfield Beach,FL,33442,290000,2,2.0,Meadowridge Condo,1100,,1981,,264,368,Sold,,,https://www.redfin.com/FL/Deerfield-Beach/2323-SW-15th-St-33442/unit-50/home/41472479,Beaches MLS,RX-10887375,N,Y,26.2974654,-80.1352257
PAST SALE,April-24-2023,Condo/Co-op,288 NW 69th Ave #172,Plantation,FL,33317,272000,3,2.0,FRENCH QUARTER CONDOMINIU,1260,,1973,,216,437,Sold,,,https://www.redfin.com/FL/Plantation/288-NW-69th-Ave-33317/unit-172/home/41747734,MARMLS,A11338271,N,Y,26.1249254,-80.2385319
PAST SALE,April-20-2023,Condo/Co-op,4001 S Ocean Dr Unit 3A,Hollywood,FL,33019,460000,2,1.5,SIAN OCEAN RESIDENCES CON,1146,,1969,,401,1235,Sold,,,https://www.redfin.com/FL/Hollywood/4001-S-Ocean-Dr-33019/unit-3A/home/42052360,MARMLS,A11302637,N,Y,25.9874119,-80.119025
PAST SALE,April-21-2023,Condo/Co-op,100 Golden Isles Dr #515,Hallandale Beach,FL,33009,375500,2,2.0,LAKE POINT TOWER CONDO,1420,,1973,,264,911,Sold,,,https://www.redfin.com/FL/Hallandale-Beach/100-Golden-Isles-Dr-33009/unit-515/home/41957282,MARMLS,A11293885,N,Y,25.9842708,-80.1233296
PAST SALE,May-11-2023,Condo/Co-op,3360 Spanish Moss Ter #102,Lauderhill,FL,33319,147000,2,2.0,GARDEN LAKES OF INVERRARY,1200,,1972,,123,669,Sold,,,https://www.redfin.com/FL/Lauderhill/3360-Spanish-Moss-Ter-33319/unit-102/home/41585454,MARMLS,A11287937,N,Y,26.1682884,-80.2320006
PAST SALE,June-7-2023,Condo/Co-op,201 N Ocean Blvd #607,Pompano Beach,FL,33062,346800,2,2.0,Granada House Condominium,1000,,1966,,347,825,Sold,,,https://www.redfin.com/FL/Pompano-Beach/201-N-Ocean-Blvd-33062/unit-607/home/41524999,Beaches MLS,RX-10848874,N,Y,26.2384644,-80.0896619
PAST SALE,May-2-2023,Condo/Co-op,1919 Van Buren St Unit 721A,Hollywood,FL,33020,300000,2,1.0,REGENT PARK CONDO,983,,2004,,305,513,Sold,,,https://www.redfin.com/FL/Hollywood/1919-Van-Buren-St-33020/unit-721A/home/42039433,MARMLS,A11286293,N,Y,26.0097999,-80.1453879
PAST SALE,June-12-2023,Condo/Co-op,3111 N Ocean Dr #906,Hollywood,FL,33019,655000,2,2.0,HOLLYWOOD TOWERS CONDO,1204,,1967,,544,918,Sold,,,https://www.redfin.com/FL/Hollywood/3111-N-Ocean-Dr-33019/unit-906/home/41930044,MARMLS,A11409058,N,Y,26.0306884,-80.1155142
PAST SALE,June-22-2023,Condo/Co-op,1301 SW 142nd Ave Unit 414H,Pembroke Pines,FL,33027,295000,2,2.0,SUFFOLK AT CENTURY VILLAG,1207,,1996,,244,550,Sold,,,https://www.redfin.com/FL/Pembroke-Pines/1301-SW-142nd-Ave-33027/unit-414H/home/41844512,MARMLS,A11409487,N,Y,25.9958377,-80.332582
PAST SALE,June-2-2023,Condo/Co-op,2631 NE 14th Ave #408,Wilton Manors,FL,33334,485000,2,2.0,Wilton Station,1431,,2005,,339,1086,Sold,,,https://www.redfin.com/FL/Wilton-Manors/2631-NE-14th-Ave-33334/unit-408/home/42053424,Beaches MLS,F10381648,N,Y,26.161008,-80.130465
PAST SALE,May-15-2023,Condo/Co-op,209 N Fort Lauderdale Beach Blvd Unit 11H,Fort Lauderdale,FL,33304,325000,0,1.0,The Seasons,570,,1981,,570,,Sold,,,https://www.redfin.com/FL/Fort-Lauderdale/209-N-Fort-Lauderdale-Beach-Blvd-33304/unit-11H/home/41783339,Beaches MLS,F10381164,N,Y,26.1256166,-80.1039903
PAST SALE,April-13-2023,Condo/Co-op,2520 SW 73 #2520,Davie,FL,33317,340000,2,2.0,Nova North Condominium,,,1974,,,238,Sold,,,https://www.redfin.com/FL/Davie/2520-SW-73rd-Ter-33317/unit-2520/home/184475103,Beaches MLS,F10369276,N,Y,26.0895719,-80.2459957
PAST SALE,,Condo/Co-op,3830 Lyons Rd Unit 306-3,Coconut Creek,FL,33073,275000,2,2.0,,1112,,2001,,247,,,,,https://www.redfin.com/FL/Coconut-Creek/3830-Lyons-Rd-33073/unit-306-3/home/42045719,,,N,Y,26.2770687,-80.185109
PAST SALE,,Condo/Co-op,3670 Inverrary Dr Unit 2O,Lauderhill,FL,33319,50000,1,2.0,,800,,1972,,63,,,,,https://www.redfin.com/FL/Lauderhill/3670-Inverrary-Dr-33319/unit-2O/home/41588919,,,N,Y,26.1695568,-80.2311728
PAST SALE,,Condo/Co-op,194 Prescott J #194,Deerfield Beach,FL,33442,128000,2,2.0,,828,,1978,,155,,,,,https://www.redfin.com/FL/Deerfield-Beach/194-Prescott-J-33442/unit-194/home/41465308,,,N,Y,26.309593,-80.1478463
PAST SALE,,Condo/Co-op,4465 Treehouse Ln Unit E,Tamarac,FL,33319,172000,3,2.0,,1167,,1974,,147,,,,,https://www.redfin.com/FL/Tamarac/4465-Treehouse-Ln-33319/unit-E/home/42025232,,,N,Y,26.1914435,-80.2077636
PAST SALE,,Condo/Co-op,4250 NW 30th St #258,Coconut Creek,FL,33066,240000,3,2.0,,1392,,1993,,172,,,,,https://www.redfin.com/FL/Coconut-Creek/4250-NW-30th-St-33066/unit-258/home/41486346,,,N,Y,26.2634395,-80.1838795
PAST SALE,April-14-2023,Condo/Co-op,5100 SW 41st St #218,Pembroke Park,FL,33023,139030,2,2.0,CONDADO REAL CONDO,1030,,1973,,135,650,Sold,,,https://www.redfin.com/FL/Pembroke-Park/5100-SW-41st-St-33023/unit-218/home/42015657,MARMLS,A11361572,N,Y,25.9734425,-80.1933478
PAST SALE,May-19-2023,Condo/Co-op,1046 Coral Club Dr #1046,Coral Springs,FL,33071,232000,2,2.0,NAPOLI GARDENS AT CORAL S,1044,,1988,,222,426,Sold,,,https://www.redfin.com/FL/Coral-Springs/1046-Coral-Club-Dr-33071/unit-1046/home/42030951,MARMLS,A11361420,N,Y,26.2437875,-80.2677598
PAST SALE,,Condo/Co-op,3650 Environ Blvd #205,Lauderhill,FL,33319,100000,2,2.0,,1242,,1981,,81,,,,,https://www.redfin.com/FL/Lauderhill/3650-Environ-Blvd-33319/unit-205/home/41585854,,,N,Y,26.1723076,-80.2427176
PAST SALE,April-24-2023,Condo/Co-op,7831 Colony Cir #110,Tamarac,FL,33321,191000,2,2.0,Versailles Gardens,949,,1981,,201,399,Sold,,,https://www.redfin.com/FL/Tamarac/7831-Colony-Cir-N-33321/unit-110/home/41559532,Beaches MLS,F10372476,N,Y,26.2040667,-80.2571295
PAST SALE,,Condo/Co-op,2737 S Oakland Forest Dr #203,Oakland Park,FL,33309,235000,2,2.0,,1200,,1984,,196,,,,,https://www.redfin.com/FL/Oakland-Park/2737-S-Oakland-Forest-Dr-33309/unit-203/home/41665884,,,N,Y,26.1696256,-80.1808338
PAST SALE,,Condo/Co-op,610 W Las Olas Blvd Unit 1211N,Fort Lauderdale,FL,33312,370000,1,1.0,,798,,2005,,464,,,,,https://www.redfin.com/FL/Fort-Lauderdale/610-W-Las-Olas-Blvd-33312/unit-1211N/home/42047624,,,N,Y,26.1184508,-80.1488986
PAST SALE,,Condo/Co-op,252 Newport P,Deerfield Beach,FL,33442,122000,1,2.0,,708,,1977,,172,,,,,https://www.redfin.com/FL/Deerfield-Beach/252-Newport-P-33442/home/41464400,,,N,Y,26.3051468,-80.1461395
PAST SALE,,Condo/Co-op,7080 Nova Dr Unit 108B,Davie,FL,33317,150000,3,2.0,,1486,,1979,,101,,,,,https://www.redfin.com/FL/Davie/7080-Nova-Dr-33317/unit-108B/home/41770585,,,N,Y,26.088467,-80.2421077
PAST SALE,May-17-2023,Condo/Co-op,3430 Galt Ocean Dr #1409,Fort Lauderdale,FL,33308,585000,2,2.0,COMMODORE CONDO,1632,,1966,,358,1176,Sold,,,https://www.redfin.com/FL/Fort-Lauderdale/3430-Galt-Ocean-Dr-33308/unit-1409/home/41707834,MARMLS,A11378325,N,Y,26.1707114,-80.0982306
PAST SALE,,Condo/Co-op,2528 Coral Springs Dr #2528,Coral Springs,FL,33065,285000,3,3.0,,1478,,1980,,193,,,,,https://www.redfin.com/FL/Coral-Springs/2528-Coral-Springs-Dr-33065/unit-2528/home/41424836,,,N,Y,26.2624916,-80.2665559
PAST SALE,,Condo/Co-op,3800 Hillcrest Dr #1223,Hollywood,FL,33021,151200,2,2.0,,1600,,1975,,95,,,,,https://www.redfin.com/FL/Hollywood/3800-Hillcrest-Dr-33021/unit-1223/home/41951568,,,N,Y,25.9995353,-80.181796
PAST SALE,,Condo/Co-op,7755 Yardley Dr #407,Tamarac,FL,33321,220000,2,2.0,,1234,,2002,,178,,,,,https://www.redfin.com/FL/Tamarac/7755-Yardley-Dr-33321/unit-407/home/42010091,,,N,Y,26.2205525,-80.2828016
PAST SALE,,Condo/Co-op,205 Liberty Ct #205,Deerfield Beach,FL,33442,268000,2,2.0,,1150,,1984,,233,,,,,https://www.redfin.com/FL/Deerfield-Beach/205-Liberty-Ct-33442/unit-205/home/41472222,,,N,Y,26.3014537,-80.155232
PAST SALE,,Condo/Co-op,1905 N Ocean Blvd Unit 9E,Fort Lauderdale,FL,33305,850000,2,2.0,,1500,,1976,,567,,,,,https://www.redfin.com/FL/Fort-Lauderdale/1905-N-Ocean-Blvd-33305/unit-9E/home/41714101,,,N,Y,26.1533962,-80.1014596
PAST SALE,April-20-2023,Condo/Co-op,777 S Federal Hwy Unit 101N,Pompano Beach,FL,33062,410000,2,2.0,Island Club Four Condo,,,1972,,,557,Sold,,,https://www.redfin.com/FL/Pompano-Beach/777-S-Federal-Hwy-33062/unit-101N/home/77715038,MARMLS,A11363748,N,Y,26.2227428,-80.1044266
PAST SALE,,Condo/Co-op,224 Hibiscus Ave #161,Lauderdale By The Sea,FL,33308,225000,1,1.0,,640,,1966,,352,,,,,https://www.redfin.com/FL/Lauderdale-by-the-Sea/224-Hibiscus-Ave-33308/unit-161/home/41704500,,,N,Y,26.184529,-80.098771
PAST SALE,,Condo/Co-op,105 S Riverside Dr #301,Pompano Beach,FL,33062,220000,2,2.0,,1038,,1989,,212,,,,,https://www.redfin.com/FL/Pompano-Beach/105-S-Riverside-Dr-33062/unit-301/home/41698441,,,N,Y,26.2309254,-80.0933432
PAST SALE,May-30-2023,Condo/Co-op,3400 Blue Lake Dr #201,Pompano Beach,FL,33065,158000,2,2.0,Blue Lakes Apts Condo,1150,,1980,,137,235,Sold,,,https://www.redfin.com/FL/Pompano-Beach/3400-Blue-Lake-Dr-33064/unit-201/home/41486618,Beaches MLS,RX-10891747,N,Y,26.273551,-80.142424
PAST SALE,,Condo/Co-op,2280 E Preserve Way #206,Miramar,FL,33025,210000,2,2.0,,977,,2005,,215,,,,,https://www.redfin.com/FL/Miramar/2280-E-Preserve-Way-33025/unit-206/home/42053514,,,N,Y,25.9873369,-80.2918414
PAST SALE,,Condo/Co-op,2706 Nassau Bnd Unit D2,Coconut Creek,FL,33066,100000,1,2.0,,778,,1976,,129,,,,,https://www.redfin.com/FL/Coconut-Creek/2706-Nassau-Bnd-33066/unit-D2/home/41499709,,,N,Y,26.2453442,-80.1782867
PAST SALE,,Condo/Co-op,322 NW 69th Ave #147,Plantation,FL,33317,228000,2,2.0,,1225,,1972,,186,,,,,https://www.redfin.com/FL/Plantation/322-NW-69th-Ave-33317/unit-147/home/41749289,,,N,Y,26.1255799,-80.238361
PAST SALE,,Condo/Co-op,97 Deer Creek Rd #107,Deerfield Beach,FL,33442,161000,2,2.0,,952,,1977,,169,,,,,https://www.redfin.com/FL/Deerfield-Beach/97-Deer-Creek-Rd-33442/unit-107/home/41464251,,,N,Y,26.3189724,-80.1456661
PAST SALE,,Condo/Co-op,89 Prescott E,Deerfield Beach,FL,33442,147000,2,2.0,,818,,1977,,180,,,,,https://www.redfin.com/FL/Deerfield-Beach/89-Prescott-E-33442/home/41464544,,,N,Y,26.307898,-80.14726
PAST SALE,,Condo/Co-op,1200 Holiday Dr #401,Fort Lauderdale,FL,33316,1534000,2,3.0,,1988,,2007,,772,,,,,https://www.redfin.com/FL/Fort-Lauderdale/1200-Holiday-Dr-33316/unit-401/home/42080259,,,N,Y,26.1078261,-80.1054585
PAST SALE,,Condo/Co-op,381 S Hollybrook Dr #307,Pembroke Pines,FL,33025,275000,2,2.0,,1050,,1974,,262,,,,,https://www.redfin.com/FL/Pembroke-Pines/381-S-Hollybrook-Dr-33025/unit-307/home/41893701,,,N,Y,26.0052474,-80.267283
PAST SALE,,Condo/Co-op,89 Deer Creek Rd #112,Deerfield Beach,FL,33442,260000,2,2.0,,907,,1977,,287,,,,,https://www.redfin.com/FL/Deerfield-Beach/89-Deer-Creek-Rd-33442/unit-112/home/41464243,,,N,Y,26.3184924,-80.1456865
PAST SALE,,Condo/Co-op,250 Jacaranda Dr #211,Plantation,FL,33324,220000,2,2.0,,1015,,1975,,217,,,,,https://www.redfin.com/FL/Plantation/250-Jacaranda-Dr-33324/unit-211/home/41755818,,,N,Y,26.117959,-80.2699008
PAST SALE,,Condo/Co-op,1444 SE 15th Ct #203,Deerfield Beach,FL,33441,180000,1,1.0,,810,,1986,,222,,,,,https://www.redfin.com/FL/Deerfield-Beach/1444-SE-15th-Ct-33441/unit-203/home/41516204,,,N,Y,26.2972714,-80.0826345
PAST SALE,,Condo/Co-op,109 Royal Park Dr Unit 3G,Oakland Park,FL,33309,140000,2,2.0,,975,,1974,,144,,,,,https://www.redfin.com/FL/Oakland-Park/109-Royal-Park-Dr-33309/unit-3G/home/41668835,,,N,Y,26.1692862,-80.1638107
PAST SALE,,Condo/Co-op,2035 Ventnor H,Deerfield Beach,FL,33442,150000,2,2.0,,996,,1978,,151,,,,,https://www.redfin.com/FL/Deerfield-Beach/2035-Ventnor-H-33442/home/41466716,,,N,Y,26.3176598,-80.1423777
PAST SALE,,Condo/Co-op,1189 Hillsboro Mile #8,Hillsboro Beach,FL,33062,425000,2,2.0,,1220,,1967,,348,,,,,https://www.redfin.com/FL/Hillsboro-Beach/1189-Hillsboro-Mile-33062/unit-8/home/41514464,,,N,Y,26.2984206,-80.0786023
PAST SALE,,Condo/Co-op,100 Jacaranda Country Club Dr #205,Plantation,FL,33324,309000,3,3.0,,1445,,2003,,214,,,,,https://www.redfin.com/FL/Plantation/100-Jacaranda-Country-Club-Dr-33324/unit-205/home/42020339,,,N,Y,26.1203716,-80.2705056
PAST SALE,,Condo/Co-op,659 Durham X,Deerfield Beach,FL,33442,135000,1,2.0,,703,,1974,,192,,,,,https://www.redfin.com/FL/Deerfield-Beach/659-Durham-X-33442/home/41464656,,,N,Y,26.3144559,-80.1386086
PAST SALE,,Condo/Co-op,8704 NW 35th St #108,Coral Springs,FL,33065,165000,2,2.0,,945,,1974,,175,,,,,https://www.redfin.com/FL/Coral-Springs/8704-NW-35th-St-33065/unit-108/home/41418510,,,N,Y,26.2730635,-80.2425421
PAST SALE,,Condo/Co-op,620 Cypress Club Way Unit B13,Deerfield Beach,FL,33064,189000,1,1.0,,605,,1988,,312,,,,,https://www.redfin.com/FL/Deerfield-Beach/620-Cypress-Club-Way-33064/unit-B13/home/42030876,,,N,Y,26.2897882,-80.1335488
PAST SALE,,Condo/Co-op,5300 Washington St Unit P236,Hollywood,FL,33021,118400,2,2.0,,840,,1972,,141,,,,,https://www.redfin.com/FL/Hollywood/5300-Washington-St-33021/unit-P236/home/41938487,,,N,Y,26.000708,-80.1960959
PAST SALE,,Condo/Co-op,1245 SW 46th Ave #1209,Pompano Beach,FL,33069,210000,1,1.0,,813,,1987,,258,,,,,https://www.redfin.com/FL/Pompano-Beach/1245-SW-46th-Ave-33069/unit-1209/home/42053110,,,N,Y,26.2150181,-80.189904
PAST SALE,,Condo/Co-op,806 Cypress Grove Ln #512,Pompano Beach,FL,33069,400000,3,2.0,,1720,,1980,,233,,,,,https://www.redfin.com/FL/Pompano-Beach/806-Cypress-Grove-Ln-33069/unit-512/home/41643090,,,N,Y,26.2126918,-80.1852834
PAST SALE,,Condo/Co-op,1111 E Las Olas Blvd #401,Fort Lauderdale,FL,33301,1300000,2,2.0,,2204,,1999,,590,,,,,https://www.redfin.com/FL/Fort-Lauderdale/1111-E-Las-Olas-Blvd-33301/unit-401/home/41982857,,,N,Y,26.1195848,-80.1318235
PAST SALE,,Condo/Co-op,2309 S Cypress Bend Dr Unit 715B,Pompano Beach,FL,33069,198000,2,2.0,,1200,,1973,,165,,,,,https://www.redfin.com/FL/Pompano-Beach/2309-S-Cypress-Bend-Dr-33069/unit-715B/home/41634646,,,N,Y,26.2150933,-80.1530218
PAST SALE,,Condo/Co-op,5260 NE 6th Ave Unit D17,Oakland Park,FL,33334,200000,2,1.0,,800,,1981,,250,,,,,https://www.redfin.com/FL/Oakland-Park/5260-NE-6th-Ave-33334/unit-D17/home/41657059,,,N,Y,26.191727,-80.137503
PAST SALE,May-31-2023,Condo/Co-op,10001 W Atlantic Blvd #319,Coral Springs,FL,33071,175000,1,1.5,TARA GARDENS 1 CONDO,598,,1981,,293,312,Sold,,,https://www.redfin.com/FL/Coral-Springs/10001-W-Atlantic-Blvd-33071/unit-319/home/41445785,MARMLS,A11369132,N,Y,26.241317,-80.2606633
PAST SALE,June-1-2023,Condo/Co-op,2000 S Ocean Dr #608,Fort Lauderdale,FL,33316,460000,1,1.5,Everglades House,1092,,1965,,421,747,Sold,,,https://www.redfin.com/FL/Fort-Lauderdale/2000-S-Ocean-Dr-33316/unit-608/home/41805756,Beaches MLS,F10369812,N,Y,26.0963614,-80.1085711
PAST SALE,,Condo/Co-op,120 SE 7th St #1006,Deerfield Beach,FL,33441,230000,2,2.0,,1150,,1984,,200,,,,,https://www.redfin.com/FL/Deerfield-Beach/120-SE-7th-St-33441/unit-1006/home/41510307,,,N,Y,26.3087829,-80.1034776
PAST SALE,,Condo/Co-op,3200 Port Royale Dr N #210,Fort Lauderdale,FL,33308,290000,1,2.0,,855,,1981,,339,,,,,https://www.redfin.com/FL/Fort-Lauderdale/3200-Port-Royale-Dr-N-33308/unit-210/home/41705127,,,N,Y,26.2107393,-80.1016231
PAST SALE,,Condo/Co-op,4800 NW 35th St #510,Lauderdale Lakes,FL,33319,95000,1,1.0,,684,,1973,,139,,,,,https://www.redfin.com/FL/Lauderdale-Lakes/4800-NW-35th-St-33319/unit-510/home/41594816,,,N,Y,26.1702067,-80.214245
PAST SALE,,Condo/Co-op,4706 NW 36th St #401,Lauderdale Lakes,FL,33319,135000,2,2.0,,944,,1974,,143,,,,,https://www.redfin.com/FL/Lauderdale-Lakes/4706-NW-36th-St-33319/unit-401/home/41594550,,,N,Y,26.172245,-80.212395
PAST SALE,,Condo/Co-op,4443 Treehouse Ln Unit G,Tamarac,FL,33319,163000,2,2.0,,1081,,1974,,151,,,,,https://www.redfin.com/FL/Tamarac/4443-Treehouse-Ln-33319/unit-G/home/42034656,,,N,Y,26.1915208,-80.2070524
PAST SALE,,Condo/Co-op,1250 E Sample Rd #210,Pompano Beach,FL,33064,125000,1,1.0,,640,,1965,,195,,,,,https://www.redfin.com/FL/Pompano-Beach/1250-E-Sample-Rd-33064/unit-210/home/41493537,,,N,Y,26.2749431,-80.1066082
PAST SALE,,Condo/Co-op,2761 Taft St #204,Hollywood,FL,33020,248000,2,2.0,,1040,,1973,,238,,,,,https://www.redfin.com/FL/Hollywood/2761-Taft-St-33020/unit-204/home/41934585,,,N,Y,26.026453,-80.1645447
PAST SALE,,Condo/Co-op,3772 Inverrary Blvd #205,Lauderhill,FL,33319,139000,2,2.0,,904,,1974,,154,,,,,https://www.redfin.com/FL/Lauderhill/3772-Inverrary-Blvd-33319/unit-205/home/41589503,,,N,Y,26.170568,-80.2346146
PAST SALE,June-26-2023,Condo/Co-op,6575 W Oakland Park Blvd #301,Lauderhill,FL,33313,180000,2,2.0,ISLES OF INVERRARY II CON,1110,,1981,,162,504,Sold,,,https://www.redfin.com/FL/Lauderhill/6575-W-Oakland-Park-Blvd-33313/unit-301/home/41584479,MARMLS,A11398721,N,Y,26.1659721,-80.2371904
PAST SALE,,Condo/Co-op,8296 NW 24th St,Coral Springs,FL,33065,232000,2,2.0,,1140,,1992,,204,,,,,https://www.redfin.com/FL/Coral-Springs/8296-NW-24th-St-33065/home/42032398,,,N,Y,26.258765,-80.236894
PAST SALE,,Condo/Co-op,3190 Holiday Springs Blvd Unit 4-203,Margate,FL,33063,82000,1,1.0,,725,,1974,,113,,,,,https://www.redfin.com/FL/Margate/3190-Holiday-Springs-Blvd-33063/unit-4-203/home/41428645,,,N,Y,26.2673281,-80.2335691
PAST SALE,June-2-2023,Condo/Co-op,347 N New River Dr #2803,Fort Lauderdale,FL,33301,985000,2,2.0,Watergarden,1204,,2004,,818,1124,Sold,,,https://www.redfin.com/FL/Fort-Lauderdale/347-N-New-River-Dr-E-33301/unit-2803/home/42011962,Beaches MLS,F10373673,N,Y,26.1176552,-80.1394628
PAST SALE,,Condo/Co-op,1811 Middle River Dr #1811,Fort Lauderdale,FL,33305,349500,2,2.0,,1260,,1969,,277,,,,,https://www.redfin.com/FL/Fort-Lauderdale/1811-Middle-River-Dr-33305/unit-1811/home/41691451,,,N,Y,26.150268,-80.115008
PAST SALE,,Condo/Co-op,1301 River Reach Dr #417,Fort Lauderdale,FL,33315,485000,2,2.0,,1110,,1974,,437,,,,,https://www.redfin.com/FL/Fort-Lauderdale/1301-River-Reach-Dr-33315/unit-417/home/41796041,,,N,Y,26.109546,-80.1579472
PAST SALE,,Condo/Co-op,1333 E Hallandale Beach Blvd #104,Hallandale Beach,FL,33009,150000,1,2.0,,732,,1966,,205,,,,,https://www.redfin.com/FL/Hallandale-Beach/1333-E-Hallandale-Beach-Blvd-33009/unit-104/home/41973653,,,N,Y,25.986767,-80.1347459
PAST SALE,,Condo/Co-op,4166 Inverrary Dr #302,Lauderhill,FL,33319,139050,2,2.0,,1116,,1974,,125,,,,,https://www.redfin.com/FL/Lauderhill/4166-Inverrary-Dr-33319/unit-302/home/41590709,,,N,Y,26.1771763,-80.2243324
PAST SALE,,Condo/Co-op,7900 Fairview Dr #101,Tamarac,FL,33321,180000,2,2.0,,949,,1981,,190,,,,,https://www.redfin.com/FL/Tamarac/7900-Fairview-Dr-33321/unit-101/home/41561109,,,N,Y,26.2020716,-80.257179
PAST SALE,,Condo/Co-op,4013 N University Dr #102,Sunrise,FL,33351,150000,2,2.0,,1200,,1975,,125,,,,,https://www.redfin.com/FL/Sunrise/4013-N-University-Dr-33351/unit-102/home/42060378,,,N,Y,26.1741491,-80.2577016
PAST SALE,June-16-2023,Condo/Co-op,2731 NE 14th Street Cswy Unit 531B,Pompano Beach,FL,33062,157800,1,1.5,Sea Haven,710,,1970,,222,632,Sold,,,https://www.redfin.com/FL/Pompano-Beach/2731-NE-14th-Street-Cswy-33062/unit-531B/home/185554193,Beaches MLS,F10382793,N,Y,26.2510571,-80.0939542
PAST SALE,June-30-2023,Condo/Co-op,161 NE 10th Ave Unit 8c,Hallandale,FL,33009,195000,1,1.0,Eldorado North,613,,1966,,318,424,Sold,,,https://www.redfin.com/FL/Hallandale-Beach/161-NE-10th-Ave-33009/unit-8C/home/41966985,Beaches MLS,F10381597,N,Y,25.9873969,-80.1388793
PAST SALE,,Condo/Co-op,1849 S Ocean Dr #1002,Hallandale Beach,FL,33009,424000,2,2.0,,1315,,1970,,322,,,,,https://www.redfin.com/FL/Hallandale-Beach/1849-S-Ocean-Dr-33009/unit-1002/home/41966743,,,N,Y,25.9843383,-80.1202977
PAST SALE,,Condo/Co-op,1755 E Hallandale Beach Blvd Unit 1904E,Hallandale Beach,FL,33009,330000,1,2.0,,920,,2007,,359,,,,,https://www.redfin.com/FL/Hallandale-Beach/1755-E-Hallandale-Beach-Blvd-33009/unit-1904E/home/42073053,,,N,Y,25.9878265,-80.1308639
PAST SALE,,Condo/Co-op,3689 NW 94th Ave Unit 5I,Sunrise,FL,33351,240000,2,2.0,,925,,1984,,259,,,,,https://www.redfin.com/FL/Sunrise/3689-NW-94th-Ave-33351/unit-5I/home/41582367,,,N,Y,26.171088,-80.276444
PAST SALE,,Condo/Co-op,405 N Ocean Blvd #1728,Pompano Beach,FL,33062,295000,1,1.0,,890,,1970,,331,,,,,https://www.redfin.com/FL/Pompano-Beach/405-N-Ocean-Blvd-33062/unit-1728/home/41531812,,,N,Y,26.2385613,-80.0895466
PAST SALE,,Condo/Co-op,7925 Colony Cir S #205,Tamarac,FL,33321,150000,2,2.0,,949,,1981,,158,,,,,https://www.redfin.com/FL/Tamarac/7925-Colony-Cir-S-33321/unit-205/home/41560968,,,N,Y,26.2039451,-80.2570124
PAST SALE,,Condo/Co-op,6001 N Ocean Dr #1005,Hollywood,FL,33019,1600000,3,3.0,,2303,,1999,,695,,,,,https://www.redfin.com/FL/Hollywood/6001-N-Ocean-Dr-33019/unit-1005/home/42001632,,,N,Y,26.0518946,-80.1127426
PAST SALE,,Condo/Co-op,505 E Dania Beach Blvd Unit 4-2I,Dania Beach,FL,33004,205000,1,2.0,,900,,1974,,228,,,,,https://www.redfin.com/FL/Dania-Beach/505-E-Dania-Beach-Blvd-33004/unit-4-2I/home/41820828,,,N,Y,26.0540141,-80.1350513
PAST SALE,,Condo/Co-op,8380 Sands Point Blvd Unit J101,Tamarac,FL,33321,133400,2,2.0,,1200,,1977,,111,,,,,https://www.redfin.com/FL/Tamarac/8380-Sands-Point-Blvd-33321/unit-J101/home/41556538,,,N,Y,26.2062674,-80.264334
PAST SALE,,Condo/Co-op,1893 S Ocean Dr #906,Hallandale Beach,FL,33009,325000,2,2.0,,988,,1968,,329,,,,,https://www.redfin.com/FL/Hallandale-Beach/1893-S-Ocean-Dr-33009/unit-906/home/41963241,,,N,Y,25.9826173,-80.1202934
PAST SALE,,Condo/Co-op,4131 NW 22nd St Unit 245E,Coconut Creek,FL,33066,269900,2,2.0,,1150,,1981,,235,,,,,https://www.redfin.com/FL/Coconut-Creek/4131-NW-22nd-St-33066/unit-245E/home/41498186,,,N,Y,26.2566422,-80.1818376
PAST SALE,,Condo/Co-op,2253 Mariner Ct #2612,Fort Lauderdale,FL,33312,385000,3,3.0,,1396,,2004,,276,,,,,https://www.redfin.com/FL/Fort-Lauderdale/2253-Mariner-Ct-33312/unit-2612/home/42029838,,,N,Y,26.0592573,-80.17057
PAST SALE,,Condo/Co-op,613 S State Road 7 Unit 2C,Margate,FL,33068,165000,2,2.0,,1005,,1978,,164,,,,,https://www.redfin.com/FL/Margate/613-S-State-Road-7-33068/unit-2C/home/41538662,,,N,Y,26.223973,-80.20581
PAST SALE,,Condo/Co-op,7925 Fairview Dr #203,Tamarac,FL,33321,157500,1,2.0,,750,,1981,,210,,,,,https://www.redfin.com/FL/Tamarac/7925-Fairview-Dr-33321/unit-203/home/41559615,,,N,Y,26.2024869,-80.2565692
PAST SALE,,Condo/Co-op,437 Golden Isles Dr Unit 7D,Hallandale Beach,FL,33009,295000,2,2.0,,1150,,1970,,257,,,,,https://www.redfin.com/FL/Hallandale-Beach/437-Golden-Isles-Dr-33009/unit-7D/home/41964359,,,N,Y,25.9827448,-80.1291232
PAST SALE,June-29-2023,Condo/Co-op,2030 S Ocean Dr #1708,Hallandale Beach,FL,33009,630000,1,2.0,PARKER PLAZA CONDO ESTATE,1248,,1970,,505,,Sold,,,https://www.redfin.com/FL/Hallandale-Beach/2030-S-Ocean-Dr-33009/unit-1708/home/41963860,MARMLS,A11409084,N,Y,25.9780358,-80.1193913
PAST SALE,,Condo/Co-op,2222 N Cypress Bend Dr #210,Pompano Beach,FL,33069,200000,2,2.0,,830,,1987,,241,,,,,https://www.redfin.com/FL/Pompano-Beach/2222-N-Cypress-Bend-Dr-33069/unit-210/home/41636697,,,N,Y,26.2175755,-80.1496569
PAST SALE,,Condo/Co-op,5841 Washington St #57,Hollywood,FL,33023,199000,1,1.0,,650,,1982,,306,,,,,https://www.redfin.com/FL/Hollywood/5841-Washington-St-33023/unit-57/home/41886812,,,N,Y,26.003716,-80.20312
PAST SALE,,Condo/Co-op,2200 S Cypress Bend Dr #701,Pompano Beach,FL,33069,229000,2,2.0,,1399,,1981,,164,,,,,https://www.redfin.com/FL/Pompano-Beach/2200-S-Cypress-Bend-Dr-33069/unit-701/home/41634959,,,N,Y,26.2125612,-80.1484996
PAST SALE,,Condo/Co-op,1012 N Ocean Blvd #905,Pompano Beach,FL,33062,750000,2,2.0,,1310,,1971,,573,,,,,https://www.redfin.com/FL/Pompano-Beach/1012-N-Ocean-Blvd-33062/unit-905/home/41523668,,,N,Y,26.2472315,-80.0861863
PAST SALE,,Condo/Co-op,2230 N Cypress Bend Dr #108,Pompano Beach,FL,33069,243000,2,2.0,,840,,1989,,289,,,,,https://www.redfin.com/FL/Pompano-Beach/2230-N-Cypress-Bend-Dr-33069/unit-108/home/41640816,,,N,Y,26.2177404,-80.1520701
PAST SALE,,Condo/Co-op,4321 SW 160th Ave #104,Miramar,FL,33027,352500,3,2.0,,1340,,2002,,263,,,,,https://www.redfin.com/FL/Miramar/4321-SW-160th-Ave-33027/unit-104/home/42008422,,,N,Y,25.970628,-80.358345
PAST SALE,,Condo/Co-op,1401 S Ocean Blvd #610,Pompano Beach,FL,33062,410000,2,2.0,,1800,,1972,,228,,,,,https://www.redfin.com/FL/Pompano-Beach/1401-S-Ocean-Blvd-33062/unit-610/home/41694409,,,N,Y,26.2158874,-80.0929478
PAST SALE,,Condo/Co-op,1312 SW 3rd Ct,Fort Lauderdale,FL,33312,297500,1,1.0,,762,,2005,,390,,,,,https://www.redfin.com/FL/Fort-Lauderdale/1312-SW-3rd-Ct-33312/home/42049230,,,N,Y,26.117989,-80.1588344
PAST SALE,April-18-2023,Condo/Co-op,6750 NE 21st Rd #106,Fort Lauderdale,FL,33308,150000,1,1.5,Imperial Point Colonnades,850,,1971,,176,413,Sold,,,https://www.redfin.com/FL/Fort-Lauderdale/6750-NE-21st-Rd-33308/unit-106/home/41650559,Beaches MLS,F10368852,N,Y,26.210086,-80.1138657
PAST SALE,April-24-2023,Condo/Co-op,8980 S Hollybrook Blvd #202,Pembroke Pines,FL,33025,247500,2,2.0,Hollybrook Golf & Tennis,1170,,1973,,212,515,Sold,,,https://www.redfin.com/FL/Pembroke-Pines/8980-S-Hollybrook-Blvd-33025/unit-202/home/41886430,Beaches MLS,F10371985,N,Y,26.0027579,-80.2683282
PAST SALE,,Condo/Co-op,1536 SE 15th Ct #702,Deerfield Beach,FL,33441,375000,2,2.0,,1000,,1963,,375,,,,,https://www.redfin.com/FL/Deerfield-Beach/1536-SE-15th-Ct-33441/unit-702/home/41514524,,,N,Y,26.2974859,-80.0808181
PAST SALE,,Condo/Co-op,5340 NE 5th Ter #4103,Deerfield Beach,FL,33064,175000,2,1.0,,952,,1975,,184,,,,,https://www.redfin.com/FL/Deerfield-Beach/5340-NE-5th-Ter-33064/unit-4103/home/42068275,,,N,Y,26.2965673,-80.1145382
PAST SALE,,Condo/Co-op,5370 NE 5th Ter #7105,Deerfield Beach,FL,33064,175000,2,1.0,,952,,1975,,184,,,,,https://www.redfin.com/FL/Deerfield-Beach/5370-NE-5th-Ter-33064/unit-7105/home/42075897,,,N,Y,26.2965673,-80.1145382
PAST SALE,,Condo/Co-op,8471 SW 5th St #206,Pembroke Pines,FL,33025,185000,2,1.0,,836,,1989,,221,,,,,https://www.redfin.com/FL/Pembroke-Pines/8471-SW-5th-St-33025/unit-206/home/42065889,,,N,Y,26.0058257,-80.2552564
PAST SALE,,Condo/Co-op,5340 NE 5th Ter #4201,Deerfield Beach,FL,33064,175000,2,1.0,,969,,1975,,181,,,,,https://www.redfin.com/FL/Deerfield-Beach/5340-NE-5th-Ter-33064/unit-4201/home/42074314,,,N,Y,26.2965673,-80.1145382
PAST SALE,,Condo/Co-op,1021 Hillsboro Mile #202,Hillsboro Beach,FL,33062,281000,2,2.0,,1135,,1969,,248,,,,,https://www.redfin.com/FL/Hillsboro-Beach/1021-Hillsboro-Mile-33062/unit-202/home/41515102,,,N,Y,26.2759261,-80.0798257
PAST SALE,,Condo/Co-op,301 Cambridge Rd #210,Hollywood,FL,33024,73500,1,2.0,,920,,1974,,80,,,,,https://www.redfin.com/FL/Hollywood/301-Cambridge-Rd-33024/unit-210/home/41864894,,,N,Y,26.0437211,-80.2290263
PAST SALE,,Condo/Co-op,1101 NW 58th Ter #104,Sunrise,FL,33313,99500,2,2.0,,1030,,1973,,97,,,,,https://www.redfin.com/FL/Sunrise/1101-NW-58th-Ter-33313/unit-104/home/41625888,,,N,Y,26.1361929,-80.2269345
PAST SALE,April-25-2023,Condo/Co-op,4001 S Ocean Dr Unit 2P,Hollywood,FL,33019,505000,2,2.0,Sian Ocean Residences,1346,,1970,,375,1491,Sold,,,https://www.redfin.com/FL/Hollywood/4001-S-Ocean-Dr-33019/unit-2P/home/42070157,Beaches MLS,F10351614,N,Y,25.9874119,-80.119025
PAST SALE,,Condo/Co-op,5216 NW 18th St Unit 3S,Lauderhill,FL,33313,161000,3,2.0,,1350,,1972,,119,,,,,https://www.redfin.com/FL/Lauderhill/5216-NW-18th-St-33313/unit-3S/home/41627972,,,N,Y,26.1476306,-80.2208248
PAST SALE,June-2-2023,Condo/Co-op,2100 S Ocean Dr Unit 9K,Fort Lauderdale,FL,33316,790000,2,2.0,SKY HARBOUR EAST,1350,,1964,,585,1176,Sold,,,https://www.redfin.com/FL/Fort-Lauderdale/2100-S-Ocean-Dr-33316/unit-9K/home/41805326,MARMLS,A11382882,N,Y,26.095235,-80.108972
PAST SALE,,Condo/Co-op,2901 NW 48th Ave #263,Lauderdale Lakes,FL,33313,85000,1,1.0,,705,,1973,,121,,,,,https://www.redfin.com/FL/Lauderdale-Lakes/2901-NW-48th-Ave-33313/unit-263/home/41597391,,,N,Y,26.1613315,-80.2134091
PAST SALE,May-5-2023,Condo/Co-op,2501 S Ocean Dr #1523,Hollywood,FL,33019,515000,1,1.5,WAVE CONDO,835,,1968,,617,936,Sold,,,https://www.redfin.com/FL/Hollywood/2501-S-Ocean-Dr-33019/unit-1523/home/42029309,MARMLS,A11382954,N,Y,25.9972936,-80.1174716
PAST SALE,,Condo/Co-op,9441 Live Oak Pl #403,Davie,FL,33324,178000,2,2.0,,915,,1974,,195,,,,,https://www.redfin.com/FL/Davie/9441-Live-Oak-Pl-33324/unit-403/home/41769566,,,N,Y,26.0949405,-80.2771374
PAST SALE,,Condo/Co-op,650 SW 138th Ave Unit 109J,Pembroke Pines,FL,33027,257000,2,2.0,,1137,,1997,,226,,,,,https://www.redfin.com/FL/Pembroke-Pines/650-SW-138th-Ave-33027/unit-109J/home/41983508,,,N,Y,26.0027064,-80.3296042
PAST SALE,,Condo/Co-op,920 SW 147th Ave #2907,Pembroke Pines,FL,33027,385000,,,,,,2013,,,,,,,https://www.redfin.com/FL/Pembroke-Pines/920-SW-147th-Ave-33027/unit-2907/home/56677870,,,N,Y,26.001458,-80.342359
PAST SALE,June-14-2023,Condo/Co-op,101 S Fort Lauderdale Beach Blvd #2003,Fort Lauderdale,FL,33316,3300000,3,4.0,Las Olas Beach Club,3035,,2007,,1087,3446,Sold,,,https://www.redfin.com/FL/Fort-Lauderdale/101-S-Fort-Lauderdale-Beach-Blvd-33316/unit-2003/home/42062794,Beaches MLS,F10382331,N,Y,26.1212729,-80.1052556
PAST SALE,,Condo/Co-op,100 S Birch Rd Unit 1404E,Fort Lauderdale,FL,33316,1200000,2,2.0,,1934,,2001,,620,,,,,https://www.redfin.com/FL/Fort-Lauderdale/100-S-Birch-Rd-33316/unit-1404E/home/42007116,,,N,Y,26.1211668,-80.106486
PAST SALE,,Condo/Co-op,5350 NE 5th Ter #5103,Deerfield Beach,FL,33064,175000,2,1.0,,952,,1975,,184,,,,,https://www.redfin.com/FL/Deerfield-Beach/5350-NE-5th-Ter-33064/unit-5103/home/42075393,,,N,Y,26.2965673,-80.1145382
PAST SALE,,Condo/Co-op,601 NW 77th Ave #105,Margate,FL,33063,90000,1,1.0,,735,,1974,,122,,,,,https://www.redfin.com/FL/Margate/601-NW-77th-Ave-33063/unit-105/home/41455357,,,N,Y,26.2364755,-80.2290462
PAST SALE,,Condo/Co-op,2501 S Ocean Dr #708,Hollywood,FL,33019,440000,1,1.0,,745,,1968,,591,,,,,https://www.redfin.com/FL/Hollywood/2501-S-Ocean-Dr-33019/unit-708/home/42028588,,,N,Y,25.9972936,-80.1174716
PAST SALE,,Condo/Co-op,7820 Colony Cir S #101,Tamarac,FL,33321,150000,2,2.0,,949,,1981,,158,,,,,https://www.redfin.com/FL/Tamarac/7820-Colony-Cir-S-33321/unit-101/home/41561979,,,N,Y,26.2037008,-80.255611
PAST SALE,,Condo/Co-op,209 N Fort Lauderdale Beach Blvd Unit 2H,Fort Lauderdale,FL,33304,400000,1,1.0,,570,,1981,,702,,,,,https://www.redfin.com/FL/Fort-Lauderdale/209-N-Fort-Lauderdale-Beach-Blvd-33304/unit-2H/home/41787826,,,N,Y,26.1256166,-80.1039903
PAST SALE,,Condo/Co-op,5350 NE 5th Ter #5111,Deerfield Beach,FL,33064,180000,2,1.0,,952,,1975,,189,,,,,https://www.redfin.com/FL/Deerfield-Beach/5350-NE-5th-Ter-33064/unit-5111/home/42074833,,,N,Y,26.2965673,-80.1145382
PAST SALE,,Condo/Co-op,7825 Fairview Dr #103,Tamarac,FL,33321,157500,1,2.0,,750,,1981,,210,,,,,https://www.redfin.com/FL/Tamarac/7825-Fairview-Dr-33321/unit-103/home/41561603,,,N,Y,26.2022212,-80.2553496
PAST SALE,,Condo/Co-op,7910 Colony Cir N #203,Tamarac,FL,33321,157500,1,2.0,,750,,1981,,210,,,,,https://www.redfin.com/FL/Tamarac/7910-Colony-Cir-N-33321/unit-203/home/41561550,,,N,Y,26.2051316,-80.2561033
PAST SALE,April-25-2023,Condo/Co-op,305 NE 16th St Unit B6,Fort Lauderdale,FL,33304,195000,2,1.0,Palma Vista,800,,1970,,244,525,Sold,,,https://www.redfin.com/FL/Fort-Lauderdale/305-NE-16th-St-33304/unit-B6/home/41423413,Beaches MLS,F10374360,N,Y,26.1478396,-80.141639
PAST SALE,,Condo/Co-op,3400 NW 48th Ave #609,Lauderdale Lakes,FL,33319,110000,1,1.0,,684,,1974,,161,,,,,https://www.redfin.com/FL/Lauderdale-Lakes/3400-NW-48th-Ave-33319/unit-609/home/41595102,,,N,Y,26.1694535,-80.2129159
PAST SALE,,Condo/Co-op,4117 Bougainvilla Dr #508,Lauderdale By The Sea,FL,33308,350000,2,2.0,,1030,,1967,,340,,,,,https://www.redfin.com/FL/Lauderdale-by-the-Sea/4117-Bougainvilla-Dr-33308/unit-508/home/41706674,,,N,Y,26.1846772,-80.0974574
PAST SALE,,Condo/Co-op,3551 Inverrary Dr #106,Lauderhill,FL,33319,145000,2,2.0,,1070,,1974,,136,,,,,https://www.redfin.com/FL/Lauderhill/3551-Inverrary-Dr-33319/unit-106/home/41586902,,,N,Y,26.1723383,-80.2324363
PAST SALE,,Condo/Co-op,3400 Galt Ocean Dr Unit 710S,Fort Lauderdale,FL,33308,975000,2,3.0,,1859,,1974,,524,,,,,https://www.redfin.com/FL/Fort-Lauderdale/3400-Galt-Ocean-Dr-33308/unit-710S/home/41708580,,,N,Y,26.169887,-80.098341
PAST SALE,June-28-2023,Condo/Co-op,1200 SW 125 Ave Unit 403L,Pembroke Pines,FL,33027,220000,1,1.5,CAMBRIDGE AT CENTURY VILL,1045,,1989,,211,511,Sold,,,https://www.redfin.com/FL/Pembroke-Pines/1200-SW-125th-Ave-33027/unit-403L/home/41845716,MARMLS,A11389628,N,Y,25.997787,-80.3139552
PAST SALE,May-4-2023,Condo/Co-op,1951 NE 39th St #357,Lighthouse Point,FL,33064,165000,2,2.0,Lighthouse Pt Gardens N,900,,1966,,183,384,Sold,,,https://www.redfin.com/FL/Lighthouse-Point/1951-NE-39th-St-33064/unit-357/home/41520042,Beaches MLS,F10364621,N,Y,26.2805666,-80.0955251
PAST SALE,,Condo/Co-op,5890 NW 64th Ave #103,Tamarac,FL,33319,55000,2,2.0,,880,,1974,,63,,,,,https://www.redfin.com/FL/Tamarac/5890-NW-64th-Ave-33319/unit-103/home/41565050,,,N,Y,26.1972482,-80.2340442
PAST SALE,,Condo/Co-op,1429 SW 9th St #6,Fort Lauderdale,FL,33312,181000,2,1.0,,670,,1970,,270,,,,,https://www.redfin.com/FL/Fort-Lauderdale/1429-SW-9th-St-33312/unit-6/home/42029021,,,N,Y,26.1107751,-80.1608219
PAST SALE,,Condo/Co-op,8900 Washington Blvd Ph 9,Pembroke Pines,FL,33025,125000,1,2.0,,800,,1974,,156,,,,,https://www.redfin.com/FL/Pembroke-Pines/8900-Washington-Blvd-33025/unit-9/home/41898169,,,N,Y,26.0008755,-80.2644613
PAST SALE,,Condo/Co-op,3605 NE 32nd Ave Unit 104A,Fort Lauderdale,FL,33308,185000,2,2.0,,993,,1972,,186,,,,,https://www.redfin.com/FL/Fort-Lauderdale/3605-NE-32nd-Ave-33308/unit-104A/home/41711352,,,N,Y,26.1731078,-80.1031111
PAST SALE,June-12-2023,Condo/Co-op,10781 Cleary Blvd #109,Plantation,FL,33324,230000,2,1.0,LAKES OF JACARANDA CONDO,940,,1990,,245,310,Sold,,,https://www.redfin.com/FL/Plantation/10781-Cleary-Blvd-33324/unit-109/home/42036179,MARMLS,A11372458,N,Y,26.1334409,-80.2921026
PAST SALE,,Condo/Co-op,4200 Hillcrest Dr #211,Hollywood,FL,33021,170000,2,2.0,,1312,,1973,,130,,,,,https://www.redfin.com/FL/Hollywood/4200-Hillcrest-Dr-33021/unit-211/home/41951709,,,N,Y,25.9991249,-80.1832821
PAST SALE,,Condo/Co-op,403 Lakeview Dr #105,Weston,FL,33326,240000,2,2.0,,1225,,1980,,196,,,,,https://www.redfin.com/FL/Weston/403-Lakeview-Dr-33326/unit-105/home/41728433,,,N,Y,26.1219317,-80.3860027
PAST SALE,,Condo/Co-op,815 Middle River Dr #112,Fort Lauderdale,FL,33304,165000,1,1.0,,450,,1979,,367,,,,,https://www.redfin.com/FL/Fort-Lauderdale/815-Middle-River-Dr-33304/unit-112/home/41786146,,,N,Y,26.1356415,-80.1182134
PAST SALE,May-9-2023,Condo/Co-op,3190 Holiday Springs Blvd #203,Margate,FL,33063,82000,1,1.5,Holiday Springs Village 1,720,,1974,,114,421,Sold,,,https://www.redfin.com/FL/Margate/3190-Holiday-Springs-Blvd-33063/unit-203/home/185122270,Beaches MLS,RX-10881968,N,Y,26.2673281,-80.2335691
PAST SALE,May-26-2023,Condo/Co-op,10691 NW 14th St #258,Plantation,FL,33322,370000,3,2.5,OPTIMA VILLAGE I-D CONDO,1380,,1990,,268,505,Sold,,,https://www.redfin.com/FL/Plantation/10691-NW-14th-St-33322/unit-258/home/41617786,MARMLS,A11378687,N,Y,26.143258,-80.293077
PAST SALE,,Condo/Co-op,9380 Sunrise Lakes Blvd #208,Sunrise,FL,33322,132000,1,1.0,,640,,1978,,206,,,,,https://www.redfin.com/FL/Sunrise/9380-Sunrise-Lakes-Blvd-33322/unit-208/home/41615772,,,N,Y,26.1593026,-80.2751543
PAST SALE,May-4-2023,Condo/Co-op,3500 Galt Ocean Dr #309,Fort Lauderdale,FL,33308,380000,1,1.5,Playa Del Sol,1209,,1974,,314,500,Sold,,,https://www.redfin.com/FL/Fort-Lauderdale/3500-Galt-Ocean-Dr-33308/unit-309/home/41708840,Beaches MLS,F10378919,N,Y,26.1715275,-80.0981433
PAST SALE,,Condo/Co-op,1800 S Ocean Blvd #1302,Pompano Beach,FL,33062,700000,2,2.0,,1724,,1980,,406,,,,,https://www.redfin.com/FL/Pompano-Beach/1800-S-Ocean-Blvd-33062/unit-1302/home/41703512,,,N,Y,26.2076128,-80.0933901
PAST SALE,April-10-2023,Condo/Co-op,993 SE 10th St Unit 10A,Deerfield Beach,FL,33441,270000,2,2.0,Cove Village,977,,1973,,276,457,Sold,,,https://www.redfin.com/FL/Deerfield-Beach/993-SE-10th-St-33441/unit-10A/home/41509116,Beaches MLS,F10369394,N,Y,26.305597,-80.090491
PAST SALE,,Condo/Co-op,4751 NW 21st St #218,Lauderhill,FL,33313,140000,2,2.0,,1387,,1973,,101,,,,,https://www.redfin.com/FL/Lauderhill/4751-NW-21st-St-33313/unit-218/home/41598685,,,N,Y,26.1532497,-80.2137874
PAST SALE,,Condo/Co-op,1551 N 12th Ct Unit 3A,Hollywood,FL,33019,140000,1,1.0,,600,,1964,,233,,,,,https://www.redfin.com/FL/Hollywood/1551-N-12th-Ct-33019/unit-3A/home/41936976,,,N,Y,26.0262115,-80.1313699
PAST SALE,,Condo/Co-op,348 S Federal Hwy #28,Dania,FL,33004,158000,1,1.0,,655,,1974,,241,,,,,https://www.redfin.com/FL/Dania/348-S-Federal-Hwy-33004/unit-28/home/41921377,,,N,Y,26.0449472,-80.144026
PAST SALE,May-15-2023,Condo/Co-op,2177 SW 80th Ter #2177,Miramar,FL,33025,235000,2,2.0,Verano At Miramar,1084,,1986,,217,251,Sold,,,https://www.redfin.com/FL/Miramar/2177-SW-80th-Ter-33025/unit-2177/home/104357781,Beaches MLS,F10367962,N,Y,25.990804,-80.248002
PAST SALE,,Condo/Co-op,2238 Monroe St #308,Hollywood,FL,33020,150000,1,1.0,,660,,1969,,227,,,,,https://www.redfin.com/FL/Hollywood/2238-Monroe-St-33020/unit-308/home/41947675,,,N,Y,26.0073272,-80.1524145
PAST SALE,May-22-2023,Condo/Co-op,711 N Pine Island Rd #111,Plantation,FL,33324,191300,1,1.5,BELASERA AT PINE ISLAND,764,,1986,,250,287,Sold,,,https://www.redfin.com/FL/Plantation/711-N-Pine-Island-Rd-33324/unit-111/home/42024464,MARMLS,A11375955,N,Y,26.1284423,-80.2640555
PAST SALE,,Condo/Co-op,301 N Pine Island Rd #152,Plantation,FL,33324,140000,2,2.0,,1010,,1976,,139,,,,,https://www.redfin.com/FL/Plantation/301-N-Pine-Island-Rd-33324/unit-152/home/41751179,,,N,Y,26.1233582,-80.2647622
PAST SALE,April-27-2023,Condo/Co-op,2901 NW 46 #205,Lauderdale Lakes,FL,33313,105000,1,1.5,Lauderdale Oaks,768,,1971,,137,330,Sold,,,https://www.redfin.com/FL/Lauderdale-Lakes/2901-NW-46th-Ave-33313/unit-205/home/41597419,Beaches MLS,F10374648,N,Y,26.1616063,-80.2103884
PAST SALE,,Condo/Co-op,140 S Dixie Hwy #814,Hollywood,FL,33020,303000,2,2.0,,1220,,2006,,248,,,,,https://www.redfin.com/FL/Hollywood/140-S-Dixie-Hwy-33020/unit-814/home/42074738,,,N,Y,26.010526,-80.149426
PAST SALE,,Condo/Co-op,4019 N University Dr #105,Sunrise,FL,33351,150000,2,2.0,,1200,,1975,,125,,,,,https://www.redfin.com/FL/Sunrise/4019-N-University-Dr-33351/unit-105/home/42061395,,,N,Y,26.1745812,-80.2563296
PAST SALE,June-20-2023,Condo/Co-op,8950 Sunrise Lakes Blvd #208,Sunrise,FL,33322,115000,1,1.0,SUNRISE LAKES 80 CONDO,640,,1975,,180,411,Sold,,,https://www.redfin.com/FL/Sunrise/8950-Sunrise-Lakes-Blvd-33322/unit-208/home/41609028,MARMLS,A11390463,N,Y,26.1608486,-80.2704333
PAST SALE,,Condo/Co-op,3170 Holiday Springs Blvd Unit 6-209,Margate,FL,33063,125000,2,2.0,,958,,1974,,130,,,,,https://www.redfin.com/FL/Margate/3170-Holiday-Springs-Blvd-33063/unit-6-209/home/41431630,,,N,Y,26.2618474,-80.2334267
PAST SALE,,Condo/Co-op,1811 Jefferson St #606,Hollywood,FL,33020,100000,1,2.0,,850,,1970,,118,,,,,https://www.redfin.com/FL/Hollywood/1811-Jefferson-St-33020/unit-606/home/41941583,,,N,Y,26.0063237,-80.1434466
PAST SALE,June-23-2023,Condo/Co-op,4000 N Hills Dr #7,Hollywood,FL,33021,160000,2,2.0,Emerald Hills,1127,,1981,,142,563,Sold,,,https://www.redfin.com/FL/Hollywood/4000-N-Hills-Dr-33021/unit-7/home/41925851,Beaches MLS,F10381446,N,Y,26.0431094,-80.1836442
PAST SALE,,Condo/Co-op,2202 Lucaya Bnd Unit O1,Coconut Creek,FL,33066,187300,2,2.0,,1307,,1980,,143,,,,,https://www.redfin.com/FL/Coconut-Creek/2202-Lucaya-Bnd-33066/unit-O1/home/41499599,,,N,Y,26.254687,-80.1810113
PAST SALE,,Condo/Co-op,1333 E Hallandale Beach Blvd #437,Hallandale Beach,FL,33009,173000,1,1.0,,711,,1967,,243,,,,,https://www.redfin.com/FL/Hallandale-Beach/1333-E-Hallandale-Beach-Blvd-33009/unit-437/home/41967184,,,N,Y,25.986767,-80.1347459
PAST SALE,June-29-2023,Condo/Co-op,401 N Birch Rd #400,Fort Lauderdale,FL,33304,1745000,3,3.5,Tiffany House,,,2018,,,2321,Sold,,,https://www.redfin.com/FL/Fort-Lauderdale/401-N-Birch-Rd-33304/unit-400/home/145953666,Beaches MLS,F10387301,N,Y,26.1283554,-80.1065349
PAST SALE,,Condo/Co-op,3201 NE 14th Street Cswy #210,Pompano Beach,FL,33062,285000,2,1.0,,800,,1970,,356,,,,,https://www.redfin.com/FL/Pompano-Beach/3201-NE-14th-Street-Cswy-33062/unit-210/home/41524283,,,N,Y,26.2506353,-80.0882978
PAST SALE,,Condo/Co-op,715 Bayshore Dr #901,Fort Lauderdale,FL,33304,3300000,3,5.0,,3417,,2004,,966,,,,,https://www.redfin.com/FL/Fort-Lauderdale/715-Bayshore-Dr-33304/unit-901/home/42028385,,,N,Y,26.1331955,-80.1085716
PAST SALE,,Condo/Co-op,31 Harwood B,Deerfield Beach,FL,33442,150000,2,2.0,,820,,1974,,183,,,,,https://www.redfin.com/FL/Deerfield-Beach/31-Harwood-B-33442/home/41461235,,,N,Y,26.307071,-80.135013
PAST SALE,,Condo/Co-op,2681 N Flamingo Rd #406,Sunrise,FL,33323,282000,2,2.0,,1000,,2009,,282,,,,,https://www.redfin.com/FL/Sunrise/2681-N-Flamingo-Rd-33323/unit-406/home/41422341,,,N,Y,26.1574106,-80.3157962
PAST SALE,,Condo/Co-op,4058 Cambridge C,Deerfield Beach,FL,33442,120000,1,2.0,,700,,1978,,171,,,,,https://www.redfin.com/FL/Deerfield-Beach/4058-Cambridge-C-33442/home/41459603,,,N,Y,26.3139098,-80.1328914
PAST SALE,,Condo/Co-op,2062 Lyndhurst N,Deerfield Beach,FL,33442,225000,2,2.0,,1100,,1974,,205,,,,,https://www.redfin.com/FL/Deerfield-Beach/2062-Lyndhurst-N-33442/home/41464791,,,N,Y,26.308648,-80.136312
PAST SALE,,Condo/Co-op,2551 NW 103rd Ave #401,Sunrise,FL,33322,270500,3,2.0,,1470,,1989,,184,,,,,https://www.redfin.com/FL/Sunrise/2551-NW-103rd-Ave-33322/unit-401/home/41619917,,,N,Y,26.1576646,-80.2867909
PAST SALE,,Condo/Co-op,3087 Westbury H #3087,Deerfield Beach,FL,33442,97000,1,2.0,,753,,1977,,129,,,,,https://www.redfin.com/FL/Deerfield-Beach/3087-Westbury-H-33442/unit-3087/home/41460369,,,N,Y,26.315621,-80.132765
PAST SALE,,Condo/Co-op,12620 Vista Isles Dr #1017,Plantation,FL,33325,299000,2,2.0,,1065,,1991,,281,,,,,https://www.redfin.com/FL/Plantation/12620-Vista-Isles-Dr-33325/unit-1017/home/42061284,,,N,Y,26.129062,-80.3169829
PAST SALE,,Condo/Co-op,41 Westbury B #41,Deerfield Beach,FL,33442,125000,1,2.0,,703,,1977,,178,,,,,https://www.redfin.com/FL/Deerfield-Beach/41-Westbury-B-33442/unit-41/home/41461475,,,N,Y,26.317495,-80.131269
PAST SALE,,Condo/Co-op,100 S Birch Rd Unit 903F,Fort Lauderdale,FL,33316,893500,2,2.0,,1722,,2001,,519,,,,,https://www.redfin.com/FL/Fort-Lauderdale/100-S-Birch-Rd-33316/unit-903F/home/42007564,,,N,Y,26.1211668,-80.106486
PAST SALE,May-5-2023,Condo/Co-op,815 Middle River Dr #312,Fort Lauderdale,FL,33304,225000,1,1.0,MIDDLE RIVER VILLAS CONDO,450,,1979,,500,262,Sold,,,https://www.redfin.com/FL/Fort-Lauderdale/815-Middle-River-Dr-33304/unit-312/home/41786131,MARMLS,A11360790,N,Y,26.1356415,-80.1182134
PAST SALE,,Condo/Co-op,13101 SW 11th Ct Unit B104,Pembroke Pines,FL,33027,118000,2,2.0,,1192,,1988,,99,,,,,https://www.redfin.com/FL/Pembroke-Pines/13101-SW-11th-Ct-33027/unit-B104/home/41847686,,,N,Y,25.9979606,-80.3218761
PAST SALE,,Condo/Co-op,1200 SW 125th Ave Unit 105L,Pembroke Pines,FL,33027,228000,2,2.0,,1032,,1989,,221,,,,,https://www.redfin.com/FL/Pembroke-Pines/1200-SW-125th-Ave-33027/unit-105L/home/41846226,,,N,Y,25.997787,-80.3139552
PAST SALE,,Condo/Co-op,2731 Taft St #106,Hollywood,FL,33020,211000,1,1.0,,780,,1972,,271,,,,,https://www.redfin.com/FL/Hollywood/2731-Taft-St-33020/unit-106/home/41933637,,,N,Y,26.02736,-80.1635721
PAST SALE,June-21-2023,Condo/Co-op,407 NW 108th Ter Unit 17U,Pembroke Pines,FL,33026,240000,1,1.0,IMAGES AT PEMBROKE POINTE,685,,1990,,350,295,Sold,,,https://www.redfin.com/FL/Pembroke-Pines/407-NW-108th-Ter-33026/unit-17U/home/41894282,MARMLS,A11369486,N,Y,26.0120954,-80.2929748
PAST SALE,,Condo/Co-op,3020 NE 32nd Ave #710,Fort Lauderdale,FL,33308,350000,1,1.0,,790,,2002,,443,,,,,https://www.redfin.com/FL/Fort-Lauderdale/3020-NE-32nd-Ave-33308/unit-710/home/42024310,,,N,Y,26.1660836,-80.1030953
PAST SALE,,Condo/Co-op,3130 Holiday Springs Blvd #211,Margate,FL,33063,95000,1,2.0,,728,,1974,,130,,,,,https://www.redfin.com/FL/Margate/3130-Holiday-Springs-Blvd-33063/unit-211/home/41431156,,,N,Y,26.2645386,-80.2338452
PAST SALE,June-12-2023,Condo/Co-op,405 NW 108th Ter Unit 17L,Pembroke Pines,FL,33026,245000,1,1.0,IMAGES AT PEMBROKE POINTE,610,,1990,,402,295,Sold,,,https://www.redfin.com/FL/Pembroke-Pines/405-NW-108th-Ter-33026/unit-17L/home/41896776,MARMLS,A11369587,N,Y,26.0120053,-80.2928832
PAST SALE,June-8-2023,Condo/Co-op,2708 S University Dr Unit 11A,Davie,FL,33328,290000,3,3.0,UNIVERSITY VILLAGE EAST 2,1450,,1978,,200,572,Sold,,,https://www.redfin.com/FL/Davie/2708-S-University-Dr-33328/unit-11A/home/41773586,MARMLS,A11386418,N,Y,26.086811,-80.2497843
PAST SALE,June-9-2023,Condo/Co-op,455 S Pine Island Rd Unit 410C,Plantation,FL,33324,249200,2,2.0,NEWPORT CONDO,1172,,1972,,213,150,Sold,,,https://www.redfin.com/FL/Plantation/455-S-Pine-Island-Rd-33324/unit-410C/home/42022403,MARMLS,A11388058,N,Y,26.1148381,-80.2615063
PAST SALE,,Condo/Co-op,1629 Riverview Rd #716,Deerfield Beach,FL,33441,405000,2,2.0,,1233,,1974,,328,,,,,https://www.redfin.com/FL/Deerfield-Beach/1629-Riverview-Rd-33441/unit-716/home/41509461,,,N,Y,26.3155239,-80.0835677
PAST SALE,June-2-2023,Condo/Co-op,2270 NE 68th St #1908,Fort Lauderdale,FL,33308,175000,1,1.5,Imperial Point Colonnades,850,,1971,,206,413,Sold,,,https://www.redfin.com/FL/Fort-Lauderdale/2270-NE-68th-St-33308/unit-1908/home/41652829,Beaches MLS,F10379939,N,Y,26.210362,-80.1112406
PAST SALE,May-15-2023,Condo/Co-op,12800 SW 7th Ct Unit 202G,Pembroke Pines,FL,33027,169000,1,1.0,BUCKINGHAM AT CENTURY VIL,840,,1988,,201,488,Sold,,,https://www.redfin.com/FL/Pembroke-Pines/12800-SW-7th-Ct-33027/unit-G202/home/41854855,MARMLS,A11385916,N,Y,26.0027925,-80.3175281
PAST SALE,April-10-2023,Condo/Co-op,5100 SW 41st St #111,Pembroke Park,FL,33023,109335,2,1.0,CONDADO REAL CONDO,810,,1973,,135,650,Sold,,,https://www.redfin.com/FL/Pembroke-Park/5100-SW-41st-St-33023/unit-111/home/42017121,MARMLS,A11361553,N,Y,25.9734425,-80.1933478
PAST SALE,April-10-2023,Condo/Co-op,5100 SW 41st St #221,Pembroke Park,FL,33023,106635,2,2.0,CONDADO REAL CONDO,790,,1973,,135,650,Sold,,,https://www.redfin.com/FL/Pembroke-Park/5100-SW-41st-St-33023/unit-221/home/42010117,MARMLS,A11361588,N,Y,25.9734425,-80.1933478
PAST SALE,,Condo/Co-op,347 N New River Dr E #2701,Fort Lauderdale,FL,33301,1200000,3,2.0,,1615,,2004,,743,,,,,https://www.redfin.com/FL/Fort-Lauderdale/347-N-New-River-Dr-E-33301/unit-2701/home/42016222,,,N,Y,26.1176552,-80.1394628
PAST SALE,,Condo/Co-op,1650 NW 80th Ave #305,Margate,FL,33063,155000,2,2.0,,1000,,1978,,155,,,,,https://www.redfin.com/FL/Margate/1650-NW-80th-Ave-33063/unit-305/home/41438349,,,N,Y,26.2487737,-80.2305516
PAST SALE,,Condo/Co-op,107 Gardens Dr #203,Pompano Beach,FL,33069,225000,2,2.0,,880,,1984,,256,,,,,https://www.redfin.com/FL/Pompano-Beach/107-Gardens-Dr-33069/unit-203/home/41644834,,,N,Y,26.2115107,-80.1887181
PAST SALE,,Condo/Co-op,3306 Aruba Way Unit C1,Coconut Creek,FL,33066,200000,2,2.0,,1180,,1983,,169,,,,,https://www.redfin.com/FL/Coconut-Creek/3306-Aruba-Way-33066/unit-C1/home/41497027,,,N,Y,26.2509187,-80.1753439
PAST SALE,,Condo/Co-op,2821 Somerset Dr #408,Lauderdale Lakes,FL,33311,35000,1,1.0,,644,,1973,,54,,,,,https://www.redfin.com/FL/Lauderdale-Lakes/2821-Somerset-Dr-33311/unit-408/home/41681807,,,N,Y,26.1610668,-80.1900356
PAST SALE,,Condo/Co-op,7301 Granville Dr #101,Tamarac,FL,33321,265000,2,2.0,,1700,,1992,,156,,,,,https://www.redfin.com/FL/Tamarac/7301-Granville-Dr-33321/unit-101/home/41557345,,,N,Y,26.2189454,-80.2923315
PAST SALE,,Condo/Co-op,1200 NE 17th Ct #15,Fort Lauderdale,FL,33305,187000,1,1.0,,552,,1972,,339,,,,,https://www.redfin.com/FL/Fort-Lauderdale/1200-NE-17th-Ct-33305/unit-15/home/42070057,,,N,Y,26.149929,-80.1316709
PAST SALE,,Condo/Co-op,2907 Crestwood Ter #3104,Margate,FL,33063,387500,3,2.0,,1210,,2002,,320,,,,,https://www.redfin.com/FL/Margate/2907-Crestwood-Ter-33063/unit-3104/home/42004431,,,N,Y,26.2629235,-80.2237088
PAST SALE,,Condo/Co-op,7654 Ashmont Cir #114,Tamarac,FL,33321,165000,2,2.0,,827,,1985,,200,,,,,https://www.redfin.com/FL/Tamarac/7654-Ashmont-Cir-33321/unit-114/home/41552909,,,N,Y,26.2118507,-80.2897741
PAST SALE,,Condo/Co-op,1300 Saint Charles Pl #618,Pembroke Pines,FL,33026,220000,2,2.0,,1260,,1978,,175,,,,,https://www.redfin.com/FL/Pembroke-Pines/1300-Saint-Charles-Pl-33026/unit-618/home/41872246,,,N,Y,26.018182,-80.281967
PAST SALE,June-30-2023,Condo/Co-op,7863 Exeter Blvd #202,Tamarac,FL,33321,413000,3,2.0,Kings Point,2507,,1999,,165,600,Sold,,,https://www.redfin.com/FL/Tamarac/7863-Exeter-Blvd-E-33321/unit-202/home/41985460,Beaches MLS,F10381210,N,Y,26.2228124,-80.2890731
PAST SALE,,Condo/Co-op,521 N Riverside Dr #905,Pompano Beach,FL,33062,275000,1,1.0,,1000,,1973,,275,,,,,https://www.redfin.com/FL/Pompano-Beach/521-N-Riverside-Dr-33062/unit-905/home/41532093,,,N,Y,26.2404659,-80.0913358
PAST SALE,,Condo/Co-op,1300 Moffett St #114,Hallandale Beach,FL,33009,200000,1,2.0,,715,,1974,,280,,,,,https://www.redfin.com/FL/Hallandale-Beach/1300-Moffett-St-33009/unit-114/home/42071831,,,N,Y,25.9967727,-80.1356533
PAST SALE,June-12-2023,Condo/Co-op,10765 Cleary Blvd #203,Plantation,FL,33324,200000,1,1.0,LAKES OF JACARANDA CONDO,734,,1990,,272,276,Sold,,,https://www.redfin.com/FL/Plantation/10765-Cleary-Blvd-33324/unit-203/home/42029206,MARMLS,A11375943,N,Y,26.1342015,-80.2925379
PAST SALE,,Condo/Co-op,3180 S Ocean Dr #115,Hallandale Beach,FL,33009,299000,1,2.0,,845,,1972,,354,,,,,https://www.redfin.com/FL/Hallandale-Beach/3180-S-Ocean-Dr-33009/unit-115/home/41959267,,,N,Y,25.9756838,-80.1190859
PAST SALE,,Condo/Co-op,800 SE 20th Ave #203,Deerfield Beach,FL,33441,375000,2,2.0,,1326,,1973,,283,,,,,https://www.redfin.com/FL/Deerfield-Beach/800-SE-20th-Ave-33441/unit-203/home/41510018,,,N,Y,26.3074313,-80.0768028
PAST SALE,May-19-2023,Condo/Co-op,2030 S Ocean Dr #804,Hallandale Beach,FL,33009,430000,2,2.0,PARKER PLAZA CONDO ESTATE,1248,,1970,,345,1247,Sold,,,https://www.redfin.com/FL/Hallandale-Beach/2030-S-Ocean-Dr-33009/unit-804/home/41965947,MARMLS,A11373833,N,Y,25.9780358,-80.1193913
PAST SALE,,Condo/Co-op,810 SE 7th St #106,Deerfield Beach,FL,33441,181000,1,2.0,,820,,1971,,221,,,,,https://www.redfin.com/FL/Deerfield-Beach/810-SE-7th-St-33441/unit-106/home/41510301,,,N,Y,26.3072062,-80.0940535
PAST SALE,,Condo/Co-op,1020 Crystal Lake Dr #207,Deerfield Beach,FL,33064,184000,2,2.0,,924,,1969,,199,,,,,https://www.redfin.com/FL/Deerfield-Beach/1020-Crystal-Lake-Dr-33064/unit-207/home/42044389,,,N,Y,26.277157,-80.1376464
PAST SALE,,Condo/Co-op,613 S State Road 7 Unit 2A,Margate,FL,33068,165000,2,2.0,,1005,,1978,,164,,,,,https://www.redfin.com/FL/Margate/613-S-State-Road-7-33068/unit-2A/home/41541103,,,N,Y,26.223973,-80.20581
PAST SALE,,Condo/Co-op,7831 Colony Cir N #209,Tamarac,FL,33321,175000,2,2.0,,949,,1981,,184,,,,,https://www.redfin.com/FL/Tamarac/7831-Colony-Cir-N-33321/unit-209/home/41561521,,,N,Y,26.2056989,-80.2554368
PAST SALE,,Condo/Co-op,4500 N Federal Hwy Unit 212B,Lighthouse Point,FL,33064,196200,2,2.0,,984,,1970,,199,,,,,https://www.redfin.com/FL/Lighthouse-Point/4500-N-Federal-Hwy-33064/unit-212B/home/41518992,,,N,Y,26.2869112,-80.0948638
PAST SALE,,Condo/Co-op,4502 N Federal Hwy Unit 231D,Lighthouse Point,FL,33064,190000,2,2.0,,984,,1970,,193,,,,,https://www.redfin.com/FL/Lighthouse-Point/4502-N-Federal-Hwy-33064/unit-231D/home/41520212,,,N,Y,26.2870006,-80.0945815
PAST SALE,April-25-2023,Condo/Co-op,405 N Ocean Blvd #306,Pompano Beach,FL,33062,425000,2,2.0,Parliament House Condo,1200,,1970,,354,875,Sold,,,https://www.redfin.com/FL/Pompano-Beach/405-N-Ocean-Blvd-33062/unit-306/home/41528436,Beaches MLS,RX-10868283,N,Y,26.2385613,-80.0895466
PAST SALE,April-21-2023,Condo/Co-op,1731 SE 15th St #612,Fort Lauderdale,FL,33316,320000,1,1.0,CROMWELL WEST CONDO,704,,1973,,455,455,Sold,,,https://www.redfin.com/FL/Fort-Lauderdale/1731-SE-15th-St-33316/unit-612/home/41805045,MARMLS,A11348494,N,Y,26.1035975,-80.1238846
PAST SALE,June-1-2023,Condo/Co-op,2104 S Cypress Bend Dr #504,Pompano Beach,FL,33069,220000,2,2.0,Cypress Bend Community Iv,770,,1983,,286,298,Sold,,,https://www.redfin.com/FL/Pompano-Beach/2104-S-Cypress-Bend-Dr-33069/unit-504/home/41636501,Beaches MLS,F10373551,N,Y,26.2169023,-80.1479325
PAST SALE,June-23-2023,Condo/Co-op,671 S Hollybrook Dr #301,Pembroke Pines,FL,33025,118000,2,2.0,Hollybrook Golf & Tennis,1170,,1973,,101,,Sold,,,https://www.redfin.com/FL/Pembroke-Pines/671-S-Hollybrook-Dr-33025/unit-301/home/41885997,Beaches MLS,F10381604,N,Y,26.0037173,-80.2661589
PAST SALE,June-15-2023,Condo/Co-op,3233 NE 34th St #306,Fort Lauderdale,FL,33308,215000,1,1.0,Coral Ridge Towers,778,,1962,,276,374,Sold,,,https://www.redfin.com/FL/Fort-Lauderdale/3233-NE-34th-St-33308/unit-306/home/41710765,Beaches MLS,F10379671,N,Y,26.1704708,-80.1026813
PAST SALE,May-9-2023,Condo/Co-op,4211 NW 19th St #187,Lauderhill,FL,33313,122000,1,1.5,WOOD HUE III CONDO,812,,1978,,150,312,Sold,,,https://www.redfin.com/FL/Lauderhill/4211-NW-19th-St-33313/unit-187/home/41597662,MARMLS,A11354269,N,Y,26.1506998,-80.2057804
PAST SALE,April-24-2023,Condo/Co-op,2029 NW 46th Ave Unit E209,Lauderhill,FL,33313,120000,1,1.5,Newport At Lauderhill,800,,1973,,150,330,Sold,,,https://www.redfin.com/FL/Lauderhill/2029-NW-46th-Ave-33313/unit-E209/home/41599334,Beaches MLS,F10374046,N,Y,26.152391,-80.2106431
PAST SALE,June-2-2023,Condo/Co-op,3771 Environ Blvd #346,Lauderhill,FL,33319,97000,1,2.0,CONDOMINIUM 6 OF ENVIRON,780,,1974,,124,580,Sold,,,https://www.redfin.com/FL/Lauderhill/3771-Environ-Blvd-33319/unit-346/home/41583121,MARMLS,A11378547,N,Y,26.1722586,-80.24457
PAST SALE,May-8-2023,Condo/Co-op,3300 NE 36th St #617,Fort Lauderdale,FL,33308,215000,1,1.0,Coral Ridge Towers East,800,,1965,,269,655,Sold,,,https://www.redfin.com/FL/Fort-Lauderdale/3300-NE-36th-St-33308/unit-617/home/41712601,Beaches MLS,F10364219,N,Y,26.1721334,-80.1006866
PAST SALE,May-16-2023,Condo/Co-op,77 S Birch Rd Unit 6B,Fort Lauderdale,FL,33316,1350000,2,2.5,Portofino,1435,,1982,,941,1258,Sold,,,https://www.redfin.com/FL/Fort-Lauderdale/77-S-Birch-Rd-33316/unit-6B/home/41801112,Beaches MLS,F10380074,N,Y,26.1221189,-80.1066048
PAST SALE,May-22-2023,Condo/Co-op,2000 S Ocean Ln #7,Fort Lauderdale,FL,33316,920000,2,2.0,Orleans Chateau & Villas,1100,,1954,,836,1112,Sold,,,https://www.redfin.com/FL/Fort-Lauderdale/2000-S-Ocean-Ln-33316/unit-7/home/41804028,Beaches MLS,F10374625,N,Y,26.0973426,-80.1072015
PAST SALE,June-15-2023,Condo/Co-op,4050 NE 12 Ter Unit 11-1,Oakland Park,FL,33334,185000,2,1.5,Azul At Kimberly Lake,,,1968,,,320,Sold,,,https://www.redfin.com/FL/Oakland-Park/4050-NE-12th-Ter-33334/unit-11-1/home/42029239,Beaches MLS,F10382251,N,Y,26.1778689,-80.1301836
PAST SALE,June-23-2023,Condo/Co-op,3274 Coral Ridge Dr #3274,Coral Springs,FL,33065,192000,2,2.0,Victoria Square Condomini,825,,1984,,233,395,Sold,,,https://www.redfin.com/FL/Coral-Springs/3274-Coral-Ridge-Dr-33065/unit-3274/home/41422547,Beaches MLS,F10381783,N,Y,26.2706678,-80.2829209
PAST SALE,April-18-2023,Condo/Co-op,1428 SE 4th Ave #254,Deerfield Beach,FL,33441,205000,2,2.0,DEERFIELD PINES CONDO,1000,,1973,,205,499,Sold,,,https://www.redfin.com/FL/Deerfield-Beach/1428-SE-4th-Ave-33441/unit-254/home/41515030,MARMLS,A11358637,N,Y,26.2991672,-80.0965178
PAST SALE,May-19-2023,Condo/Co-op,107 Royal Park Dr Unit 1E,Oakland Park,FL,33309,180000,1,1.5,Royal Park Condominiums,750,,1974,,240,463,Sold,,,https://www.redfin.com/FL/Oakland-Park/107-Royal-Park-Dr-33309/unit-1E/home/41668756,Beaches MLS,F10372822,N,Y,26.1693561,-80.1631038
PAST SALE,April-13-2023,Condo/Co-op,1200 SW 124th Ter Unit 105O,Pembroke Pines,FL,33027,170000,2,2.0,CAMBRIDGE AT CENTURY VILL,1100,,1989,,155,332,Sold,,,https://www.redfin.com/FL/Pembroke-Pines/1200-SW-124th-Ter-33027/unit-105O/home/41859265,MARMLS,A11342817,N,Y,25.9979072,-80.3127345
PAST SALE,May-5-2023,Condo/Co-op,1350 River Reach Dr #509,Fort Lauderdale,FL,33315,525000,2,2.0,River Reach,1250,,1972,,420,843,Sold,,,https://www.redfin.com/FL/Fort-Lauderdale/1350-River-Reach-Dr-33315/unit-509/home/41796900,Beaches MLS,F10374187,N,Y,26.1089969,-80.1586012
PAST SALE,April-20-2023,Condo/Co-op,2881 NW 47th Ter #401,Lauderdale Lakes,FL,33313,120000,2,2.0,Lauderdale Oaks 6 Condo,1021,,1970,,118,297,Sold,,,https://www.redfin.com/FL/Lauderdale-Lakes/2881-NW-47th-Ter-33313/unit-401/home/41597230,Beaches MLS,F10370557,N,Y,26.1622319,-80.2128831
PAST SALE,April-27-2023,Condo/Co-op,2900 NE 30th St Unit L2,Fort Lauderdale,FL,33306,329000,1,1.0,Lauderdale Tower,730,,1964,,451,,Sold,,,https://www.redfin.com/FL/Fort-Lauderdale/2900-NE-30th-St-33306/unit-2L/home/42042433,Beaches MLS,F10372977,N,Y,26.1660403,-80.1049288
PAST SALE,June-26-2023,Condo/Co-op,4140 NW 44th Ave #112,Lauderdale Lakes,FL,33319,131000,2,2.0,RUBY CONDO,1102,,1972,,119,348,Sold,,,https://www.redfin.com/FL/Lauderdale-Lakes/4140-NW-44th-Ave-33319/unit-112/home/41593071,MARMLS,A11370017,N,Y,26.1770034,-80.2072776
PAST SALE,July-3-2023,Condo/Co-op,2261 NE 67th St #1831,Fort Lauderdale,FL,33308,185000,2,1.5,Imperial Point Colonnades,950,,1971,,195,466,Sold,,,https://www.redfin.com/FL/Fort-Lauderdale/2261-NE-67th-St-33308/unit-1831/home/41653827,Beaches MLS,F10381745,N,Y,26.2099809,-80.1109734
PAST SALE,June-20-2023,Condo/Co-op,341 SW 13th Ter #341,Fort Lauderdale,FL,33312,410000,2,2.5,VILLAGE AT SAILBOAT BEND,1781,,2005,,230,1130,Sold,,,https://www.redfin.com/FL/Fort-Lauderdale/341-Olssen-Ave-33312/unit-341/home/185397721,MARMLS,A11386332,N,Y,26.1180311,-80.1594438
PAST SALE,May-15-2023,Condo/Co-op,3535 S Ocean Dr #605,Hollywood,FL,33019,1650000,3,3.5,DIPLOMAT OCEANFRONT RESID,2623,,2005,,629,2624,Sold,,,https://www.redfin.com/FL/Hollywood/3535-S-Ocean-Dr-33019/unit-605/home/42071800,MARMLS,A11382149,N,Y,25.9925419,-80.1176463
PAST SALE,June-16-2023,Condo/Co-op,401 SW 158th Ter #104,Pembroke Pines,FL,33027,275000,2,2.0,LAS VERDES CONDO,1158,,1991,,237,689,Sold,,,https://www.redfin.com/FL/Pembroke-Pines/401-SW-158th-Ter-33027/unit-104/home/41854644,MARMLS,A11387582,N,Y,26.0048632,-80.3574247
PAST SALE,June-22-2023,Condo/Co-op,3005 NW 68 St Unit 9e,Fort Lauderdale,FL,33309,250000,2,1.0,No.1 Palm-aire Village Condo,1100,,1972,,227,485,Sold,,,https://www.redfin.com/FL/Fort-Lauderdale/3005-NW-68th-St-33309/unit-9E/home/41649724,Beaches MLS,RX-10888557,N,Y,26.2078339,-80.187284
PAST SALE,April-13-2023,Condo/Co-op,4310 NW 12th Ct #201,Lauderhill,FL,33313,84000,1,1.0,PARK SOUTH ELEVEN INC CON,730,,1970,,115,391,Sold,,,https://www.redfin.com/FL/Lauderhill/4310-NW-12th-Ct-33313/unit-201/home/41631165,MARMLS,A11333531,N,Y,26.1413791,-80.2071897
PAST SALE,June-29-2023,Condo/Co-op,1625 SE 10th Ave #404,Fort Lauderdale,FL,33316,299000,2,2.0,Runaway Bay,1121,,1975,,267,624,Sold,,,https://www.redfin.com/FL/Fort-Lauderdale/1625-SE-10th-Ave-33316/unit-404/home/41803376,Beaches MLS,F10383113,N,Y,26.1015105,-80.1331354
PAST SALE,June-27-2023,Condo/Co-op,2115 NE 42nd Ct Unit 204N,Lighthouse Point,FL,33064,127000,1,1.0,Venetian Park Gardens,700,,1965,,181,117,Sold,,,https://www.redfin.com/FL/Lighthouse-Point/2115-NE-42nd-Ct-33064/unit-204N/home/41519418,Beaches MLS,F10382510,N,Y,26.2846085,-80.0945651
PAST SALE,April-12-2023,Condo/Co-op,9301 Lime Bay Blvd #102,Tamarac,FL,33321,75000,1,1.5,LIME BAY CONDOMINIUM 7,750,,1974,,100,393,Sold,,,https://www.redfin.com/FL/Tamarac/9301-Lime-Bay-Blvd-33321/unit-102/home/41555888,MARMLS,A11353134,N,Y,26.2078407,-80.2762308
PAST SALE,May-4-2023,Condo/Co-op,1967 S Ocean Blvd Unit 418C,Pompano Beach,FL,33062,225000,1,1.0,Village By The Sea,710,,1970,,317,384,Sold,,,https://www.redfin.com/FL/Pompano-Beach/1967-S-Ocean-Blvd-33062/unit-418-C/home/41701457,Beaches MLS,F10374037,N,Y,26.2060674,-80.0966497
PAST SALE,April-28-2023,Condo/Co-op,8951 N New River Canal Rd Unit 3A,Plantation,FL,33324,175000,1,1.5,JACARANDA VILLAS NO 2 CON,910,,1974,,192,306,Sold,,,https://www.redfin.com/FL/Plantation/8951-N-New-River-Canal-Rd-33324/unit-3A/home/41753943,MARMLS,A11353743,N,Y,26.1053422,-80.2695693
PAST SALE,April-24-2023,Condo/Co-op,4800 NW 35th St #608,Lauderdale Lakes,FL,33319,120000,1,1.0,KARISA GARDENS CONDO,684,,1973,,175,309,Sold,,,https://www.redfin.com/FL/Lauderdale-Lakes/4800-NW-35th-St-33319/unit-608/home/41595327,MARMLS,A11333841,N,Y,26.1702067,-80.214245
PAST SALE,May-8-2023,Condo/Co-op,4101 NW 26th St #167,Lauderhill,FL,33313,105000,2,1.5,Gardens At Lauderhill,812,,1973,,129,337,Sold,,,https://www.redfin.com/FL/Lauderhill/4101-NW-26th-St-33313/unit-167/home/41598764,Beaches MLS,F10376520,N,Y,26.1595207,-80.2046139
PAST SALE,May-12-2023,Condo/Co-op,435 Bayshore Dr #301,Fort Lauderdale,FL,33304,3200000,3,3.5,Adagio,2383,,2019,,1343,2895,Sold,,,https://www.redfin.com/FL/Fort-Lauderdale/435-Bayshore-Dr-33304/unit-301/home/148361726,Beaches MLS,F10372608,N,Y,26.1287255,-80.1080044
PAST SALE,June-12-2023,Condo/Co-op,1200 Holiday Dr #801,Fort Lauderdale,FL,33316,2740000,3,3.5,Coconut Grove Residences,3032,,2008,,904,3198,Sold,,,https://www.redfin.com/FL/Fort-Lauderdale/1200-Holiday-Dr-33316/unit-801/home/42077387,Beaches MLS,F10376012,N,Y,26.1078261,-80.1054585
PAST SALE,May-1-2023,Condo/Co-op,310 Harrison St Unit 103 E,Hollywood,FL,33019,325000,1,1.0,Windwood Seas Condo,424,,1990,,767,469,Sold,,,https://www.redfin.com/FL/Hollywood/310-Harrison-St-33019/unit-103E/home/41935608,Beaches MLS,F10374634,N,Y,26.0108795,-80.1161412
PAST SALE,April-28-2023,Condo/Co-op,1900 Sabal Palm Dr #203,Davie,FL,33324,258500,2,2.0,CONDO 10 OF SABAL PALM CO,976,,1981,,265,507,Sold,,,https://www.redfin.com/FL/Davie/1900-Sabal-Palm-Dr-33324/unit-203/home/41768335,MARMLS,A11358363,N,Y,26.0952322,-80.2745875
PAST SALE,May-25-2023,Condo/Co-op,9580 Weldon Cir Unit K103,Tamarac,FL,33321,190000,2,2.0,WELDON CONDOMINIUM K,1080,,1997,,176,517,Sold,,,https://www.redfin.com/FL/Tamarac/9580-Weldon-Cir-33321/unit-K103/home/41550074,MARMLS,A11369948,N,Y,26.2198772,-80.2795644
PAST SALE,April-19-2023,Condo/Co-op,303 Gardens Dr #103,Pompano Beach,FL,33069,177500,1,1.0,Gardens North,640,,1984,,277,317,Sold,,,https://www.redfin.com/FL/Pompano-Beach/303-Gardens-Dr-33069/unit-103/home/41645373,Beaches MLS,F10372922,N,Y,26.2099323,-80.192788
PAST SALE,April-24-2023,Condo/Co-op,8028 NW 15th Mnr #8028,Plantation,FL,33322,319900,2,2.0,Parc Village,1122,,1983,,285,357,Sold,,,https://www.redfin.com/FL/Plantation/8028-NW-15th-Mnr-33322/unit-8028/home/104413384,Beaches MLS,F10370953,N,Y,26.145025,-80.260291
PAST SALE,June-5-2023,Condo/Co-op,235 Tilford L #235,Deerfield Beach,FL,33442,115000,1,1.0,Tilford L Condo,585,,1978,,197,419,Sold,,,https://www.redfin.com/FL/Deerfield-Beach/235-Tilford-L-33442/unit-235/home/104337831,Beaches MLS,RX-10894573,N,Y,26.310341,-80.146985
PAST SALE,June-15-2023,Condo/Co-op,4301 SW 160th Ave #204,Miramar,FL,33027,380000,3,2.0,Courtyards At Nautica,1340,,2002,,284,484,Sold,,,https://www.redfin.com/FL/Miramar/4301-SW-160th-Ave-33027/unit-204/home/42013976,Beaches MLS,F10377159,N,Y,25.9704558,-80.3590588
PAST SALE,May-30-2023,Condo/Co-op,7200 NW 4th Pl #104,Margate,FL,33063,112500,1,1.0,ORIOLE GARDENS 3 CONDO,670,,1974,,168,623,Sold,,,https://www.redfin.com/FL/Margate/7200-NW-4th-Pl-33063/unit-104/home/41450837,MARMLS,A11378886,N,Y,26.236159,-80.222364
PAST SALE,June-12-2023,Condo/Co-op,1401 S Ocean Blvd #1005,Pompano Beach,FL,33062,650000,3,2.0,Emerald Tower,1572,,1972,,413,834,Sold,,,https://www.redfin.com/FL/Pompano-Beach/1401-S-Ocean-Blvd-33062/unit-1005/home/41700419,Beaches MLS,F10364115,N,Y,26.2158874,-80.0929478
PAST SALE,April-12-2023,Condo/Co-op,2705 NW 104th Ave #405,Sunrise,FL,33322,235000,2,2.0,Sunrise Lakes,1370,,1987,,172,558,Sold,,,https://www.redfin.com/FL/Sunrise/2705-NW-104th-Ave-33322/unit-405/home/41617040,Beaches MLS,F10370636,N,Y,26.1593597,-80.2888808
PAST SALE,May-1-2023,Condo/Co-op,3204 Coral Lake Ln #3204,Coral Springs,FL,33065,187000,1,1.0,CRESCENT COVE CONDO,720,,1988,,260,240,Sold,,,https://www.redfin.com/FL/Coral-Springs/3204-Coral-Lake-Dr-33065/unit-3204/home/104332928,MARMLS,A11363908,N,Y,26.2706351,-80.2374608
PAST SALE,May-18-2023,Condo/Co-op,800 SE 20th Ave #510,Deerfield Beach,FL,33441,602000,2,2.0,Ocean Harbor Condo,1244,,1973,,484,916,Sold,,,https://www.redfin.com/FL/Deerfield-Beach/800-SE-20th-Ave-33441/unit-510/home/41511028,Beaches MLS,RX-10881122,N,Y,26.3074313,-80.0768028
PAST SALE,April-24-2023,Condo/Co-op,958 Coral Club Dr #958,Coral Springs,FL,33071,249000,2,2.0,NAPOLI GARDENS AT CORAL S,1074,,1988,,232,439,Sold,,,https://www.redfin.com/FL/Coral-Springs/958-Coral-Club-Dr-33071/unit-958/home/42033939,MARMLS,A11359480,N,Y,26.2438784,-80.267607
PAST SALE,June-27-2023,Condo/Co-op,2113 Renaissance Blvd #201,Miramar,FL,33025,230000,1,1.0,EL-AD ENCLAVE AT MIRAMAR,690,,2000,,333,311,Sold,,,https://www.redfin.com/FL/Miramar/2113-Renaissance-Blvd-33025/unit-201/home/42034000,MARMLS,A11389358,N,Y,25.9890052,-80.3084708
PAST SALE,May-22-2023,Condo/Co-op,1000 S Ocean Blvd Unit 16K,Pompano Beach,FL,33062,475000,2,2.0,Pompano Atlantis,1400,,1973,,339,856,Sold,,,https://www.redfin.com/FL/Pompano-Beach/1000-S-Ocean-Blvd-33062/unit-16K/home/41697920,Beaches MLS,F10374521,N,Y,26.2253168,-80.0904092
PAST SALE,June-28-2023,Condo/Co-op,2946 S University Dr #7201,Davie,FL,33328,280000,2,2.0,SUNDANCE AT DAVIE CONDO,1100,,1989,,255,650,Sold,,,https://www.redfin.com/FL/Davie/2946-S-University-Dr-33328/unit-7201/home/42048042,MARMLS,A11402103,N,Y,26.0844124,-80.2496235
PAST SALE,June-5-2023,Condo/Co-op,320 NW 69th Ave #149,Plantation,FL,33317,265900,2,2.0,FRENCH QUARTER CONDOMINIUM,1092,,1972,,243,476,Sold,,,https://www.redfin.com/FL/Plantation/320-NW-69th-Ave-33317/unit-149/home/41744769,MARMLS,A11374633,N,Y,26.1259927,-80.238884
PAST SALE,July-3-2023,Condo/Co-op,2440 SW 81st Ave #302,Davie,FL,33324,225000,2,2.0,ARROWHEAD CONDO NO VI,949,,1972,,237,522,Sold,,,https://www.redfin.com/FL/Davie/2440-SW-81st-Ave-33324/unit-302/home/41771500,MARMLS,A11373933,N,Y,26.0896082,-80.2552326
PAST SALE,June-22-2023,Condo/Co-op,8135 Sunrise Lakes Blvd #101,Sunrise,FL,33322,153000,2,2.0,SUNRISE LAKES 37 CONDO,850,,1974,,180,439,Sold,,,https://www.redfin.com/FL/Sunrise/8135-Sunrise-Lakes-Blvd-33322/unit-101/home/41611612,MARMLS,A11394464,N,Y,26.161884,-80.2607472
PAST SALE,June-23-2023,Condo/Co-op,8300 NW 24th St #8300,Coral Springs,FL,33065,265000,2,2.0,Coral Springs Estates Iv,1140,,1992,,232,477,Sold,,,https://www.redfin.com/FL/Coral-Springs/8300-NW-24th-St-33065/unit-8300/home/185372291,Beaches MLS,F10380087,N,Y,26.258765,-80.236894
PAST SALE,May-10-2023,Condo/Co-op,2110 NE 42nd St Unit 4B,Lighthouse Point,FL,33064,160000,1,1.0,Ashley Arms,750,,1972,,213,441,Sold,,,https://www.redfin.com/FL/Lighthouse-Point/2110-NE-42nd-St-33064/unit-4B/home/41518606,Beaches MLS,F10372099,N,Y,26.282346,-80.0944786
PAST SALE,May-9-2023,Condo/Co-op,8253 SW 25th Ct #104,Miramar,FL,33025,375000,3,2.5,TUSCANY NO 1 CONDO,1306,,2005,,287,346,Sold,,,https://www.redfin.com/FL/Miramar/8253-SW-25th-Ct-33025/unit-104/home/42045698,MARMLS,A11356130,N,Y,25.986889,-80.2512628
PAST SALE,April-27-2023,Condo/Co-op,229 Durham E #229,Deerfield Beach,FL,33442,141000,2,1.5,Century Village,820,,1974,,172,413,Sold,,,https://www.redfin.com/FL/Deerfield-Beach/229-Durham-E-33442/unit-229/home/181095234,Beaches MLS,F10371754,N,Y,26.3170654,-80.1348672
PAST SALE,,Condo/Co-op,2107 SE 10th Ave #811,Fort Lauderdale,FL,33316,265000,1,1.0,,878,,2002,,302,,,,,https://www.redfin.com/FL/Fort-Lauderdale/2107-SE-10th-Ave-33316/unit-811/home/42059634,,,N,Y,26.0954241,-80.1339172
PAST SALE,June-15-2023,Condo/Co-op,2115 NE 42nd Ct #207,Lighthouse Point,FL,33064,130000,1,1.0,Venetian Park Gardens Con,700,,1965,,186,281,Sold,,,https://www.redfin.com/FL/Lighthouse-Point/2115-NE-42nd-Ct-33064/unit-207/home/185281031,Beaches MLS,F10377949,N,Y,26.2846085,-80.0945651
PAST SALE,May-19-2023,Condo/Co-op,1715 Wiley St #16,Hollywood,FL,33020,165000,1,1.0,WILEY CONDO APTS INC,675,,1966,,244,217,Sold,,,https://www.redfin.com/FL/Hollywood/1715-Wiley-St-33020/unit-16/home/41950040,MARMLS,A11365483,N,Y,25.9998617,-80.1412433
PAST SALE,June-5-2023,Condo/Co-op,11229 W Atlantic Blvd #205,Coral Springs,FL,33071,256000,2,2.0,ATLANTIC SPRINGS CONDO,1114,,1991,,230,412,Sold,,,https://www.redfin.com/FL/Coral-Springs/11229-W-Atlantic-Blvd-33071/unit-205/home/42060390,MARMLS,A11380460,N,Y,26.2415682,-80.2757948
PAST SALE,June-6-2023,Condo/Co-op,110 Jacaranda Country Club Dr #208,Plantation,FL,33324,323900,2,2.5,Courtyards At Jacaranda,1205,,2003,,269,350,Sold,,,https://www.redfin.com/FL/Plantation/110-Jacaranda-Country-Club-Dr-33324/unit-208/home/42010795,Beaches MLS,F10379193,N,Y,26.1202448,-80.2699831
PAST SALE,May-23-2023,Condo/Co-op,12755 SW 16th Ct Unit 203B,Pembroke Pines,FL,33027,208000,2,1.5,GARFIELD AT CENTURY VILLA,920,,1994,,226,1044,Sold,,,https://www.redfin.com/FL/Pembroke-Pines/12755-SW-16th-Ct-33027/unit-B203/home/41847100,MARMLS,A11365606,N,Y,25.9937701,-80.3170177
PAST SALE,May-26-2023,Condo/Co-op,3200 Port Royale Dr N #207,Fort Lauderdale,FL,33308,415000,2,2.0,TOWER PORTSMOUTH AT PORT,1351,,1981,,307,990,Sold,,,https://www.redfin.com/FL/Fort-Lauderdale/3200-Port-Royale-Dr-N-33308/unit-207/home/41702093,MARMLS,A11378109,N,Y,26.2107393,-80.1016231
PAST SALE,April-28-2023,Condo/Co-op,200 SW 117th Ter #10304,Pembroke Pines,FL,33025,339000,2,2.0,MARQUESA CONDO,1130,,1999,,300,333,Sold,,,https://www.redfin.com/FL/Pembroke-Pines/200-SW-117th-Ter-33025/unit-10304/home/42049849,MARMLS,A11366614,N,Y,26.0053145,-80.3055543
PAST SALE,May-30-2023,Condo/Co-op,455 Paradise Isle Blvd #304,Hallandale,FL,33009,320000,2,2.0,Paradise Isle,1050,,1965,,305,443,Sold,,,https://www.redfin.com/FL/Hallandale-Beach/455-Paradise-Isle-Blvd-33009/unit-304/home/41970144,Beaches MLS,F10375013,N,Y,25.9811684,-80.129557
PAST SALE,April-14-2023,Condo/Co-op,381 S Hollybrook Dr #107,Pembroke Pines,FL,33025,210000,2,2.0,HOLLYBROOK GOLF,1170,,1974,,179,904,Sold,,,https://www.redfin.com/FL/Pembroke-Pines/381-S-Hollybrook-Dr-33025/unit-107/home/41894714,MARMLS,A11350381,N,Y,26.0052474,-80.267283
PAST SALE,May-12-2023,Condo/Co-op,4043 Coral Springs Dr #9,Coral Springs,FL,33065,219900,2,2.0,HAYLOFTS OF CORAL SPRINGS,1213,,1982,,181,1310,Sold,,,https://www.redfin.com/FL/Coral-Springs/4043-Coral-Springs-Dr-33065/unit-9/home/41418234,MARMLS,A11361547,N,Y,26.2801769,-80.265984
PAST SALE,April-28-2023,Condo/Co-op,360 NW 69th Ave #101,Plantation,FL,33317,210000,2,1.0,FRENCH QUARTER CONDOMINIU,903,,1971,,233,468,Sold,,,https://www.redfin.com/FL/Plantation/360-NW-69th-Ave-33317/unit-101/home/41748130,MARMLS,A11345968,N,Y,26.1256075,-80.2396028
PAST SALE,May-10-2023,Condo/Co-op,2769 S Oakland Forest Dr #202,Oakland Park,FL,33309,230000,1,1.0,LAKES OF OAKLAND FOREST C,700,,1984,,329,393,Sold,,,https://www.redfin.com/FL/Oakland-Park/2769-S-Oakland-Forest-Dr-33309/unit-202/home/41662856,MARMLS,A11368281,N,Y,26.168404,-80.1808132
PAST SALE,May-31-2023,Condo/Co-op,522 Tilford X #522,Deerfield Beach,FL,33442,89000,1,1.5,Century Village East,708,,1981,,126,510,Sold,,,https://www.redfin.com/FL/Deerfield-Beach/522-Tilford-X-33442/unit-522/home/185188658,Beaches MLS,F10377010,N,Y,26.3099231,-80.1507253
PAST SALE,April-19-2023,Condo/Co-op,4500 N Federal Hwy #212,Lighthouse Point,FL,33064,196200,2,2.0,Lighthouse Point Condo,984,,1970,,199,452,Sold,,,https://www.redfin.com/FL/Lighthouse-Point/4500-N-Federal-Hwy-33064/unit-212/home/184744333,Beaches MLS,F10372638,N,Y,26.2869112,-80.0948638
PAST SALE,May-26-2023,Condo/Co-op,428 Lakeview Dr #102,Weston,FL,33326,320000,2,2.0,WESTON LAKES 21 INC CONDO,1256,,1982,,255,581,Sold,,,https://www.redfin.com/FL/Weston/428-Lakeview-Dr-33326/unit-102/home/41724379,MARMLS,A11370706,N,Y,26.1198687,-80.383809
PAST SALE,April-15-2023,Condo/Co-op,8560 N Sherman Cir #208,Miramar,FL,33025,216000,2,2.0,LAKESHORE AT UNIVERSITY P,832,,1982,,260,373,Sold,,,https://www.redfin.com/FL/Miramar/8560-N-Sherman-Cir-33025/unit-208/home/41896761,MARMLS,A11327726,N,Y,25.9912059,-80.2583985
PAST SALE,May-2-2023,Condo/Co-op,3700 Galt Ocean #1408,Fort Lauderdale,FL,33308,300000,1,1.5,Royal Ambassador,800,,1967,,375,524,Sold,,,https://www.redfin.com/FL/Fort-Lauderdale/3700-Galt-Ocean-Dr-33308/unit-1408/home/41710673,Beaches MLS,F10370990,N,Y,26.1734275,-80.0978815
PAST SALE,April-13-2023,Condo/Co-op,7401 NW 16th St #502,Plantation,FL,33313,207000,2,2.0,PLANTATION FOREST CONDO,970,,1993,,213,509,Sold,,,https://www.redfin.com/FL/Plantation/7401-NW-16th-St-33313/unit-502/home/41625146,MARMLS,A11369373,N,Y,26.145017,-80.2476791
PAST SALE,April-25-2023,Condo/Co-op,1055 Cambridge C #1055,Deerfield Beach,FL,33442,150000,1,1.5,Century Village East,700,,1978,,214,501,Sold,,,https://www.redfin.com/FL/Deerfield-Beach/1055-Cambridge-C-33442/unit-1055/home/184579258,Beaches MLS,F10369899,N,Y,26.3139098,-80.1328914
PAST SALE,June-2-2023,Condo/Co-op,4125 NW 88th Ave #204,Coral Springs,FL,33065,127000,1,1.5,Ramblewood East,680,,1974,,187,195,Sold,,,https://www.redfin.com/FL/Coral-Springs/4125-NW-88th-Ave-33065/unit-204/home/41418796,Beaches MLS,F10378160,N,Y,26.2808853,-80.2456033
PAST SALE,June-21-2023,Condo/Co-op,1000 Parkview Dr #418,Hallandale Beach,FL,33009,310000,2,2.0,OCEANVIEW PARK CONDO,1130,,1976,,274,664,Sold,,,https://www.redfin.com/FL/Hallandale-Beach/1000-Parkview-Dr-33009/unit-418/home/41957986,MARMLS,A11390853,N,Y,25.9966452,-80.1208309
PAST SALE,April-28-2023,Condo/Co-op,3251 Holiday Springs Blvd #203,Margate,FL,33063,85000,1,1.5,HOLIDAY SPRINGS VILLAGE 4,867,,1976,,98,407,Sold,,,https://www.redfin.com/FL/Margate/3251-Holiday-Springs-Blvd-33063/unit-203/home/41435357,MARMLS,A11363264,N,Y,26.2691716,-80.2309837
PAST SALE,April-17-2023,Condo/Co-op,3233 Coral Ridge Dr #3233,Coral Springs,FL,33065,139900,3,2.0,CORAL SPRINGS VILLAS COND,966,,1981,,145,350,Sold,,,https://www.redfin.com/FL/Coral-Springs/3233-Coral-Ridge-Dr-33065/unit-3233/home/184115710,MARMLS,A11332800,N,Y,26.270284,-80.281747
PAST SALE,May-10-2023,Condo/Co-op,7563 Fairfax Dr #304,Tamarac,FL,33321,245000,2,2.0,FAIRFAX CONDOMINIUM H,1500,,1990,,163,602,Sold,,,https://www.redfin.com/FL/Tamarac/7563-Fairfax-Dr-33321/unit-304/home/41554086,MARMLS,A11351817,N,Y,26.217942,-80.292472
PAST SALE,May-30-2023,Condo/Co-op,620 NE 12th Ave #602,Hallandale,FL,33009,255000,2,2.0,Meadowbrook Towers Condof,1092,,1969,,234,487,Sold,,,https://www.redfin.com/FL/Hallandale-Beach/620-NE-12th-Ave-33009/unit-602/home/41951381,Beaches MLS,F10377997,N,Y,25.9928785,-80.1360442
PAST SALE,April-27-2023,Condo/Co-op,4528 Carambola Cir #27269,Coconut Creek,FL,33066,249777,2,2.0,Baywood Village 3,978,,1988,,255,433,Sold,,,https://www.redfin.com/FL/Coconut-Creek/4528-Carambola-Cir-S-33066/unit-27269/home/41484777,Beaches MLS,F10365085,N,Y,26.267995,-80.179385
PAST SALE,April-12-2023,Condo/Co-op,220 SW 9th Ave #205,Hallandale Beach,FL,33009,150000,1,1.5,PARKSIDE TOWERS CONDO,625,,1963,,240,265,Sold,,,https://www.redfin.com/FL/Hallandale-Beach/220-SW-9th-Ave-33009/unit-205/home/41999624,MARMLS,A11352851,N,Y,25.9830495,-80.1611332
PAST SALE,April-12-2023,Condo/Co-op,1100 Saint Charles Pl #410,Pembroke Pines,FL,33026,235000,3,2.0,Park Place,1475,,1979,,159,,Sold,,,https://www.redfin.com/FL/Pembroke-Pines/1100-Saint-Charles-Pl-33026/unit-410/home/41868909,Beaches MLS,F10362812,N,Y,26.0167652,-80.283027
PAST SALE,June-19-2023,Condo/Co-op,433 Durham O,Deerfield Beach,FL,33442,138000,2,1.5,Durham O Condo,820,,1974,,168,435,Sold,,,https://www.redfin.com/FL/Deerfield-Beach/433-Durham-O-33442/home/41462793,Beaches MLS,RX-10889800,N,Y,26.3159179,-80.1380172
PAST SALE,June-19-2023,Condo/Co-op,1951 NE 39th St #120,Lighthouse Point,FL,33064,200000,2,2.0,Lighthouse Pt Gardens N,900,,1966,,222,384,Sold,,,https://www.redfin.com/FL/Lighthouse-Point/1951-NE-39th-St-33064/unit-120/home/41520001,Beaches MLS,F10379084,N,Y,26.2805666,-80.0955251
PAST SALE,May-30-2023,Condo/Co-op,2601 NE 14th St Cswy #232,Pompano Beach,FL,33062,170000,2,2.0,Garden Aire Village,912,,1968,,186,450,Sold,,,https://www.redfin.com/FL/Pompano-Beach/2601-NE-14th-Street-Cswy-33062/unit-232/home/41520147,Beaches MLS,F10373253,N,Y,26.2504766,-80.0972655
PAST SALE,May-30-2023,Condo/Co-op,2761 Taft St #201,Hollywood,FL,33020,210000,1,1.5,Watergate,780,,1973,,269,,Sold,,,https://www.redfin.com/FL/Hollywood/2761-Taft-St-33020/unit-201/home/41932580,Beaches MLS,F10376692,N,Y,26.0264495,-80.1645618
PAST SALE,May-5-2023,Condo/Co-op,2208 SW 81st Ave #2208,Miramar,FL,33025,255000,2,2.0,Verano At Miramar,1084,,1986,,235,251,Sold,,,https://www.redfin.com/FL/Miramar/2208-SW-81st-Ave-33025/unit-2208/home/42053445,Beaches MLS,F10375540,N,Y,25.990484,-80.249507
PAST SALE,May-16-2023,Condo/Co-op,7500 NW 17th St #309,Plantation,FL,33313,191000,2,2.0,OMEGA CONDO NO 8,952,,1978,,201,423,Sold,,,https://www.redfin.com/FL/Plantation/7500-NW-17th-St-33313/unit-309/home/41622795,MARMLS,A11371048,N,Y,26.1461606,-80.2505829
PAST SALE,May-12-2023,Condo/Co-op,10022 Winding Lake Rd #203,Sunrise,FL,33351,279785,3,2.0,Winding Lakes,916,,1985,,305,280,Sold,,,https://www.redfin.com/FL/Sunrise/10022-Winding-Lake-Rd-33351/unit-203/home/41580554,Beaches MLS,F10373549,N,Y,26.1733753,-80.287561
PAST SALE,May-4-2023,Condo/Co-op,5100 SW 41st St #201,Pembroke Park,FL,33023,90000,2,1.0,CONDADO REAL CONDO,800,,1973,,113,600,Sold,,,https://www.redfin.com/FL/Pembroke-Park/5100-SW-41st-St-33023/unit-201/home/42018588,MARMLS,A11365429,N,Y,25.9734425,-80.1933478
PAST SALE,April-10-2023,Condo/Co-op,111 N Pompano Beach Blvd #912,Pompano Beach,FL,33062,665000,2,2.0,SEA MONARCH CONDO,1450,,1970,,459,873,Sold,,,https://www.redfin.com/FL/Pompano-Beach/111-N-Pompano-Beach-Blvd-33062/unit-912/home/41526645,MARMLS,A11352240,N,Y,26.2340318,-80.0900703
PAST SALE,June-30-2023,Condo/Co-op,760 SE 2nd Ave Unit H104,Deerfield Beach,FL,33441,200000,1,1.5,COCO CAY CONDO,840,,1974,,238,228,Sold,,,https://www.redfin.com/FL/Deerfield-Beach/760-SE-2nd-Ave-33441/unit-H104/home/42037304,MARMLS,A11389209,N,Y,26.3074008,-80.0977288
PAST SALE,June-23-2023,Condo/Co-op,3503 Oaks Way #506,Pompano Beach,FL,33069,395000,2,2.0,Palm-air Cc Oaks Way,1360,,1984,,290,493,Sold,,,https://www.redfin.com/FL/Pompano-Beach/3503-Oaks-Way-33069/unit-506/home/41642412,Beaches MLS,F10376566,N,Y,26.2275033,-80.1735129
PAST SALE,May-9-2023,Condo/Co-op,300 NE 14th Ave #303,Hallandale,FL,33009,229000,2,2.0,Fairways South Co-op,1100,,1968,,208,375,Sold,,,https://www.redfin.com/FL/Hallandale-Beach/300-NE-14th-Ave-33009/unit-303/home/41971252,Beaches MLS,F10373102,N,Y,25.9895415,-80.134091
PAST SALE,May-23-2023,Condo/Co-op,8045 Lagos De Campo Blvd Unit E-3,Tamarac,FL,33321,251000,2,1.5,Sandpebbles Townhouse Con,1072,,1974,,234,574,Sold,,,https://www.redfin.com/FL/Tamarac/8045-Lagos-de-Campo-Blvd-33321/unit-E-3/home/41559402,Beaches MLS,F10378552,N,Y,26.2051613,-80.2596859
PAST SALE,April-17-2023,Condo/Co-op,649 E Sheridan St #307,Dania,FL,33004,299000,2,2.0,Sheridan Beach Club,1030,,2003,,290,400,Sold,,,https://www.redfin.com/FL/Dania-Beach/649-E-Sheridan-St-33004/unit-307/home/42013830,Beaches MLS,F10363572,N,Y,26.0348862,-80.131998
PAST SALE,April-28-2023,Condo/Co-op,1551 SW 135th Ter Unit 307G,Pembroke Pines,FL,33027,138000,1,1.0,IVANHOE WEST II,585,,1986,,236,464,Sold,,,https://www.redfin.com/FL/Pembroke-Pines/1551-SW-135th-Ter-33027/unit-307G/home/41856649,MARMLS,A11359155,N,Y,25.994315,-80.3272726
PAST SALE,June-23-2023,Condo/Co-op,1310 NW 43rd Ave #210,Lauderhill,FL,33313,122000,2,2.0,PARK SOUTH NINE INC CONDO,950,,1969,,128,530,Sold,,,https://www.redfin.com/FL/Lauderhill/1310-NW-43rd-Ave-33313/unit-210/home/41631046,MARMLS,A11391287,N,Y,26.1428639,-80.2066843
PAST SALE,,Condo/Co-op,1150 Hillsboro Mile #712,Hillsboro Beach,FL,33062,500000,2,2.0,,1330,,1974,,376,,,,,https://www.redfin.com/FL/Hillsboro-Beach/1150-Hillsboro-Mile-33062/unit-712/home/41512273,,,N,Y,26.2927334,-80.0795752
PAST SALE,May-8-2023,Condo/Co-op,1101 River Reach Dr #303,Fort Lauderdale,FL,33315,453375,2,2.0,River Reach,1500,,1982,,302,1000,Sold,,,https://www.redfin.com/FL/Fort-Lauderdale/1101-River-Reach-Dr-33315/unit-303/home/41796486,Beaches MLS,F10370326,N,Y,26.1095485,-80.1559849
PAST SALE,May-17-2023,Condo/Co-op,1350 E Sample Rd #302,Pompano Beach,FL,33064,139500,1,1.0,Haven House,640,,1966,,218,226,Sold,,,https://www.redfin.com/FL/Pompano-Beach/1350-E-Sample-Rd-33064/unit-302/home/41493584,Beaches MLS,F10377191,N,Y,26.27504,-80.105668
PAST SALE,June-20-2023,Condo/Co-op,517 Durham R #517,Deerfield Beach,FL,33442,79000,1,1.5,Century Village East,703,,1974,,112,422,Sold,,,https://www.redfin.com/FL/Deerfield-Beach/517-Durham-Cir-33442/unit-517/home/104358369,Beaches MLS,F10374703,N,Y,26.3172849,-80.138796
PAST SALE,May-30-2023,Condo/Co-op,1038 Lyndhurst J #1038,Deerfield Beach,FL,33442,235000,2,2.0,Century Village,1100,,1974,,214,526,Sold,,,https://www.redfin.com/FL/Deerfield-Beach/1038-Lyndhurst-J-33442/unit-1038/home/108973130,Beaches MLS,F10374620,N,Y,26.310836,-80.1391908
PAST SALE,April-13-2023,Condo/Co-op,4706 NW 36th St #604,Lauderdale Lakes,FL,33319,95000,2,2.0,Hawaiian Gardens Ph-7,944,,1974,,101,355,Sold,,,https://www.redfin.com/FL/Lauderdale-Lakes/4706-NW-36th-St-33319/unit-604/home/41591976,Beaches MLS,F10369826,N,Y,26.172245,-80.212395
PAST SALE,June-23-2023,Condo/Co-op,2240 N Cypress Bend Dr #507,Pompano Beach,FL,33069,260000,2,2.0,Cypress Bend Waterchase,1347,,1992,,193,580,Sold,,,https://www.redfin.com/FL/Pompano-Beach/2240-N-Cypress-Bend-Dr-33069/unit-507/home/41639490,Beaches MLS,F10379322,N,Y,26.2175512,-80.1546837
PAST SALE,June-21-2023,Condo/Co-op,2982 NW 55th Ave Unit 2A,Lauderhill,FL,33313,149000,1,1.5,STONEBRIDGE GARDENS SECTI,840,,1974,,177,345,Sold,,,https://www.redfin.com/FL/Lauderhill/2982-NW-55th-Ave-33313/unit-2A/home/41602218,MARMLS,A11375276,N,Y,26.16318,-80.2217541
PAST SALE,April-27-2023,Condo/Co-op,10451 W Broward Blvd #207,Plantation,FL,33324,272000,2,2.0,PLANTATION RACQUET CLUB,940,,1983,,289,490,Sold,,,https://www.redfin.com/FL/Plantation/10451-W-Broward-Blvd-33324/unit-207/home/41751358,MARMLS,A11358124,N,Y,26.1217633,-80.2883583
PAST SALE,May-15-2023,Condo/Co-op,2401 Antigua Cir Unit K1,Coconut Creek,FL,33066,124900,2,2.0,Antigua Cirlcle,1155,,1979,,108,615,Sold,,,https://www.redfin.com/FL/Coconut-Creek/2401-Antigua-Cir-33066/unit-K1/home/41502373,Beaches MLS,F10374856,N,Y,26.253787,-80.1851962
PAST SALE,June-5-2023,Condo/Co-op,7278 S Devon Dr Unit 207/2778,Tamarac,FL,33321,220000,2,2.0,Devon,1238,,1990,,178,345,Sold,,,https://www.redfin.com/FL/Tamarac/7278-S-Devon-Dr-33321/unit-207/home/41553998,Beaches MLS,F10377060,N,Y,26.2168121,-80.2944201
PAST SALE,April-28-2023,Condo/Co-op,4751 NW 21st St #514,Lauderhill,FL,33313,142000,1,1.5,Castle Gardens Bldg 12,954,,1973,,149,404,Sold,,,https://www.redfin.com/FL/Lauderhill/4751-NW-21st-St-33313/unit-514/home/41595499,Beaches MLS,F10365361,N,Y,26.1532497,-80.2137874
PAST SALE,June-30-2023,Condo/Co-op,491 Racquet Club Rd #312,Weston,FL,33326,360000,2,2.5,BLDG 130 OF COUNTRY CLUB,1260,,1982,,286,498,Sold,,,https://www.redfin.com/FL/Weston/491-Racquet-Club-Rd-33326/unit-312/home/41727897,MARMLS,A11389934,N,Y,26.1220795,-80.3833496
PAST SALE,June-16-2023,Condo/Co-op,7600 NW 5th Ct #101,Margate,FL,33063,130000,2,2.0,Oriole Gardens 1,990,,1974,,131,388,Sold,,,https://www.redfin.com/FL/Margate/7600-NW-5th-Ct-33063/unit-101/home/41457725,Beaches MLS,F10381160,N,Y,26.2368635,-80.2261624
PAST SALE,April-18-2023,Condo/Co-op,936 Intracoastal Dr Unit 16g,Fort Lauderdale,FL,33304,895000,2,2.0,Corinthian,1685,,1974,,531,1053,Sold,,,https://www.redfin.com/FL/Fort-Lauderdale/936-Intracoastal-Dr-33304/unit-16G/home/41785127,Beaches MLS,RX-10866545,N,Y,26.1363924,-80.1092261
PAST SALE,June-15-2023,Condo/Co-op,7633 Granville Dr #205,Tamarac,FL,33321,230000,2,2.0,Kings Point/granville,1500,,1995,,153,494,Sold,,,https://www.redfin.com/FL/Tamarac/7633-Granville-Dr-33321/unit-205/home/41554281,Beaches MLS,F10380760,N,Y,26.2216169,-80.29209
PAST SALE,,Condo/Co-op,3660 Inverrary Dr Unit 3F,Lauderhill,FL,33319,110000,1,2.0,,800,,1973,,138,,,,,https://www.redfin.com/FL/Lauderhill/3660-Inverrary-Dr-33319/unit-3F/home/41587709,,,N,Y,26.169774,-80.2323492
PAST SALE,April-27-2023,Condo/Co-op,7920 N Nob Hill Rd #108,Tamarac,FL,33321,209000,1,1.0,EL-AD NOB HILL CONDO,691,,2005,,302,339,Sold,,,https://www.redfin.com/FL/Tamarac/7920-N-Nob-Hill-Rd-33321/unit-108/home/42035412,MARMLS,A11366336,N,Y,26.2224258,-80.2851364
PAST SALE,April-25-2023,Condo/Co-op,3430 NW 52nd Ave #210,Lauderdale Lakes,FL,33319,160000,2,2.0,Hawaiian Gardens,944,,1972,,169,426,Sold,,,https://www.redfin.com/FL/Lauderdale-Lakes/3430-NW-52nd-Ave-33319/unit-210/home/41592125,Beaches MLS,F10370418,N,Y,26.1694072,-80.2189294
PAST SALE,June-2-2023,Condo/Co-op,2453 NE 51 St Unit D-301,Fort Lauderdale,FL,33308,280000,2,1.5,Maybury Mansions,875,,1966,,320,587,Sold,,,https://www.redfin.com/FL/Fort-Lauderdale/2453-NE-51st-St-33308/unit-D301/home/41653561,Beaches MLS,F10378098,N,Y,26.1909182,-80.1117566
PAST SALE,June-23-2023,Condo/Co-op,7311 NW 18th St #202,Margate,FL,33063,170000,2,2.0,Palm Springs 3,1000,,1979,,170,367,Sold,,,https://www.redfin.com/FL/Margate/7311-NW-18th-St-33063/unit-202/home/41438649,Beaches MLS,F10379916,N,Y,26.2485779,-80.223287
PAST SALE,May-3-2023,Condo/Co-op,5985 Del Lago Cir #312,Sunrise,FL,33313,90000,1,1.5,Water Bridge 6 Condo,990,,1979,,91,220,Sold,,,https://www.redfin.com/FL/Sunrise/5985-Del-Lago-Cir-33313/unit-312/home/41627409,Beaches MLS,RX-10874072,N,Y,26.1377043,-80.2301628
PAST SALE,April-14-2023,Condo/Co-op,6600 Cypress Rd #303,Plantation,FL,33317,163000,1,1.5,PLANTATION PLACE CONDO,680,,1979,,240,295,Sold,,,https://www.redfin.com/FL/Plantation/6600-Cypress-Rd-33317/unit-303/home/41748432,MARMLS,A11355057,N,Y,26.1224277,-80.236183
PAST SALE,July-5-2023,Condo/Co-op,284 NW 69th Ave #279,Plantation,FL,33317,230000,2,2.0,French Quarter,1200,,1973,,192,487,Sold,,,https://www.redfin.com/FL/Plantation/284-NW-69th-Ave-33317/unit-279/home/41745739,Beaches MLS,F10381505,N,Y,26.1249254,-80.2385319
PAST SALE,April-11-2023,Condo/Co-op,1610 N Ocean Blvd #702,Pompano Beach,FL,33062,579000,2,2.0,Tiffany Gardens East,975,,1968,,594,670,Sold,,,https://www.redfin.com/FL/Pompano-Beach/1610-N-Ocean-Blvd-33062/unit-702/home/41522047,Beaches MLS,F10369250,N,Y,26.2524489,-80.0850516
PAST SALE,June-6-2023,Condo/Co-op,3101 NE 47 Ct #205,Fort Lauderdale,FL,33308,400000,2,2.0,Wilshire East,1550,,1970,,258,666,Sold,,,https://www.redfin.com/FL/Fort-Lauderdale/3101-NE-47th-Ct-33308/unit-205/home/41707177,Beaches MLS,F10377884,N,Y,26.1872092,-80.1043394
PAST SALE,June-23-2023,Condo/Co-op,3100 N Pine Island Rd #105,Sunrise,FL,33351,195000,2,2.0,LE CHATEAU CONDO,1170,,1981,,167,435,Sold,,,https://www.redfin.com/FL/Sunrise/3100-N-Pine-Island-Rd-33351/unit-105/home/41580010,MARMLS,A11387133,N,Y,26.1652749,-80.266439
PAST SALE,May-3-2023,Condo/Co-op,1023 Banks Rd #201,Margate,FL,33063,233000,2,2.0,WOODLAKE ISLES NORTH COND,1175,,1983,,198,375,Sold,,,https://www.redfin.com/FL/Margate/1023-Banks-Rd-33063/unit-201/home/41499958,MARMLS,A11365185,N,Y,26.242171,-80.19496
PAST SALE,May-15-2023,Condo/Co-op,1061 NW 45th St #1,Deerfield Beach,FL,33064,175000,2,2.0,Crystal Hills Condominium,760,,1979,,230,472,Sold,,,https://www.redfin.com/FL/Deerfield-Beach/1061-NW-45th-St-33064/unit-1/home/41480912,Beaches MLS,F10375124,N,Y,26.2855507,-80.1385406
PAST SALE,June-15-2023,Condo/Co-op,12430 Vista Isles Dr #1324,Sunrise,FL,33325,238000,1,1.0,ISLES AT LAGO MAR CONDO,743,,1991,,320,260,Sold,,,https://www.redfin.com/FL/Plantation/12430-Vista-Isles-Dr-33325/unit-1324/home/42052375,MARMLS,A11361378,N,Y,26.1304188,-80.3161841
PAST SALE,May-31-2023,Condo/Co-op,2521 NW 56th Ave Unit 4-26,Lauderhill,FL,33313,145000,1,1.0,Circle Villas (the) Condo,745,,1984,,195,377,Sold,,,https://www.redfin.com/FL/Lauderhill/2521-NW-56th-Ave-33313/unit-4-26/home/41600838,Beaches MLS,RX-10886536,N,Y,26.1580738,-80.2282537
PAST SALE,June-16-2023,Condo/Co-op,3930 Inverrary Blvd Unit 307-D,Lauderhill,FL,33319,215000,2,2.0,18th Hole At Inverrary,1260,,1978,,171,570,Sold,,,https://www.redfin.com/FL/Lauderhill/3930-Inverrary-Blvd-33319/unit-307D/home/41584827,Beaches MLS,F10379827,N,Y,26.174291,-80.238377
PAST SALE,May-26-2023,Condo/Co-op,7315 S Devon Dr #207,Tamarac,FL,33321,189900,2,2.0,DEVON CONDOMINIUM,1325,,1991,,143,508,Sold,,,https://www.redfin.com/FL/Tamarac/7315-S-Devon-Dr-33321/unit-207/home/41552526,MARMLS,A11375154,N,Y,26.2163977,-80.2951364
PAST SALE,April-12-2023,Condo/Co-op,1025 SE 4th Ave #207,Dania,FL,33004,215000,2,2.0,Meadowbrook Lakes,1144,,1979,,188,350,Sold,,,https://www.redfin.com/FL/Dania-Beach/1025-SE-4th-Ave-33004/unit-207/home/41912648,Beaches MLS,F10371093,N,Y,26.0384082,-80.1367087
PAST SALE,June-1-2023,Condo/Co-op,4160 Inverrary Dr #212,Lauderhill,FL,33319,165000,2,2.0,Manors Of Inverrary,1116,,1974,,148,500,Sold,,,https://www.redfin.com/FL/Lauderhill/4160-Inverrary-Dr-33319/unit-212/home/41589777,Beaches MLS,F10375466,N,Y,26.1747689,-80.2252038
PAST SALE,April-28-2023,Condo/Co-op,495 Tilford W #495,Deerfield Beach,FL,33442,174000,2,1.5,Century Village East,827,,1979,,210,491,Sold,,,https://www.redfin.com/FL/Deerfield-Beach/495-Tilford-Cres-33442/unit-495/home/104345896,Beaches MLS,F10372262,N,Y,26.3099602,-80.1496852
PAST SALE,May-15-2023,Condo/Co-op,7801 S Colony Cir S #202,Tamarac,FL,33321,195000,2,2.0,VERSAILLES GARDENS CONDO,949,,1981,,205,451,Sold,,,https://www.redfin.com/FL/Tamarac/7801-Colony-Cir-S-33321/unit-202/home/41561525,MARMLS,A11372902,N,Y,26.2040667,-80.2571275
PAST SALE,April-14-2023,Condo/Co-op,9200 Lime Bay Blvd #312,Tamarac,FL,33321,85000,1,1.0,Lime Bay,700,,1974,,121,390,Sold,,,https://www.redfin.com/FL/Tamarac/9200-Lime-Bay-Blvd-33321/unit-312/home/41553461,Beaches MLS,F10369780,N,Y,26.2066031,-80.2757965
PAST SALE,April-11-2023,Condo/Co-op,1420 Atlantic Shores Blvd #135,Hallandale Beach,FL,33009,180000,1,1.0,SEVENTEENTH GREEN CONDO,640,,1983,,281,200,Sold,,,https://www.redfin.com/FL/Hallandale-Beach/1420-Atlantic-Shores-Blvd-33009/unit-135/home/41968565,MARMLS,A11351478,N,Y,25.9948677,-80.1335683
PAST SALE,May-8-2023,Condo/Co-op,4121 NW 88th Ave #101,Coral Springs,FL,33065,125000,1,1.0,RAMBLEWOOD EAST CONDO,610,,1974,,205,172,Sold,,,https://www.redfin.com/FL/Coral-Springs/4121-NW-88th-Ave-33065/unit-101/home/41417641,MARMLS,A11343552,N,Y,26.2808853,-80.2456033
PAST SALE,May-12-2023,Condo/Co-op,160 Oakridge K #160,Deerfield Beach,FL,33442,77500,1,1.0,Century Village East,598,,1976,,130,464,Sold,,,https://www.redfin.com/FL/Deerfield-Beach/160-Oakridge-K-33442/unit-160/home/41466247,Beaches MLS,F10373705,N,Y,26.306973,-80.141896
PAST SALE,April-21-2023,Condo/Co-op,4135 NW 22nd St Unit 260F,Coconut Creek,FL,33066,300000,2,2.0,POND APPLE PLACE III COND,1130,,1981,,265,351,Sold,,,https://www.redfin.com/FL/Coconut-Creek/4135-NW-22nd-St-33066/unit-260F/home/41494717,MARMLS,A11355290,N,Y,26.2565894,-80.1818368
PAST SALE,May-5-2023,Condo/Co-op,5750 NW 64th Ave #110,Tamarac,FL,33319,105000,2,2.0,BERMUDA CLUB NINE CONDO,880,,1974,,119,495,Sold,,,https://www.redfin.com/FL/Tamarac/5750-NW-64th-Ave-33319/unit-110/home/41567678,MARMLS,A11345259,N,Y,26.196477,-80.2353292
PAST SALE,June-16-2023,Condo/Co-op,3930 Crystal Lake Dr #308,Deerfield Beach,FL,33064,185000,2,2.0,Crystal Lake 3930,996,,1967,,186,350,Sold,,,https://www.redfin.com/FL/Deerfield-Beach/3930-Crystal-Lake-Dr-33064/unit-308/home/41481283,Beaches MLS,F10380009,N,Y,26.2798504,-80.1419425
PAST SALE,April-28-2023,Condo/Co-op,2496 Centergate Dr #107,Miramar,FL,33025,306000,2,2.0,AVENTINE AT MIRAMAR CONDO,1080,,2003,,283,274,Sold,,,https://www.redfin.com/FL/Miramar/2496-Centergate-Dr-33025/unit-107/home/42041445,MARMLS,A11357906,N,Y,25.9867915,-80.3109083
PAST SALE,June-12-2023,Condo/Co-op,402 SW 158th Ter #102,Pembroke Pines,FL,33027,385000,3,2.0,LAS VERDES CONDO,1239,,1991,,311,689,Sold,,,https://www.redfin.com/FL/Pembroke-Pines/402-SW-158th-Ter-33027/unit-102/home/41850702,MARMLS,A11388952,N,Y,26.0048632,-80.3574247
PAST SALE,,Condo/Co-op,3690 N 56th Ave #907,Hollywood,FL,33021,178000,1,1.0,,659,,1995,,270,,,,,https://www.redfin.com/FL/Hollywood/3690-N-56th-Ave-33021/unit-907/home/42046456,,,N,Y,26.0433049,-80.2038869
PAST SALE,May-10-2023,Condo/Co-op,150 Lakeview Dr #104,Weston,FL,33326,328000,2,2.0,RACQUET CLUB APARTMENTS A,1256,,1978,,261,432,Sold,,,https://www.redfin.com/FL/Weston/150-Lakeview-Dr-33326/unit-104/home/41726209,MARMLS,A11365436,N,Y,26.1292503,-80.3832335
PAST SALE,June-14-2023,Condo/Co-op,15830 SW 3rd Ct #104,Pembroke Pines,FL,33027,430000,3,2.0,LAS VERDES CONDO,,,1992,,,689,Sold,,,https://www.redfin.com/FL/Pembroke-Pines/15830-SW-3rd-Ct-33027/unit-104/home/41850718,MARMLS,A11386135,N,Y,26.0027991,-80.3591229
PAST SALE,May-31-2023,Condo/Co-op,10700 NW 14th St #140,Plantation,FL,33322,305000,3,2.0,OPTIMA VILLAGE I-C CONDO,1120,,1990,,272,514,Sold,,,https://www.redfin.com/FL/Plantation/10700-NW-14th-St-33322/unit-140/home/41616375,MARMLS,A11378234,N,Y,26.1422592,-80.2929059
PAST SALE,May-31-2023,Condo/Co-op,3296 NW 104th Ave #3296,Coral Springs,FL,33065,226000,2,2.0,SPRINGS PARK CONDO,870,,1982,,260,400,Sold,,,https://www.redfin.com/FL/Coral-Springs/3296-NW-104th-Ave-33065/unit-3296/home/41427038,MARMLS,A11378097,N,Y,26.2710419,-80.2652026
PAST SALE,April-18-2023,Condo/Co-op,12160 Saint Andrews Pl #105,Miramar,FL,33025,275000,2,1.0,ST ANDREWS CONDO,817,,1997,,337,886,Sold,,,https://www.redfin.com/FL/Miramar/12160-Saint-Andrews-Pl-33025/unit-105/home/42041611,MARMLS,A11353921,N,Y,25.9926297,-80.3108237
PAST SALE,May-23-2023,Condo/Co-op,2080 S Ocean Dr #1012,Hallandale Beach,FL,33009,1180000,3,2.0,2080 Ocean Drive,1480,,2003,,797,1220,Sold,,,https://www.redfin.com/FL/Hallandale-Beach/2080-S-Ocean-Dr-33009/unit-1012/home/42018032,MARMLS,A11362598,N,Y,25.9771337,-80.1195658
PAST SALE,May-19-2023,Condo/Co-op,2580 NW 42nd Ave #1104,Coconut Creek,FL,33066,250000,2,2.0,POND APPLE PLACE I CONDO,1150,,1980,,217,537,Sold,,,https://www.redfin.com/FL/Coconut-Creek/2580-NW-42nd-Ave-33066/unit-1104/home/41479091,MARMLS,A11358292,N,Y,26.2615847,-80.1824472
PAST SALE,June-5-2023,Condo/Co-op,7843 Exeter Blvd #202,Tamarac,FL,33321,392500,3,2.0,Exeter B,2507,,1999,,157,597,Sold,,,https://www.redfin.com/FL/Tamarac/7843-Exeter-Blvd-E-33321/unit-202/home/41977741,Beaches MLS,F10377187,N,Y,26.2230061,-80.2896131
PAST SALE,May-1-2023,Condo/Co-op,7373 Granville Dr #309,Tamarac,FL,33321,299900,2,2.0,Granville,1500,,1992,,200,599,Sold,,,https://www.redfin.com/FL/Tamarac/7373-Granville-Dr-33321/unit-309/home/41553947,Beaches MLS,F10372935,N,Y,26.2189454,-80.2923315
PAST SALE,June-15-2023,Condo/Co-op,4100 Galt Ocean Dr #1210,Fort Lauderdale,FL,33308,889000,2,2.0,GALLEON CONDO,1950,,1967,,456,1280,Sold,,,https://www.redfin.com/FL/Fort-Lauderdale/4100-Galt-Ocean-Dr-33308/unit-1210/home/41710676,MARMLS,A11361162,N,Y,26.1790303,-80.0970088
PAST SALE,May-8-2023,Condo/Co-op,400 NE 14th Ave #520,Hallandale,FL,33009,204000,1,1.0,Fairways Co Op,950,,1967,,215,250,Sold,,,https://www.redfin.com/FL/Hallandale-Beach/400-NE-14th-Ave-33009/unit-520/home/41969465,Beaches MLS,F10370460,N,Y,25.9906255,-80.1341003
PAST SALE,May-2-2023,Condo/Co-op,309 Crocus Ter #14,Hollywood,FL,33019,180000,0,1.0,WHITEHOUSE CONDO,340,,1980,,529,670,Sold,,,https://www.redfin.com/FL/Hollywood/309-Crocus-Ter-33019/unit-14/home/41958548,MARMLS,A11363001,N,Y,26.0032378,-80.1168179
PAST SALE,April-27-2023,Condo/Co-op,2160 E Preserve Way #102,Miramar,FL,33025,240000,1,1.0,EL-AD RESIDENCES AT MIRAM,730,,2005,,329,289,Sold,,,https://www.redfin.com/FL/Miramar/2160-E-Preserve-Way-33025/unit-102/home/42047534,MARMLS,A11360973,N,Y,25.9889091,-80.2921026
PAST SALE,April-28-2023,Condo/Co-op,4128 W Palm Aire Dr Unit 281C,Pompano Beach,FL,33069,308000,2,2.0,Vizcaya Gardens,1445,,1986,,213,836,Sold,,,https://www.redfin.com/FL/Pompano-Beach/4128-W-Palm-Aire-Dr-33069/unit-281C/home/41642384,Beaches MLS,F10372356,N,Y,26.2181561,-80.1837141
PAST SALE,June-29-2023,Condo/Co-op,9314 Wedgewood Dr Unit B15,Tamarac,FL,33321,320000,2,2.0,WEDGEWOOD CONDOMINIUM,1060,,1979,,302,994,Sold,,,https://www.redfin.com/FL/Tamarac/9314-Wedgewood-Dr-33321/unit-B15/home/41556760,MARMLS,A11394534,N,Y,26.202728,-80.2750007
PAST SALE,May-11-2023,Condo/Co-op,2340 NE 9th St #302,Fort Lauderdale,FL,33304,225000,1,1.5,Park Ridge East,734,,1968,,307,281,Sold,,,https://www.redfin.com/FL/Fort-Lauderdale/2340-NE-9th-St-33304/unit-302/home/41786148,Beaches MLS,F10374920,N,Y,26.1355794,-80.1159788
PAST SALE,June-15-2023,Condo/Co-op,230 SW 11th Ave #11,Hallandale Beach,FL,33009,157500,2,1.0,PARK SIDE MANOR B CONDO I,800,,1973,,197,313,Sold,,,https://www.redfin.com/FL/Hallandale-Beach/230-SW-11th-Ave-33009/unit-11/home/41999049,MARMLS,A11374738,N,Y,25.98233,-80.164826
PAST SALE,May-11-2023,Condo/Co-op,7492 N Devon Dr #112,Tamarac,FL,33321,235000,2,2.0,Devon Condominium H,1460,,1993,,161,545,Sold,,,https://www.redfin.com/FL/Tamarac/7492-N-Devon-Dr-33321/unit-112/home/41554393,Beaches MLS,RX-10881218,N,Y,26.2197601,-80.294003
PAST SALE,April-28-2023,Condo/Co-op,26 Diplomat Pkwy #2214,Hallandale Beach,FL,33009,160000,1,1.0,DIPLOMAT GOLF & RACQUET C,320,,1961,,500,350,Sold,,,https://www.redfin.com/FL/Hallandale-Beach/26-Diplomat-Pkwy-33009/unit-2214/home/41967010,MARMLS,A11366113,N,Y,25.9869695,-80.1274559
PAST SALE,April-25-2023,Condo/Co-op,3450 N Pinewalk Dr #412,Margate,FL,33063,260000,2,2.0,Coral Key,1027,,1990,,253,329,Sold,,,https://www.redfin.com/FL/Margate/3450-Pinewalk-Dr-N-33063/unit-412/home/42058873,Beaches MLS,F10373265,N,Y,26.267501,-80.224071
PAST SALE,May-4-2023,Condo/Co-op,111 Tilford F #111,Deerfield Beach,FL,33442,85000,1,1.0,Century Village East,595,,1977,,143,443,Sold,,,https://www.redfin.com/FL/Deerfield-Beach/111-Tilford-F-33442/unit-111/home/184798990,Beaches MLS,F10373287,N,Y,26.311062,-80.1438413
PAST SALE,June-15-2023,Condo/Co-op,4050 NE 12 Ter Unit 6-1,Oakland Park,FL,33334,185000,2,1.5,Azul At Kimberly Lake,,,1968,,,320,Sold,,,https://www.redfin.com/FL/Oakland-Park/4050-NE-12th-Ter-33334/unit-6-1/home/42036723,Beaches MLS,F10381438,N,Y,26.1778689,-80.1301836
PAST SALE,May-16-2023,Condo/Co-op,801 Ocean Dr #605,Hollywood,FL,33019,300000,1,1.5,Valiant House,1040,,1971,,288,555,Sold,,,https://www.redfin.com/FL/Hollywood/801-S-Ocean-Dr-33019/unit-605/home/41933451,Beaches MLS,F10372466,N,Y,26.0075691,-80.1175154
PAST SALE,April-19-2023,Condo/Co-op,7603 Trent Dr #102,Tamarac,FL,33321,220000,2,2.0,Kings Point Trent ''b'',1325,,1993,,166,644,Sold,,,https://www.redfin.com/FL/Tamarac/7603-Trent-Dr-33321/unit-102/home/41556267,Beaches MLS,RX-10874863,N,Y,26.2210887,-80.2948125
PAST SALE,June-20-2023,Condo/Co-op,6600 Royal Palm Blvd Unit 103 B,Margate,FL,33063,120000,2,2.0,Royal Park Gardens I-b Condo,790,790,1974,,152,412,Sold,,,https://www.redfin.com/FL/Margate/6600-Royal-Palm-Blvd-33063/unit-103B/home/41438683,Beaches MLS,RX-10888056,N,Y,26.2521665,-80.213526
