SALE TYPE,SOLD DATE,PROPERTY TYPE,ADDRESS,CITY,STATE OR PROVINCE,ZIP OR POSTAL CODE,PRICE,BEDS,BATHS,LOCATION,SQUARE FEET,LOT SIZE,YEAR BUILT,DAYS ON MARKET,$/SQUARE FEET,HOA/MONTH,STATUS,NEXT OPEN HOUSE START TIME,NEXT OPEN HOUSE END TIME,URL (SEE https://www.redfin.com/buy-a-home/comparative-market-analysis FOR INFO ON PRICING),SOURCE,MLS#,FAVORITE,INTERESTED,LATITUDE,LONGITUDE
PAST SALE,March-20-2023,Condo/Co-op,250 Tresana Blvd #86,Jupiter,FL,33478,1200000,3,2.5,Jupiter Country Club,3042,43560,2018,,394,1177,Sold,,,https://www.redfin.com/FL/Jupiter/250-Tresana-Blvd-33478/unit-86/home/136791063,Beaches MLS,RX-10859283,N,Y,26.9274571,-80.1550255
PAST SALE,March-20-2023,Condo/Co-op,3755 Via Poinciana #513,Lake Worth,FL,33467,152000,2,2.0,"Poinciana Place Condo 1,2,8 And 9",1090,43560,1974,,139,573,Sold,,,https://www.redfin.com/FL/Lake-Worth/3755-Via-Poinciana-33467/unit-513/home/42168980,Beaches MLS,RX-10867629,N,Y,26.6212507,-80.1544401
PAST SALE,May-2-2023,Condo/Co-op,50 SW 3rd Ave #2040,Boca Raton,FL,33432,255000,2,2.0,Boca Center Plaza,918,,1975,,278,490,Sold,,,https://www.redfin.com/FL/Boca-Raton/50-SW-3rd-Ave-33432/unit-2040/home/42332251,Beaches MLS,RX-10872235,N,Y,26.3491819,-80.0912869
PAST SALE,March-16-2023,Condo/Co-op,33 Colonial Club Dr #105,Boynton Beach,FL,33435,250000,2,2.0,Colonial Club Condo Sec 1,1200,,1974,,208,634,Sold,,,https://www.redfin.com/FL/Boynton-Beach/33-Colonial-Club-Dr-33435/unit-105/home/42350247,Beaches MLS,RX-10851680,N,Y,26.5002895,-80.0594951
PAST SALE,May-12-2023,Condo/Co-op,1024 NW 13th St Unit 129b,Boca Raton,FL,33486,235000,2,2.0,Boca Linda Condo,978,,1973,,240,356,Sold,,,https://www.redfin.com/FL/Boca-Raton/1024-NW-13th-St-33486/unit-129B/home/42309573,Beaches MLS,RX-10865261,N,Y,26.360527,-80.1069355
PAST SALE,March-31-2023,Condo/Co-op,14484 Canalview Dr Unit C,Delray Beach,FL,33484,160000,1,2.0,High Point OF Delray West Condo Sec 1&2,1068,43560,1981,,150,320,Sold,,,https://www.redfin.com/FL/Delray-Beach/14484-Canalview-Dr-33484/unit-C/home/42214690,Beaches MLS,RX-10861599,N,Y,26.4611062,-80.1285085
PAST SALE,April-26-2023,Condo/Co-op,7 Via De Casas Sur #101,Boynton Beach,FL,33426,289000,2,2.0,South Lake Condo,996,43560,1986,,290,660,Sold,,,https://www.redfin.com/FL/Boynton-Beach/7-Via-de-Casas-Sur-33426/unit-101/home/42337049,Beaches MLS,RX-10856630,N,Y,26.553748,-80.0884654
PAST SALE,March-27-2023,Condo/Co-op,806 E Windward Way #506,Lantana,FL,33462,438000,2,2.0,Moorings AT Lantana Condo 3,1265,38104,2005,,346,910,Sold,,,https://www.redfin.com/FL/Lantana/806-E-Windward-Way-33462/unit-506/home/42597062,Beaches MLS,RX-10833909,N,Y,26.5911307,-80.0499085
PAST SALE,April-25-2023,Condo/Co-op,700 Uno Lago Dr #204,Juno Beach,FL,33408,390000,2,2.0,Uno Lago 7 Condo / Ocean Trace,1180,365,1985,,331,752,Sold,,,https://www.redfin.com/FL/Juno-Beach/700-Uno-Lago-Dr-33408/unit-204/home/42396586,Beaches MLS,RX-10838559,N,Y,26.8580204,-80.0608311
PAST SALE,March-21-2023,Condo/Co-op,2572 Emory Dr Unit G,West Palm Beach,FL,33415,112000,1,1.5,Cresthaven Villas Condo 31,661,43560,1983,,169,278,Sold,,,https://www.redfin.com/FL/West-Palm-Beach/2572-Emory-Dr-E-33415/unit-G/home/42180469,Beaches MLS,RX-10868454,N,Y,26.640332,-80.13005
PAST SALE,April-27-2023,Condo/Co-op,250 NE 20th St #5230,Boca Raton,FL,33431,255000,2,2.0,Tierra Del Sol Condo,1080,,1972,,236,460,Sold,,,https://www.redfin.com/FL/Boca-Raton/250-NE-20th-St-33431/unit-5230/home/42320461,Beaches MLS,RX-10890038,N,Y,26.366108,-80.082903
PAST SALE,April-20-2023,Condo/Co-op,100 Intracoastal Pl #408,Jupiter,FL,33469,645000,2,2.0,BROADVIEW CONDO,1287,,1976,,501,833,Sold,,,https://www.redfin.com/FL/Tequesta/100-Intracoastal-Pl-33469/unit-408/home/42273743,MARMLS,A11381637,N,Y,26.968768,-80.085348
PAST SALE,May-1-2023,Condo/Co-op,20 Seville A Dr,Delray Beach,FL,33446,165000,2,2.0,Kings Point Seville Condos,883,,1973,,187,618,Sold,,,https://www.redfin.com/FL/Delray-Beach/20-Seville-a-33446/home/42632651,Beaches MLS,RX-10886401,N,Y,26.452865,-80.150871
PAST SALE,,Condo/Co-op,390 Chatham S,West Palm Beach,FL,33417,138000,1,1.5,,738,,1973,,187,,,,,https://www.redfin.com/FL/West-Palm-Beach/390-Chatham-S-33417/home/42146722,,,N,Y,26.717252,-80.1278178
PAST SALE,,Condo/Co-op,7370 S Oriole Blvd #701,Delray Beach,FL,33446,265000,3,2.0,,1500,,1989,,177,,,,,https://www.redfin.com/FL/Delray-Beach/7370-S-Oriole-Blvd-33446/unit-701/home/42220065,,,N,Y,26.456845,-80.160464
PAST SALE,,Condo/Co-op,431 Brackenwood Ln N,Palm Beach Gardens,FL,33418,450000,2,2.0,,1366,,1985,,329,,,,,https://www.redfin.com/FL/Palm-Beach-Gardens/431-Brackenwood-Ln-N-33418/home/42446605,,,N,Y,26.8302115,-80.1461013
PAST SALE,June-1-2023,Condo/Co-op,16551 Traders Xing #143,Jupiter,FL,33477,699000,2,2.0,Traders Crossing AT Jonathans Landing,1478,,1988,,473,945,Sold,,,https://www.redfin.com/FL/Jupiter/16551-Traders-Xing-S-33477/unit-143/home/42274281,Beaches MLS,RX-10893957,N,Y,26.9195509,-80.0917722
PAST SALE,,Condo/Co-op,1500 N Congress Ave Unit B33,West Palm Beach,FL,33401,189000,1,1.0,,625,,1980,,302,,,,,https://www.redfin.com/FL/West-Palm-Beach/1500-N-Congress-Ave-33401/unit-B33/home/42516716,,,N,Y,26.7273451,-80.08899
PAST SALE,,Condo/Co-op,1653 Bridgewood Dr,Boca Raton,FL,33434,90000,2,2.0,,1050,,1974,,86,,,,,https://www.redfin.com/FL/Boca-Raton/1653-Bridgewood-Dr-33434/home/42250979,,,N,Y,26.3727374,-80.1657544
PAST SALE,May-5-2023,Condo/Co-op,1915 Lavers Cir Unit E409,Delray Beach,FL,33444,420000,2,2.0,Lakeside Condo,1160,90,1984,,362,200,Sold,,,https://www.redfin.com/FL/Delray-Beach/1915-Lavers-Cir-33444/unit-E409/home/42581287,Beaches MLS,RX-10887330,N,Y,26.4373114,-80.0828694
PAST SALE,March-30-2023,Condo/Co-op,7270 Ashford Pl #408,Delray Beach,FL,33446,215000,2,2.0,Huntington Lakes,1220,43560,1989,,176,743,Sold,,,https://www.redfin.com/FL/Delray-Beach/7270-Ashford-Pl-33446/unit-408/home/42221627,Beaches MLS,RX-10877757,N,Y,26.460953,-80.1592117
PAST SALE,May-12-2023,Condo/Co-op,236 Canterbury K,West Palm Beach,FL,33417,90000,1,1.5,Century Village,646,,1973,,139,480,Sold,,,https://www.redfin.com/FL/West-Palm-Beach/236-Canterbury-K-33417/home/42141737,Beaches MLS,RX-10889297,N,Y,26.720227,-80.132277
PAST SALE,,Condo/Co-op,314 Inlet Way #302,Palm Beach Shores,FL,33404,1200000,2,2.0,,1474,,2006,,814,,,,,https://www.redfin.com/FL/Palm-Beach-Shores/314-Inlet-Way-33404/unit-302/home/42611811,,,N,Y,26.774278,-80.0376721
PAST SALE,,Condo/Co-op,10127 44th Ter S #371,Boynton Beach,FL,33436,230000,2,2.0,,1238,,1975,,186,,,,,https://www.redfin.com/FL/Boynton-Beach/10127-44th-Ter-S-33436/unit-371/home/42201582,,,N,Y,26.5262258,-80.1138508
PAST SALE,,Condo/Co-op,389 Monaco I,Delray Beach,FL,33446,249900,2,2.0,,907,,1977,,276,,,,,https://www.redfin.com/FL/Delray-Beach/389-Monaco-I-33446/home/42223512,,,N,Y,26.4422851,-80.1526844
PAST SALE,April-5-2023,Condo/Co-op,5400 Cedar Lake Dr #201,Boynton Beach,FL,33437,159900,2,2.0,Banyan Springs,1260,43560,1982,,127,690,Sold,,,https://www.redfin.com/FL/Boynton-Beach/5400-Cedar-Lake-Dr-33437/unit-201/home/42200704,Beaches MLS,RX-10865637,N,Y,26.5239336,-80.1294696
PAST SALE,,Condo/Co-op,568 Mansfield N,Boca Raton,FL,33434,95000,1,1.0,,601,,1980,,158,,,,,https://www.redfin.com/FL/Boca-Raton/568-Mansfield-N-33434/home/42638383,,,N,Y,26.393597,-80.175797
PAST SALE,,Condo/Co-op,3359 Perimeter Dr #1212,Greenacres,FL,33467,192450,2,2.0,,1133,,1985,,170,,,,,https://www.redfin.com/FL/Greenacres/3359-Perimeter-Dr-33467/unit-1212/home/42390366,,,N,Y,26.6282661,-80.1473915
PAST SALE,,Condo/Co-op,3912 S Ocean Blvd #411,Highland Beach,FL,33487,502500,1,1.5,,987,,1976,,509,,,,,https://www.redfin.com/FL/Highland-Beach/3912-S-Ocean-Blvd-33487/unit-411/home/42392542,,,N,Y,26.4053247,-80.0675557
PAST SALE,,Condo/Co-op,6525 S Oriole Blvd #1070,Delray Beach,FL,33446,215000,2,2.0,,1005,,1980,,214,,,,,https://www.redfin.com/FL/Delray-Beach/6525-S-Oriole-Blvd-33446/unit-1070/home/42219822,,,N,Y,26.4556199,-80.1559849
PAST SALE,May-12-2023,Condo/Co-op,150 Berkshire G,West Palm Beach,FL,33417,80000,1,1.0,Century Village,615,,1972,,130,480,Sold,,,https://www.redfin.com/FL/West-Palm-Beach/150-Berkshire-G-33417/home/42154355,Beaches MLS,RX-10889458,N,Y,26.7142794,-80.1324798
PAST SALE,,Condo/Co-op,6332 Pointe Pleasant Cir,Delray Beach,FL,33484,295000,2,2.0,,1345,,1993,,219,,,,,https://www.redfin.com/FL/Delray-Beach/6332-Pointe-Pleasant-Cir-33484/home/42220537,,,N,Y,26.4650487,-80.144779
PAST SALE,April-21-2023,Condo/Co-op,1063 Golden Lakes Blvd #316,West Palm Beach,FL,33411,200000,3,2.0,Belvedere Isles Condomini,1054,,2005,,190,360,Sold,,,https://www.redfin.com/FL/West-Palm-Beach/1063-Golden-Lakes-Blvd-33411/unit-316/home/42600456,Beaches MLS,F10372083,N,Y,26.6930033,-80.1676203
PAST SALE,,Condo/Co-op,100 Worth Ave #607,Palm Beach,FL,33480,3965000,2,2.0,,1539,,1970,,2576,,,,,https://www.redfin.com/FL/Palm-Beach/100-Worth-Ave-33480/unit-607/home/42435281,,,N,Y,26.7003852,-80.0337993
PAST SALE,March-27-2023,Condo/Co-op,1601 S Flagler Dr Unit 204o,West Palm Beach,FL,33401,335000,1,1.0,Viking Arms Condo,673,,1980,,498,495,Sold,,,https://www.redfin.com/FL/West-Palm-Beach/1601-S-Flagler-Dr-33401/unit-204O/home/42520068,Beaches MLS,RX-10873342,N,Y,26.6992853,-80.0513591
PAST SALE,,Condo/Co-op,1500 N Congress Ave Unit A214,West Palm Beach,FL,33401,132000,1,1.0,,495,,1980,,267,,,,,https://www.redfin.com/FL/West-Palm-Beach/1500-N-Congress-Ave-33401/unit-A214/home/42520750,,,N,Y,26.7273451,-80.08899
PAST SALE,May-11-2023,Condo/Co-op,21791 Arriba Real Unit H,Boca Raton,FL,33433,355000,2,2.0,Glades OF Boca Lago Condo,1216,,1979,,292,611,Sold,,,https://www.redfin.com/FL/Boca-Raton/21791-Arriba-Real-33433/unit-H/home/42253297,Beaches MLS,RX-10882496,N,Y,26.3514588,-80.1850872
PAST SALE,,Condo/Co-op,139 Sunrise Ave #2040,Palm Beach,FL,33480,1676000,2,2.0,,990,,1980,,1693,,,,,https://www.redfin.com/FL/Palm-Beach/139-Sunrise-Ave-33480/unit-2040/home/42434087,,,N,Y,26.7203609,-80.0364202
PAST SALE,,Condo/Co-op,6200 NW 2nd Ave #1110,Boca Raton,FL,33487,360000,2,2.5,,1750,,1977,,206,,,,,https://www.redfin.com/FL/Boca-Raton/6200-NW-2nd-Ave-33487/unit-1110/home/42311164,,,N,Y,26.4052963,-80.0817347
PAST SALE,,Condo/Co-op,515 Saxony K,Delray Beach,FL,33446,125000,1,1.5,,760,,1974,,164,,,,,https://www.redfin.com/FL/Delray-Beach/515-Saxony-K-33446/home/42224093,,,N,Y,26.4400972,-80.151788
PAST SALE,,Condo/Co-op,2851 S Ocean Blvd #0041,Boca Raton,FL,33432,330000,1,1.0,,985,,1980,,335,,,,,https://www.redfin.com/FL/Boca-Raton/2851-S-Ocean-Blvd-33432/unit-0041/home/42329683,,,N,Y,26.323315,-80.0761481
PAST SALE,,Condo/Co-op,743 Nantucket Cir,Lake Worth,FL,33467,230000,2,2.0,,941,,1983,,244,,,,,https://www.redfin.com/FL/Lake-Worth/743-Nantucket-Cir-33467/home/42630200,,,N,Y,26.6247361,-80.1600753
PAST SALE,,Condo/Co-op,5601 NW 2nd Ave #1250,Boca Raton,FL,33487,212000,2,2.0,,1000,,1968,,212,,,,,https://www.redfin.com/FL/Boca-Raton/5601-NW-2nd-Ave-33487/unit-1250/home/42313251,,,N,Y,26.3996323,-80.084266
PAST SALE,,Condo/Co-op,2016 S Federal Hwy #307,Boynton Beach,FL,33435,172000,2,2.0,,963,,1973,,179,,,,,https://www.redfin.com/FL/Boynton-Beach/2016-S-Federal-Hwy-33435/unit-307/home/42641963,,,N,Y,26.510099,-80.058048
PAST SALE,,Condo/Co-op,350 S Ocean Blvd #0122,Boca Raton,FL,33432,2550000,3,3.0,,2296,,1977,,1111,,,,,https://www.redfin.com/FL/Boca-Raton/350-S-Ocean-Blvd-33432/unit-0122/home/42329645,,,N,Y,26.3472728,-80.0702119
PAST SALE,,Condo/Co-op,216 Down East Ln,Lake Worth,FL,33467,70210,1,1.0,,790,,1983,,89,,,,,https://www.redfin.com/FL/Lake-Worth/216-Down-East-Ln-33467/home/42086950,,,N,Y,26.6240107,-80.1622003
PAST SALE,,Condo/Co-op,4475 N Ocean Blvd Unit 31E,Delray Beach,FL,33483,1050000,2,2.0,,1300,,1973,,808,,,,,https://www.redfin.com/FL/Delray-Beach/4475-N-Ocean-Blvd-33483/unit-31E/home/42359871,,,N,Y,26.5038011,-80.0530526
PAST SALE,,Condo/Co-op,4475 N Ocean Blvd #309,Delray Beach,FL,33483,1397500,2,2.5,,2125,,1979,,658,,,,,https://www.redfin.com/FL/Delray-Beach/4475-N-Ocean-Blvd-33483/unit-309/home/42360579,,,N,Y,26.5038011,-80.0530526
PAST SALE,May-12-2023,Condo/Co-op,22 Colonial Club Dr #305,Boynton Beach,FL,33435,168000,2,2.0,Colonial Club Condo Sec 2,1200,,1974,,140,634,Sold,,,https://www.redfin.com/FL/Boynton-Beach/22-Colonial-Club-Dr-33435/unit-305/home/42355871,Beaches MLS,RX-10873198,N,Y,26.5034373,-80.0588294
PAST SALE,May-15-2023,Condo/Co-op,1403 Captains Way,Jupiter,FL,33477,1818000,2,2.0,Admirals Cove,1952,180,1987,,931,2128,Sold,,,https://www.redfin.com/FL/Jupiter/1403-Captains-Way-33477/home/42411997,Beaches MLS,RX-10881076,N,Y,26.90938,-80.086781
PAST SALE,June-1-2023,Condo/Co-op,16695 Traders Xing N #120,Jupiter,FL,33477,825000,3,2.0,Traders Crossing AT Jonathans Landing,1796,,1988,,459,1090,Sold,,,https://www.redfin.com/FL/Jupiter/16695-Traders-Xing-N-33477/unit-120/home/42273785,Beaches MLS,RX-10893974,N,Y,26.9236419,-80.091685
PAST SALE,,Condo/Co-op,230 NE 26th Ave #2150,Boynton Beach,FL,33435,126000,1,1.5,,758,,1978,,166,,,,,https://www.redfin.com/FL/Boynton-Beach/230-NE-26th-Ave-33435/unit-2150/home/42637924,,,N,Y,26.553688,-80.0649184
PAST SALE,,Condo/Co-op,2011 Lincoln a,Boca Raton,FL,33434,113750,1,1.5,,752,,1981,,151,,,,,https://www.redfin.com/FL/Boca-Raton/2011-Lincoln-a-33434/home/42246865,,,N,Y,26.38935,-80.172997
PAST SALE,,Condo/Co-op,114 Wellington C,West Palm Beach,FL,33417,210000,2,2.0,,1100,,1971,,191,,,,,https://www.redfin.com/FL/West-Palm-Beach/114-Wellington-C-33417/home/42148434,,,N,Y,26.7104774,-80.1309493
PAST SALE,,Condo/Co-op,4545 N Ocean Blvd Unit 19D,Boca Raton,FL,33431,1350000,2,2.5,,1892,,1974,,714,,,,,https://www.redfin.com/FL/Boca-Raton/4545-N-Ocean-Blvd-33431/unit-19D/home/42316721,,,N,Y,26.3905047,-80.0675329
PAST SALE,,Condo/Co-op,293 Fanshaw G,Boca Raton,FL,33434,125000,1,1.5,,715,,1980,,175,,,,,https://www.redfin.com/FL/Boca-Raton/293-Fanshaw-G-33434/home/42244482,,,N,Y,26.3845989,-80.1747395
PAST SALE,,Condo/Co-op,2545 S Ocean Blvd #4040,Palm Beach,FL,33480,100000,1,1.0,,638,,1970,,157,,,,,https://www.redfin.com/FL/Palm-Beach/2545-S-Ocean-Blvd-33480/unit-4040/home/42437973,,,N,Y,26.6277254,-80.0381261
PAST SALE,,Condo/Co-op,600 Village Green Ct #308,Palm Springs,FL,33461,137800,2,1.5,,825,,1977,,167,,,,,https://www.redfin.com/FL/Palm-Springs/600-Village-Green-Ct-33461/unit-308/home/42479642,,,N,Y,26.6424657,-80.1056483
PAST SALE,,Condo/Co-op,3 Garden St Unit 106K,Tequesta,FL,33469,257000,2,2.0,,910,,1970,,282,,,,,https://www.redfin.com/FL/Tequesta/3-Garden-St-33469/unit-106K/home/42472011,,,N,Y,26.9608989,-80.0974732
PAST SALE,,Condo/Co-op,2400 NE 1st Ln #4070,Boynton Beach,FL,33435,135000,1,1.5,,758,,1978,,178,,,,,https://www.redfin.com/FL/Boynton-Beach/2400-NE-1st-Ln-33435/unit-4070/home/42636627,,,N,Y,26.5516204,-80.0661087
PAST SALE,,Condo/Co-op,4175 N Haverhill Rd #903,West Palm Beach,FL,33417,220000,2,2.0,,1021,,2000,,215,,,,,https://www.redfin.com/FL/West-Palm-Beach/4175-N-Haverhill-Rd-33417/unit-903/home/42653920,,,N,Y,26.738831,-80.1216162
PAST SALE,April-4-2023,Condo/Co-op,480 Hibiscus St #233,West Palm Beach,FL,33401,349000,1,1.0,City Palms Condo,690,43560,2008,,506,487,Sold,,,https://www.redfin.com/FL/West-Palm-Beach/480-Hibiscus-St-33401/unit-233/home/42666477,Beaches MLS,RX-10871670,N,Y,26.7079724,-80.0545838
PAST SALE,May-12-2023,Condo/Co-op,2021 Guildford B #2021,Boca Raton,FL,33434,165000,2,1.5,Century Village,880,,1980,,188,,Sold,,,https://www.redfin.com/FL/Boca-Raton/2021-Guildford-E-33434/unit-2021/home/184443112,Beaches MLS,F10369112,N,Y,26.3868088,-80.1753673
PAST SALE,,Condo/Co-op,442 Capri J,Delray Beach,FL,33484,122000,1,1.5,,760,,1978,,161,,,,,https://www.redfin.com/FL/Delray-Beach/442-Capri-J-33484/home/42230175,,,N,Y,26.4435334,-80.1347927
PAST SALE,,Condo/Co-op,21 Piedmont a,Delray Beach,FL,33484,240000,2,2.0,,1023,,1980,,235,,,,,https://www.redfin.com/FL/Delray-Beach/21-Piedmont-a-33484/home/42230091,,,N,Y,26.444214,-80.1432828
PAST SALE,,Condo/Co-op,500 S Ocean Blvd #502,Boca Raton,FL,33432,1780000,2,2.0,,1479,,1974,,1204,,,,,https://www.redfin.com/FL/Boca-Raton/500-S-Ocean-Blvd-33432/unit-502/home/42637357,,,N,Y,26.3450684,-80.071816
PAST SALE,,Condo/Co-op,651 Okeechobee Blvd #911,West Palm Beach,FL,33401,640000,2,2.0,,1212,,2001,,528,,,,,https://www.redfin.com/FL/West-Palm-Beach/651-Okeechobee-Blvd-33401/unit-911/home/42591112,,,N,Y,26.7065665,-80.0579309
PAST SALE,April-20-2023,Condo/Co-op,1018 Exeter A,Boca Raton,FL,33434,285000,2,2.0,Exeter AT Century Village Condo,1168,,1980,,244,333,Sold,,,https://www.redfin.com/FL/Boca-Raton/1018-Exeter-a-33434/home/42252484,Beaches MLS,RX-10867312,N,Y,26.385702,-80.177187
PAST SALE,,Condo/Co-op,905 Southridge Rd Unit 105C,Delray Beach,FL,33444,195000,2,2.0,,965,,1986,,202,,,,,https://www.redfin.com/FL/Delray-Beach/905-Southridge-Rd-33444/unit-105C/home/42588900,,,N,Y,26.4412286,-80.082505
PAST SALE,,Condo/Co-op,2501 S Ocean Blvd #2040,Boca Raton,FL,33432,435000,2,2.0,,960,,1964,,453,,,,,https://www.redfin.com/FL/Boca-Raton/2501-S-Ocean-Blvd-33432/unit-2040/home/42330064,,,N,Y,26.3272036,-80.0756243
PAST SALE,,Condo/Co-op,1532 Bridgewood Dr #1532,Boca Raton,FL,33434,75000,2,2.0,,1255,,1974,,60,,,,,https://www.redfin.com/FL/Boca-Raton/1532-Bridgewood-Dr-33434/unit-1532/home/42256254,,,N,Y,26.3737873,-80.1646862
PAST SALE,April-18-2023,Condo/Co-op,300 S Australian Ave #1219,West Palm Beach,FL,33401,402500,2,2.0,Edge Condo,1222,,2007,,329,981,Sold,,,https://www.redfin.com/FL/West-Palm-Beach/300-S-Australian-Ave-33401/unit-1219/home/42660248,Beaches MLS,RX-10883320,N,Y,26.7117343,-80.0640134
PAST SALE,,Condo/Co-op,555 Banyan Tree Ln #8,Delray Beach,FL,33483,162500,,1.0,,520,,1961,,313,,,,,https://www.redfin.com/FL/Delray-Beach/555-Banyan-Tree-Ln-33483/unit-8/home/42369549,,,N,Y,26.4421794,-80.0686186
PAST SALE,,Condo/Co-op,1035 S Federal Hwy #23,Delray Beach,FL,33483,1125000,2,2.5,,2778,,1982,,405,,,,,https://www.redfin.com/FL/Delray-Beach/1035-S-Federal-Hwy-33483/unit-23/home/42642049,,,N,Y,26.4456855,-80.0668944
PAST SALE,,Condo/Co-op,1 Harbourside Dr #4207,Delray Beach,FL,33483,445000,3,2.0,,1420,,1982,,313,,,,,https://www.redfin.com/FL/Delray-Beach/1-Harbourside-Dr-33483/unit-4207/home/42369123,,,N,Y,26.4433135,-80.0668944
PAST SALE,,Condo/Co-op,336 Oak Harbour Dr,Juno Beach,FL,33408,525000,3,3.0,,1606,,1985,,327,,,,,https://www.redfin.com/FL/Juno-Beach/336-Oak-Harbour-Dr-33408/home/42396755,,,N,Y,26.8597697,-80.0656826
PAST SALE,April-25-2023,Condo/Co-op,1901 S Ocean Blvd #15,Delray Beach,FL,33483,9945000,5,6.5,Ocean Delray Condo,4473,,2021,,2223,4950,Sold,,,https://www.redfin.com/FL/Delray-Beach/1901-S-Ocean-Blvd-33483/unit-15/home/178526304,Beaches MLS,RX-10864067,N,Y,26.437913,-80.061863
PAST SALE,,Condo/Co-op,99 Dorset C,Boca Raton,FL,33434,110000,2,1.5,,835,,1979,,132,,,,,https://www.redfin.com/FL/Boca-Raton/99-Dorset-C-33434/home/42251986,,,N,Y,26.382722,-80.179023
PAST SALE,,Condo/Co-op,6300 NW 2nd Ave #3060,Boca Raton,FL,33487,320000,2,2.0,,1300,,1979,,246,,,,,https://www.redfin.com/FL/Boca-Raton/6300-NW-2nd-Ave-33487/unit-3060/home/42634650,,,N,Y,26.4065979,-80.0817195
PAST SALE,April-14-2023,Condo/Co-op,2649 Florida Blvd #214,Delray Beach,FL,33483,410000,2,2.0,Tropic Bay Condo,1200,,1972,,342,682,Sold,,,https://www.redfin.com/FL/Delray-Beach/2649-Florida-Blvd-33483/unit-214/home/42645123,Beaches MLS,RX-10881691,N,Y,26.4304029,-80.069418
PAST SALE,,Condo/Co-op,3047 Exeter C,Boca Raton,FL,33434,165000,2,1.5,,880,,1979,,188,,,,,https://www.redfin.com/FL/Boca-Raton/3047-Exeter-C-33434/home/42244376,,,N,Y,26.3859518,-80.1779967
PAST SALE,,Condo/Co-op,4120 Tivoli Ct #201,Lake Worth,FL,33467,132500,1,1.0,,780,,1974,,170,,,,,https://www.redfin.com/FL/Lake-Worth/4120-Tivoli-Ct-33467/unit-201/home/42174743,,,N,Y,26.6150554,-80.1507856
PAST SALE,May-31-2023,Condo/Co-op,651 Okeechobee Blvd #1107,West Palm Beach,FL,33401,368000,1,1.0,Tower Condo AT Cityplace,747,,2001,,493,613,Sold,,,https://www.redfin.com/FL/West-Palm-Beach/651-Okeechobee-Blvd-33401/unit-1107/home/42594526,Beaches MLS,RX-10887209,N,Y,26.7065665,-80.0579309
PAST SALE,,Condo/Co-op,198 Saxony E,Delray Beach,FL,33446,140000,1,1.5,,760,,1974,,184,,,,,https://www.redfin.com/FL/Delray-Beach/198-Saxony-E-33446/home/42224280,,,N,Y,26.4395472,-80.1472092
PAST SALE,May-31-2023,Condo/Co-op,2 Water Club Way #1401,North Palm Beach,FL,33408,3825000,3,4.0,Water Club North Palm Beach Condo,2445,,2016,,1564,1936,Sold,,,https://www.redfin.com/FL/North-Palm-Beach/2-Water-Club-Way-33408/unit-1401/home/64099877,Beaches MLS,RX-10893582,N,Y,26.837471,-80.0597334
PAST SALE,,Condo/Co-op,55 Tropic Isle Dr Unit 36U,Delray Beach,FL,33483,238000,2,2.0,,899,,1984,,265,,,,,https://www.redfin.com/FL/Delray-Beach/55-Tropic-Isle-Dr-33483/unit-36U/home/42373845,,,N,Y,26.4239283,-80.0723504
PAST SALE,,Condo/Co-op,356 Golfview Rd #406,North Palm Beach,FL,33408,675000,3,2.5,,1726,,1984,,391,,,,,https://www.redfin.com/FL/North-Palm-Beach/356-Golfview-Rd-33408/unit-406/home/42481374,,,N,Y,26.8352951,-80.0622563
PAST SALE,,Condo/Co-op,700 Executive Center Dr #13,West Palm Beach,FL,33401,165000,1,1.0,,502,,1986,,329,,,,,https://www.redfin.com/FL/West-Palm-Beach/700-Executive-Center-Dr-33401/unit-13/home/42612137,,,N,Y,26.7123612,-80.0742276
PAST SALE,April-12-2023,Condo/Co-op,233 S Federal Hwy Unit Uph09,Boca Raton,FL,33432,950000,3,2.0,Boca Grand Condo,1581,,2003,,601,1257,Sold,,,https://www.redfin.com/FL/Boca-Raton/233-S-Federal-Hwy-33432/unit-UPH09/home/42580493,Beaches MLS,RX-10881270,N,Y,26.3475568,-80.0869048
PAST SALE,,Condo/Co-op,4835 Sable Pine Cir Unit D1,West Palm Beach,FL,33417,150000,2,2.0,,1115,,1982,,135,,,,,https://www.redfin.com/FL/West-Palm-Beach/4835-Sable-Pine-Cir-33417/unit-D1/home/42135813,,,N,Y,26.7275256,-80.1153559
PAST SALE,,Condo/Co-op,1033 Newcastle B,Boca Raton,FL,33434,200000,2,2.0,,916,,1981,,218,,,,,https://www.redfin.com/FL/Boca-Raton/1033-Newcastle-B-33434/home/42630754,,,N,Y,26.3898645,-80.1756274
PAST SALE,,Condo/Co-op,2794 Tennis Club Dr #406,West Palm Beach,FL,33417,135000,,1.0,,540,,1978,,250,,,,,https://www.redfin.com/FL/West-Palm-Beach/2794-Tennis-Club-Dr-33417/unit-406/home/42143969,,,N,Y,26.718446,-80.1164902
PAST SALE,,Condo/Co-op,110 Fanshaw C,Boca Raton,FL,33434,125000,1,1.5,,715,,1979,,175,,,,,https://www.redfin.com/FL/Boca-Raton/110-Fanshaw-C-33434/home/42632261,,,N,Y,26.384826,-80.174459
PAST SALE,,Condo/Co-op,773 Jeffery St Unit 4-201,Boca Raton,FL,33487,420000,2,2.0,,925,,1976,,454,,,,,https://www.redfin.com/FL/Boca-Raton/773-Jeffery-St-33487/unit-4-201/home/42314272,,,N,Y,26.4035991,-80.0727654
PAST SALE,,Condo/Co-op,170 Horizons E #209,Boynton Beach,FL,33435,198000,1,1.5,,705,,1967,,281,,,,,https://www.redfin.com/FL/Boynton-Beach/170-Horizons-E-33435/unit-209/home/42342513,,,N,Y,26.525967,-80.054717
PAST SALE,,Condo/Co-op,899 Jeffery St #2060,Boca Raton,FL,33487,329000,1,1.5,,998,,1978,,330,,,,,https://www.redfin.com/FL/Boca-Raton/899-Jeffery-St-33487/unit-2060/home/42311769,,,N,Y,26.4036762,-80.0691478
PAST SALE,April-18-2023,Condo/Co-op,7701 Glendevon Ln #1902,Delray Beach,FL,33446,305000,2,2.0,Gleneagles Condo I,1260,43560,1986,,242,407,Sold,,,https://www.redfin.com/FL/Delray-Beach/7701-Glendevon-Ln-33446/unit-1902/home/42227822,Beaches MLS,RX-10869888,N,Y,26.4463062,-80.1664498
PAST SALE,March-27-2023,Condo/Co-op,15830 Loch Maree Ln #3103,Delray Beach,FL,33446,649900,2,2.0,Gleneagles Condo Iii,1688,43560,1986,,385,478,Sold,,,https://www.redfin.com/FL/Delray-Beach/15830-Loch-Maree-Ln-33446/unit-3103/home/42220754,Beaches MLS,RX-10870493,N,Y,26.4435424,-80.1696611
PAST SALE,,Condo/Co-op,316 Southwind Ct #105,North Palm Beach,FL,33408,405000,2,2.0,,899,,1981,,451,,,,,https://www.redfin.com/FL/North-Palm-Beach/316-Southwind-Ct-33408/unit-105/home/42477667,,,N,Y,26.808843,-80.0666931
PAST SALE,,Condo/Co-op,147 Dorset D,Boca Raton,FL,33434,87000,1,1.0,,601,,1979,,145,,,,,https://www.redfin.com/FL/Boca-Raton/147-Dorset-D-33434/home/42632982,,,N,Y,26.382722,-80.179023
PAST SALE,,Condo/Co-op,525 S Flagler Dr Unit 9C,West Palm Beach,FL,33401,3200000,4,4.5,,4018,,1986,,796,,,,,https://www.redfin.com/FL/West-Palm-Beach/525-S-Flagler-Dr-33401/unit-9C/home/42518259,,,N,Y,26.708413,-80.0511347
PAST SALE,April-28-2023,Condo/Co-op,2700 N Ocean Dr Unit 2502a,Singer Island,FL,33404,4700000,3,3.5,2700 North Ocean Condo,3950,,2008,,1190,5137,Sold,,,https://www.redfin.com/FL/Riviera-Beach/2700-N-Ocean-Dr-33404/unit-2502A/home/42662237,Beaches MLS,RX-10883152,N,Y,26.7849775,-80.0341495
PAST SALE,,Condo/Co-op,3400 Springdale Blvd #312,Palm Springs,FL,33461,75000,1,1.0,,660,,1980,,114,,,,,https://www.redfin.com/FL/Palm-Springs/3400-Springdale-Blvd-33461/unit-312/home/42489018,,,N,Y,26.6472905,-80.1029431
PAST SALE,,Condo/Co-op,4073 Wolverton D,Boca Raton,FL,33434,238000,2,2.0,,1032,,1982,,231,,,,,https://www.redfin.com/FL/Boca-Raton/4073-Wolverton-D-33434/home/42246807,,,N,Y,26.3892358,-80.1813766
PAST SALE,,Condo/Co-op,23370 Carolwood Ln #206,Boca Raton,FL,33428,250000,2,2.0,,1160,,1979,,216,,,,,https://www.redfin.com/FL/Boca-Raton/23370-Carolwood-Ln-33428/unit-206/home/42272119,,,N,Y,26.3290748,-80.1978408
PAST SALE,,Condo/Co-op,101 N Clematis St #515,West Palm Beach,FL,33401,577200,1,1.5,,948,,2001,,609,,,,,https://www.redfin.com/FL/West-Palm-Beach/101-N-Clematis-St-33401/unit-515/home/42613957,,,N,Y,26.7140136,-80.0504362
PAST SALE,May-30-2023,Condo/Co-op,250 NE 3 Ave #1209,Delray Beach,FL,33444,630000,1,1.0,Pineapple Grove Condo,1182,,2004,,533,398,Sold,,,https://www.redfin.com/FL/Delray-Beach/250-NE-3rd-Ave-33444/unit-1209/home/42608871,Beaches MLS,RX-10893287,N,Y,26.4661338,-80.0703428
PAST SALE,,Condo/Co-op,600 S Ocean Blvd #8020,Boca Raton,FL,33432,725118,1,1.5,,1120,,1970,,647,,,,,https://www.redfin.com/FL/Boca-Raton/600-S-Ocean-Blvd-33432/unit-8020/home/42330065,,,N,Y,26.3433079,-80.0709442
PAST SALE,,Condo/Co-op,348 S US Highway 1 #32,Jupiter,FL,33477,150000,,,,,,2002,,,,,,,https://www.redfin.com/FL/Jupiter/348-S-US-Highway-1-33477/unit-32/home/133668777,,,N,Y,26.9367485,-80.0825731
PAST SALE,May-10-2023,Condo/Co-op,501 Lakeshore Dr #101,Lake Park,FL,33403,415000,2,2.0,Lake Harbour Towers,1316,,1970,,315,626,Sold,,,https://www.redfin.com/FL/Lake-Park/501-Lake-Shore-Dr-33403/unit-101/home/42416361,Beaches MLS,RX-10864465,N,Y,26.7970313,-80.0528535
PAST SALE,,Condo/Co-op,3705 S Flagler Dr #34,West Palm Beach,FL,33405,172500,1,1.0,,690,,1985,,250,,,,,https://www.redfin.com/FL/West-Palm-Beach/3705-S-Flagler-Dr-33405/unit-34/home/42525805,,,N,Y,26.6779743,-80.0490123
PAST SALE,,Condo/Co-op,1401 S Ocean Blvd #3070,Boca Raton,FL,33432,775000,3,3.0,,2281,,1982,,340,,,,,https://www.redfin.com/FL/Boca-Raton/1401-S-Ocean-Blvd-33432/unit-3070/home/42326773,,,N,Y,26.3307453,-80.0753624
PAST SALE,June-1-2023,Condo/Co-op,6245 Graycliff Dr Unit A,Boca Raton,FL,33496,775000,3,2.0,Solana / Polo Club,2008,,1995,,386,666,Sold,,,https://www.redfin.com/FL/Boca-Raton/6245-Graycliff-Dr-33496/unit-A/home/42244588,Beaches MLS,RX-10885952,N,Y,26.4236819,-80.1441231
PAST SALE,,Condo/Co-op,76 Sussex D,West Palm Beach,FL,33417,130555,2,1.5,,814,,1974,,160,,,,,https://www.redfin.com/FL/West-Palm-Beach/76-Sussex-D-33417/home/42161468,,,N,Y,26.7201608,-80.1341952
PAST SALE,,Condo/Co-op,114 Somerset F,West Palm Beach,FL,33417,95000,2,2.0,,816,,1972,,116,,,,,https://www.redfin.com/FL/West-Palm-Beach/114-Somerset-F-33417/home/42142352,,,N,Y,26.7140491,-80.1309576
PAST SALE,April-25-2023,Condo/Co-op,133 Norwich F,West Palm Beach,FL,33417,130000,2,1.5,"Centuryy Village, Norwich Condo",819,43560,1970,,159,422,Sold,,,https://www.redfin.com/FL/West-Palm-Beach/133-Norwich-F-33417/home/42153149,Beaches MLS,RX-10870498,N,Y,26.7200405,-80.1201729
PAST SALE,March-24-2023,Condo/Co-op,428 Windsor S #428,West Palm Beach,FL,33417,100000,1,1.5,Century Village Windsor s,702,,1972,,142,468,Sold,,,https://www.redfin.com/FL/West-Palm-Beach/428-Windsor-S-33417/unit-428/home/130670091,Beaches MLS,RX-10866760,N,Y,26.7121911,-80.1349308
PAST SALE,,Condo/Co-op,157 Tuscany C #157,Delray Beach,FL,33446,212500,2,2.0,,883,,1973,,241,,,,,https://www.redfin.com/FL/Delray-Beach/157-Tuscany-C-33446/unit-157/home/42231448,,,N,Y,26.448051,-80.153636
PAST SALE,,Condo/Co-op,11302 Quail Covey Rd,Boynton Beach,FL,33436,595000,3,2.0,,1560,,1979,,381,,,,,https://www.redfin.com/FL/Boynton-Beach/11302-Quail-Covey-Rd-33436/home/42293534,,,N,Y,26.5123858,-80.1011105
PAST SALE,,Condo/Co-op,810 Lake Shore Dr #16,Lake Park,FL,33403,125000,1,1.0,,465,,1976,,269,,,,,https://www.redfin.com/FL/Lake-Park/810-Lake-Shore-Dr-33403/unit-16/home/42415061,,,N,Y,26.799489,-80.0537444
PAST SALE,,Condo/Co-op,22 Waltham a,West Palm Beach,FL,33417,60000,1,1.0,,615,,1968,,98,,,,,https://www.redfin.com/FL/West-Palm-Beach/22-Waltham-a-33417/home/42135044,,,N,Y,26.716811,-80.122574
PAST SALE,,Condo/Co-op,2040 Lincoln C,Boca Raton,FL,33434,192250,2,2.0,,916,,1980,,210,,,,,https://www.redfin.com/FL/Boca-Raton/2040-Lincoln-C-33434/home/42246801,,,N,Y,26.3893283,-80.173008
PAST SALE,,Condo/Co-op,14701 Cumberland Dr #1050,Delray Beach,FL,33446,200000,1,2.0,,866,,1979,,231,,,,,https://www.redfin.com/FL/Delray-Beach/14701-Cumberland-Dr-33446/unit-1050/home/42219151,,,N,Y,26.458005,-80.156415
PAST SALE,,Condo/Co-op,278 Seville L,Delray Beach,FL,33446,125000,1,1.5,,726,,1973,,172,,,,,https://www.redfin.com/FL/Delray-Beach/278-Seville-L-33446/home/42225003,,,N,Y,26.4475145,-80.1479415
PAST SALE,,Condo/Co-op,3680 Quail Ridge Dr N,Boynton Beach,FL,33436,550000,3,2.0,,1560,,1979,,353,,,,,https://www.redfin.com/FL/Boynton-Beach/3680-Quail-Ridge-Dr-N-33436/home/42295572,,,N,Y,26.5114244,-80.0995082
PAST SALE,,Condo/Co-op,4337 Quail Ridge Dr N Unit B,Boynton Beach,FL,33436,399000,2,2.0,,1325,,1975,,301,,,,,https://www.redfin.com/FL/Boynton-Beach/4337-Quail-Ridge-Dr-N-33436/unit-B/home/42209346,,,N,Y,26.512021,-80.11116
PAST SALE,,Condo/Co-op,371 Burgundy H,Delray Beach,FL,33484,122000,2,2.0,,907,,1979,,135,,,,,https://www.redfin.com/FL/Delray-Beach/371-Burgundy-H-33484/home/42230528,,,N,Y,26.445271,-80.131475
PAST SALE,May-26-2023,Condo/Co-op,3525 Village Blvd #404,West Palm Beach,FL,33409,230000,2,2.0,Whitehall Village,1385,,1985,,166,598,Sold,,,https://www.redfin.com/FL/West-Palm-Beach/3525-Village-Blvd-33409/unit-404/home/42517701,Beaches MLS,RX-10889958,N,Y,26.7422982,-80.0917722
PAST SALE,May-12-2023,Condo/Co-op,244 Windsor K,West Palm Beach,FL,33417,56400,1,1.0,Century Village,585,,1972,,96,480,Sold,,,https://www.redfin.com/FL/West-Palm-Beach/244-Windsor-K-33417/home/42136138,Beaches MLS,RX-10889288,N,Y,26.7107738,-80.1346348
PAST SALE,,Condo/Co-op,4078 Quail Ridge Dr N Unit A,Boynton Beach,FL,33436,350000,2,2.0,,1359,,1977,,258,,,,,https://www.redfin.com/FL/Boynton-Beach/4078-Quail-Ridge-Dr-N-33436/unit-A/home/42215942,,,N,Y,26.511833,-80.1079199
PAST SALE,,Vacant Land,1625 S Ocean Blvd #10,Delray Beach,FL,33483,7499000,,,,,51070,,,,,,,,https://www.redfin.com/FL/Delray-Beach/1625-S-Ocean-Blvd-33483/unit-10/home/174320000,,,N,Y,26.4409181,-80.0617068
PAST SALE,,Condo/Co-op,3526 Whitehall Dr #101,West Palm Beach,FL,33401,185000,2,2.0,,1385,,1984,,134,,,,,https://www.redfin.com/FL/West-Palm-Beach/3526-Whitehall-Dr-33401/unit-101/home/42511864,,,N,Y,26.7462131,-80.0865354
PAST SALE,,Condo/Co-op,219 Tuscany D,Delray Beach,FL,33446,151219,1,1.5,,726,,1973,,208,,,,,https://www.redfin.com/FL/Delray-Beach/219-Tuscany-D-33446/home/42221483,,,N,Y,26.4470641,-80.1548489
PAST SALE,May-12-2023,Condo/Co-op,371 Northampton S,West Palm Beach,FL,33417,80000,1,1.5,Century Village,684,,1972,,117,480,Sold,,,https://www.redfin.com/FL/West-Palm-Beach/371-Northampton-S-33417/home/42157605,Beaches MLS,RX-10889441,N,Y,26.7165784,-80.1338921
PAST SALE,May-12-2023,Condo/Co-op,25 Windsor B,West Palm Beach,FL,33417,80000,1,1.0,Century Village,585,,1972,,137,480,Sold,,,https://www.redfin.com/FL/West-Palm-Beach/25-Windsor-B-33417/home/42152988,Beaches MLS,RX-10889452,N,Y,26.7100569,-80.1360615
PAST SALE,,Condo/Co-op,4043 Cornwall C,Boca Raton,FL,33434,200000,2,1.5,,880,,1979,,227,,,,,https://www.redfin.com/FL/Boca-Raton/4043-Cornwall-C-33434/home/42247327,,,N,Y,26.387319,-80.180545
PAST SALE,May-12-2023,Condo/Co-op,215 Sussex K,West Palm Beach,FL,33417,80000,1,1.0,Century Village,570,,1974,,140,480,Sold,,,https://www.redfin.com/FL/West-Palm-Beach/215-Sussex-K-33417/home/42623526,Beaches MLS,RX-10889305,N,Y,26.7201608,-80.1341952
PAST SALE,,Condo/Co-op,6 Golfs Edge Unit D,West Palm Beach,FL,33417,160000,2,2.0,,900,,1969,,178,,,,,https://www.redfin.com/FL/West-Palm-Beach/6-Golfs-Edge-33417/unit-D/home/42140026,,,N,Y,26.713879,-80.1231866
PAST SALE,,Condo/Co-op,188 Lake Evelyn Dr,West Palm Beach,FL,33411,144000,1,1.5,,704,,1978,,205,,,,,https://www.redfin.com/FL/West-Palm-Beach/188-Lake-Evelyn-Dr-33411/home/42156084,,,N,Y,26.706611,-80.1673969
PAST SALE,,Condo/Co-op,1516 S Lakeside Dr #303,Lake Worth Beach,FL,33460,205000,1,1.5,,770,,1973,,266,,,,,https://www.redfin.com/FL/Lake-Worth-Beach/1516-S-Lakeside-Dr-33460/unit-303/home/42431284,,,N,Y,26.5966259,-80.0499559
PAST SALE,,Condo/Co-op,2604 Fairway Dr N,Jupiter,FL,33477,690000,2,2.0,,1346,,1990,,513,,,,,https://www.redfin.com/FL/Jupiter/2604-Fairway-Dr-N-33477/home/42409655,,,N,Y,26.939979,-80.074842
PAST SALE,May-1-2023,Condo/Co-op,6094 Forest Hill Blvd #103,West Palm Beach,FL,33415,120000,2,1.0,Forest Hill Gardens East Cond,728,,1980,,165,396,Sold,,,https://www.redfin.com/FL/West-Palm-Beach/6094-Forest-Hill-Blvd-33415/unit-103/home/42171596,Beaches MLS,RX-10878648,N,Y,26.6498729,-80.1386278
PAST SALE,June-2-2023,Condo/Co-op,19867 Planters Blvd Unit A,Boca Raton,FL,33434,667500,3,2.0,Charter Cay,1795,43560,1987,,372,1233,Sold,,,https://www.redfin.com/FL/Boca-Raton/19867-Planters-Blvd-33434/unit-A/home/42248679,Beaches MLS,RX-10870168,N,Y,26.3811016,-80.1565954
PAST SALE,April-28-2023,Condo/Co-op,17047 Boca Club Blvd Unit 122b,Boca Raton,FL,33487,455000,2,2.5,Spyglass Walk,2004,,1988,,227,1300,Sold,,,https://www.redfin.com/FL/Boca-Raton/17047-Boca-Club-Blvd-33487/unit-122B/home/42296035,Beaches MLS,RX-10878714,N,Y,26.4174,-80.102245
PAST SALE,,Condo/Co-op,420 Northlake Ct #1,North Palm Beach,FL,33408,499000,2,2.0,,1080,,1968,,462,,,,,https://www.redfin.com/FL/North-Palm-Beach/420-Northlake-Ct-33408/unit-1/home/42619000,,,N,Y,26.8109412,-80.0688505
PAST SALE,,Condo/Co-op,11790 Saint Andrews Pl #308,Wellington,FL,33414,480000,3,2.0,,1627,,2001,,295,,,,,https://www.redfin.com/FL/Wellington/11790-Saint-Andrews-Pl-33414/unit-308/home/42595434,,,N,Y,26.6506705,-80.2329591
PAST SALE,,Condo/Co-op,635 SW 20th Ct #0090,Delray Beach,FL,33445,105000,1,1.0,,566,,1977,,186,,,,,https://www.redfin.com/FL/Delray-Beach/635-SW-20th-Ct-33445/unit-0090/home/42372755,,,N,Y,26.4504845,-80.0928313
PAST SALE,,Condo/Co-op,3516 Briar Bay Blvd #205,West Palm Beach,FL,33411,180000,2,2.0,,910,,2003,,198,,,,,https://www.redfin.com/FL/West-Palm-Beach/3516-Briar-Bay-Blvd-33411/unit-205/home/42591008,,,N,Y,26.7293761,-80.1398708
PAST SALE,April-11-2023,Condo/Co-op,500 Execuative Center Drive Dr NE Unit 5-E,West Palm Beach,FL,33401,150000,2,2.0,Breakwaters OF The Palm Beaches,1133,,1979,,132,513,Sold,,,https://www.redfin.com/FL/West-Palm-Beach/500-Executive-Center-Dr-33401/unit-5E/home/42526331,Beaches MLS,RX-10874654,N,Y,26.7125019,-80.0774611
PAST SALE,,Condo/Co-op,21 Crossings Cir Unit G,Boynton Beach,FL,33435,242000,2,2.0,,953,,1985,,254,,,,,https://www.redfin.com/FL/Boynton-Beach/21-Crossings-Cir-33435/unit-G/home/42336600,,,N,Y,26.5504795,-80.0566575
PAST SALE,,Condo/Co-op,5657 Via Delray,Delray Beach,FL,33484,240000,2,2.0,,1381,,1981,,174,,,,,https://www.redfin.com/FL/Delray-Beach/5657-Via-Delray-33484/home/42217398,,,N,Y,26.4778759,-80.138253
PAST SALE,,Condo/Co-op,1395 SW 27th Ave #101,Delray Beach,FL,33445,300000,2,2.0,,1167,,1979,,257,,,,,https://www.redfin.com/FL/Delray-Beach/1395-SW-27th-Ave-33445/unit-101/home/42369904,,,N,Y,26.4418029,-80.1032623
PAST SALE,May-5-2023,Condo/Co-op,14773 Cumberland Dr Unit 102 D,Delray Beach,FL,33446,130000,2,2.0,Villages OF Oriole Deauville Condo,1006,,1980,,129,606,Sold,,,https://www.redfin.com/FL/Delray-Beach/14773-Cumberland-Dr-33446/unit-102-D/home/185342381,Beaches MLS,RX-10887377,N,Y,26.4578845,-80.1570928
PAST SALE,,Condo/Co-op,2159 Wingate Bnd,Wellington,FL,33414,320000,3,2.0,,1550,,2006,,206,,,,,https://www.redfin.com/FL/Wellington/2159-Wingate-Bnd-33414/home/42659167,,,N,Y,26.651065,-80.2392799
PAST SALE,,Condo/Co-op,1302 New World Ave #3,Lantana,FL,33462,68760,1,1.0,,655,,1984,,105,,,,,https://www.redfin.com/FL/Lantana/1302-New-World-Ave-33462/unit-3/home/42431044,,,N,Y,26.590503,-80.0659593
PAST SALE,,Condo/Co-op,2727 S Ocean Blvd #806,Highland Beach,FL,33487,2750000,3,2.5,,2510,,1982,,1096,,,,,https://www.redfin.com/FL/Highland-Beach/2727-S-Ocean-Blvd-33487/unit-806/home/42392828,,,N,Y,26.4249437,-80.0631839
PAST SALE,,Condo/Co-op,2778 S Ocean Blvd #107,Palm Beach,FL,33480,810000,2,2.0,,1830,,1981,,443,,,,,https://www.redfin.com/FL/Palm-Beach/2778-S-Ocean-Blvd-33480/unit-107/home/42437746,,,N,Y,26.6199647,-80.0394771
PAST SALE,,Condo/Co-op,10330 Fox Trail Rd S #1203,Royal Palm Beach,FL,33411,230000,2,2.0,,1048,,1999,,219,,,,,https://www.redfin.com/FL/Royal-Palm-Beach/10330-Fox-Trail-Rd-S-33411/unit-1203/home/42605704,,,N,Y,26.707151,-80.205053
PAST SALE,,Condo/Co-op,7099 Rain Forest Dr Unit B-3-L,Boca Raton,FL,33434,290000,2,2.0,,1248,,1983,,232,,,,,https://www.redfin.com/FL/Boca-Raton/7099-Rain-Forest-Dr-33434/unit-B-3-L/home/42248509,,,N,Y,26.3811523,-80.1534602
PAST SALE,May-12-2023,Condo/Co-op,287 Norwich L #287,West Palm Beach,FL,33417,80000,2,1.5,Century Village,819,43560,1970,,98,480,Sold,,,https://www.redfin.com/FL/West-Palm-Beach/287-Norwich-L-33417/unit-287/home/77462565,Beaches MLS,RX-10889445,N,Y,26.7200405,-80.1201729
PAST SALE,April-17-2023,Condo/Co-op,7465 Glendevon Ln #1205,Delray Beach,FL,33446,465000,2,2.0,Gleneagles Condo I,1728,43560,1985,,269,485,Sold,,,https://www.redfin.com/FL/Delray-Beach/7465-Glendevon-Ln-33446/unit-1205/home/42225957,Beaches MLS,RX-10865501,N,Y,26.446702,-80.1640004
PAST SALE,,Condo/Co-op,3040 Lake Shore Dr #404,Riviera Beach,FL,33404,390000,2,2.0,,1440,,1978,,271,,,,,https://www.redfin.com/FL/Riviera-Beach/3040-Lake-Shore-Dr-33404/unit-404/home/42462606,,,N,Y,26.787431,-80.051028
PAST SALE,April-24-2023,Condo/Co-op,256 Norwich K,West Palm Beach,FL,33417,130000,2,1.5,Century Village,819,43560,1970,,159,480,Sold,,,https://www.redfin.com/FL/West-Palm-Beach/256-Norwich-K-33417/home/42140735,Beaches MLS,RX-10875618,N,Y,26.719944,-80.120176
PAST SALE,,Condo/Co-op,319 Burgundy G #319,Delray Beach,FL,33484,135000,1,1.5,,760,,1979,,178,,,,,https://www.redfin.com/FL/Delray-Beach/319-Burgundy-G-33484/unit-319/home/42235538,,,N,Y,26.445271,-80.131475
PAST SALE,March-31-2023,Condo/Co-op,17 Eastgate Dr Unit B,Boynton Beach,FL,33436,435000,3,2.0,Eastgate II AT Hunters Run Condo,2106,,1987,,207,1091,Sold,,,https://www.redfin.com/FL/Boynton-Beach/17-Eastgate-Dr-33436/unit-B/home/42583842,Beaches MLS,RX-10867697,N,Y,26.487921,-80.096275
PAST SALE,May-23-2023,Condo/Co-op,21 Stratford Dr Unit D,Boynton Beach,FL,33436,210000,2,2.0,Stratford AT Hunters Run Condo,1647,,1980,,128,1042,Sold,,,https://www.redfin.com/FL/Boynton-Beach/21-Stratford-Dr-E-33436/unit-D/home/42338468,Beaches MLS,RX-10882593,N,Y,26.4857945,-80.1055562
PAST SALE,May-20-2023,Condo/Co-op,81 Waltham D,West Palm Beach,FL,33417,40000,1,1.5,Century Village,684,,1969,,58,500,Sold,,,https://www.redfin.com/FL/West-Palm-Beach/81-Waltham-D-33417/home/42141590,Beaches MLS,RX-10891372,N,Y,26.716811,-80.122574
PAST SALE,,Condo/Co-op,460 Southampton C,West Palm Beach,FL,33417,170000,2,1.5,,814,,1974,,209,,,,,https://www.redfin.com/FL/West-Palm-Beach/460-Southampton-C-33417/home/42158188,,,N,Y,26.707749,-80.123253
PAST SALE,,Condo/Co-op,722 Flanders P,Delray Beach,FL,33484,80000,1,1.5,,726,,1974,,110,,,,,https://www.redfin.com/FL/Delray-Beach/722-Flanders-P-33484/home/42226400,,,N,Y,26.440356,-80.141465
PAST SALE,,Condo/Co-op,14 Preston a,Boca Raton,FL,33434,140000,2,1.5,,835,,1981,,168,,,,,https://www.redfin.com/FL/Boca-Raton/14-Preston-a-33434/home/42243133,,,N,Y,26.392218,-80.178543
PAST SALE,,Condo/Co-op,1500 N Congress Ave Unit A301,West Palm Beach,FL,33401,195000,1,1.0,,495,,1980,,394,,,,,https://www.redfin.com/FL/West-Palm-Beach/1500-N-Congress-Ave-33401/unit-A301/home/42518254,,,N,Y,26.7273451,-80.08899
PAST SALE,,Condo/Co-op,410 Wilma Cir #407,Riviera Beach,FL,33404,300000,2,2.0,,859,,1973,,349,,,,,https://www.redfin.com/FL/Riviera-Beach/410-Wilma-Cir-33404/unit-407/home/42461586,,,N,Y,26.7864724,-80.0506762
PAST SALE,,Condo/Co-op,19657 Boca West Dr #4241,Boca Raton,FL,33434,290000,3,2.0,,1680,,1981,,173,,,,,https://www.redfin.com/FL/Boca-Raton/19657-Boca-West-Dr-33434/unit-4241/home/42248410,,,N,Y,26.3832621,-80.1638708
PAST SALE,,Condo/Co-op,689 NE 6th Ct #2070,Boynton Beach,FL,33435,245000,1,1.0,,703,,1978,,349,,,,,https://www.redfin.com/FL/Boynton-Beach/689-NE-6th-Ct-33435/unit-2070/home/42342982,,,N,Y,26.5328116,-80.0544944
PAST SALE,,Condo/Co-op,336 Golfview Rd Ph 12,North Palm Beach,FL,33408,565000,3,2.0,,1523,,1975,,371,,,,,https://www.redfin.com/FL/North-Palm-Beach/336-Golfview-Rd-33408/unit-12/home/42476129,,,N,Y,26.8341091,-80.0617434
PAST SALE,May-1-2023,Condo/Co-op,15838 Loch Maree Ln #3003,Delray Beach,FL,33446,699000,2,2.0,Gleneagles Condo Iii,1688,43560,1986,,414,478,Sold,,,https://www.redfin.com/FL/Delray-Beach/15838-Loch-Maree-Ln-33446/unit-3003/home/42222256,Beaches MLS,RX-10875829,N,Y,26.4434926,-80.1692933
PAST SALE,,Condo/Co-op,275 Palm Ave Unit B101,Jupiter,FL,33477,630000,2,2.0,,1250,,1988,,504,,,,,https://www.redfin.com/FL/Jupiter/275-Palm-Ave-33477/unit-B101/home/42413036,,,N,Y,26.931336,-80.073757
PAST SALE,,Condo/Co-op,13334 Polo Club Rd #324,Wellington,FL,33414,675000,1,2.0,,1400,,1979,,482,,,,,https://www.redfin.com/FL/Wellington/13334-Polo-Club-Rd-33414/unit-324/home/42502513,,,N,Y,26.6430278,-80.2570701
PAST SALE,May-16-2023,Condo/Co-op,6845 Willow Wood Dr #3061,Boca Raton,FL,33434,450000,2,2.0,Willow Wood Midrise Condo,1255,,1981,,359,734,Sold,,,https://www.redfin.com/FL/Boca-Raton/6845-Willow-Wood-Dr-33434/unit-3061/home/42249402,Beaches MLS,RX-10871183,N,Y,26.375667,-80.150429
PAST SALE,March-23-2023,Condo/Co-op,2077 Tigris Drive West,West Palm Beach,FL,33411,399000,3,2.5,Riverwalk,1611,,1999,,248,482,Sold,,,https://www.redfin.com/FL/West-Palm-Beach/2077-Tigris-Dr-33411/home/42506075,Beaches MLS,RX-10869948,N,Y,26.7102109,-80.1683514
PAST SALE,,Condo/Co-op,6200 NW 2nd Ave #4150,Boca Raton,FL,33487,335780,2,2.0,,1300,,1978,,258,,,,,https://www.redfin.com/FL/Boca-Raton/6200-NW-2nd-Ave-33487/unit-4150/home/42312855,,,N,Y,26.4052963,-80.0817347
PAST SALE,,Condo/Co-op,9205 Pecky Cypress Ln Unit 8E,Boca Raton,FL,33428,265000,2,2.0,,1266,,1979,,209,,,,,https://www.redfin.com/FL/Boca-Raton/9205-Pecky-Cypress-Ln-33428/unit-8E/home/42254338,,,N,Y,26.357778,-80.190357
PAST SALE,,Condo/Co-op,5380 N Ocean Dr Unit 14E,Riviera Beach,FL,33404,450000,2,2.0,,1580,,1975,,285,,,,,https://www.redfin.com/FL/Riviera-Beach/5380-N-Ocean-Dr-33404/unit-14E/home/42456137,,,N,Y,26.8077208,-80.0345886
PAST SALE,,Condo/Co-op,3540 S Ocean Blvd #403,South Palm Beach,FL,33480,385000,2,2.0,,1036,,1974,,372,,,,,https://www.redfin.com/FL/South-Palm-Beach/3540-S-Ocean-Blvd-33480/unit-403/home/42471278,,,N,Y,26.5919135,-80.0380359
PAST SALE,April-5-2023,Condo/Co-op,480 Hibiscus St #836,West Palm Beach,FL,33401,600000,2,2.0,City Palms Condo,1045,,2008,,574,738,Sold,,,https://www.redfin.com/FL/West-Palm-Beach/480-Hibiscus-St-33401/unit-836/home/42662846,Beaches MLS,RX-10868263,N,Y,26.7079724,-80.0545838
PAST SALE,,Condo/Co-op,1701 S Flagler Dr #502,West Palm Beach,FL,33401,1260000,3,2.0,,1776,,1973,,709,,,,,https://www.redfin.com/FL/West-Palm-Beach/1701-S-Flagler-Dr-33401/unit-502/home/42518823,,,N,Y,26.6987773,-80.0508291
PAST SALE,,Condo/Co-op,2647 Garden Dr N #102,Lake Worth,FL,33461,120000,2,2.0,,1080,,1968,,111,,,,,https://www.redfin.com/FL/Lake-Worth/2647-Garden-Dr-N-33461/unit-102/home/42287583,,,N,Y,26.6352921,-80.0826076
PAST SALE,,Condo/Co-op,21851 Arriba Real Unit J,Boca Raton,FL,33433,215000,2,2.0,,1216,,1979,,177,,,,,https://www.redfin.com/FL/Boca-Raton/21851-Arriba-Real-33433/unit-J/home/42259967,,,N,Y,26.3534242,-80.1854577
PAST SALE,,Condo/Co-op,529 S Flagler Dr Unit 24G,West Palm Beach,FL,33401,2200000,2,2.0,,1927,,1986,,1142,,,,,https://www.redfin.com/FL/West-Palm-Beach/529-S-Flagler-Dr-33401/unit-24G/home/42519717,,,N,Y,26.7083401,-80.0512298
PAST SALE,,Condo/Co-op,6 Royal Palm Way #111,Boca Raton,FL,33432,475000,2,2.0,,1130,,1976,,420,,,,,https://www.redfin.com/FL/Boca-Raton/6-Royal-Palm-Way-33432/unit-111/home/42332145,,,N,Y,26.326959,-80.093642
PAST SALE,,Condo/Co-op,300 John F Kennedy Dr Ph 1,Atlantis,FL,33462,350000,3,2.0,,1711,,1980,,205,,,,,https://www.redfin.com/FL/Atlantis/300-John-F-Kennedy-Dr-33462/unit-1/home/42294985,,,N,Y,26.5981933,-80.0934672
PAST SALE,,Condo/Co-op,10111 Quail Covey Rd,Boynton Beach,FL,33436,475000,2,2.0,,1300,,1981,,365,,,,,https://www.redfin.com/FL/Boynton-Beach/10111-Quail-Covey-Rd-33436/home/42302787,,,N,Y,26.5248681,-80.1025049
PAST SALE,,Condo/Co-op,275 Beach Rd Unit B101,Tequesta,FL,33469,930000,2,2.0,,1235,,1978,,753,,,,,https://www.redfin.com/FL/Tequesta/275-Beach-Rd-33469/unit-B101/home/42470572,,,N,Y,26.9537318,-80.0771244
PAST SALE,,Condo/Co-op,3605 S Ocean Blvd #118,South Palm Beach,FL,33480,185000,2,2.0,,1121,,1974,,165,,,,,https://www.redfin.com/FL/South-Palm-Beach/3605-S-Ocean-Blvd-33480/unit-118/home/42468908,,,N,Y,26.5872948,-80.0391275
PAST SALE,,Condo/Co-op,13 Royal Palm Way #2010,Boca Raton,FL,33432,382000,2,2.0,,1130,,1977,,338,,,,,https://www.redfin.com/FL/Boca-Raton/13-Royal-Palm-Way-33432/unit-2010/home/42332733,,,N,Y,26.3263231,-80.093496
PAST SALE,April-3-2023,Condo/Co-op,284 Village Blvd #9207,Tequesta,FL,33469,365000,2,2.0,Lighthouse Cove AT Tequesta Condo,1200,,2000,,304,438,Sold,,,https://www.redfin.com/FL/Tequesta/284-Village-Blvd-33469/unit-9207/home/42579777,Beaches MLS,RX-10878577,N,Y,26.9645169,-80.0903758
PAST SALE,,Condo/Co-op,233 Bay Colony Dr N,Juno Beach,FL,33408,425000,2,2.0,,1206,,1995,,352,,,,,https://www.redfin.com/FL/Juno-Beach/233-Bay-Colony-Dr-N-33408/home/42394184,,,N,Y,26.8612066,-80.0646433
PAST SALE,,Condo/Co-op,604 Waterside Dr,Hypoluxo,FL,33462,215000,2,2.0,,850,,1989,,253,,,,,https://www.redfin.com/FL/Hypoluxo/604-Waterside-Dr-33462/home/42392514,,,N,Y,26.555796,-80.056969
PAST SALE,April-20-2023,Condo/Co-op,362 Brackenwood Cir,Palm Beach Gardens,FL,33418,500000,2,2.0,Golf Villas,1366,,1981,,366,1577,Sold,,,https://www.redfin.com/FL/Palm-Beach-Gardens/362-Brackenwood-Cir-33418/home/42452577,Beaches MLS,RX-10878128,N,Y,26.8292005,-80.1467022
PAST SALE,,Condo/Co-op,97 Seville D,Delray Beach,FL,33446,160000,2,2.0,,883,,1974,,181,,,,,https://www.redfin.com/FL/Delray-Beach/97-Seville-D-33446/home/42225173,,,N,Y,26.452865,-80.150871
PAST SALE,,Condo/Co-op,710 Waterside Dr,Hypoluxo,FL,33462,197100,2,2.0,,850,,1989,,232,,,,,https://www.redfin.com/FL/Hypoluxo/710-Waterside-Dr-33462/home/42392091,,,N,Y,26.555796,-80.056969
PAST SALE,,Condo/Co-op,21213 Lago Cir Unit I,Boca Raton,FL,33433,265000,2,2.0,,1216,,1978,,218,,,,,https://www.redfin.com/FL/Boca-Raton/21213-Lago-Cir-33433/unit-I/home/42260641,,,N,Y,26.3592948,-80.1752567
PAST SALE,April-26-2023,Condo/Co-op,17 Eastgate Dr Unit C,Boynton Beach,FL,33436,399000,3,2.0,Eastgate II AT Hunters Run,1809,,1987,,221,2106,Sold,,,https://www.redfin.com/FL/Boynton-Beach/17-Eastgate-Dr-33436/unit-C/home/42350071,Beaches MLS,RX-10881429,N,Y,26.487921,-80.096275
PAST SALE,,Condo/Co-op,3402 Tuscany Way,Boynton Beach,FL,33435,319000,2,1.0,,996,,2002,,320,,,,,https://www.redfin.com/FL/Boynton-Beach/3402-Tuscany-Way-33435/home/42582285,,,N,Y,26.508021,-80.058289
PAST SALE,,Condo/Co-op,1504 Lake Crystal Dr Unit D,West Palm Beach,FL,33411,150000,2,2.0,,928,,1986,,162,,,,,https://www.redfin.com/FL/West-Palm-Beach/1504-Lake-Crystal-Dr-33411/unit-D/home/42169156,,,N,Y,26.7011647,-80.1698479
PAST SALE,April-17-2023,Condo/Co-op,4 Colonial Club Dr #105,Boynton Beach,FL,33435,300000,2,2.0,Colonial Club Condo Sec 2,1200,190,1973,,250,703,Sold,,,https://www.redfin.com/FL/Boynton-Beach/4-Colonial-Club-Dr-33435/unit-105/home/42351336,Beaches MLS,RX-10873996,N,Y,26.5026605,-80.0581855
PAST SALE,,Condo/Co-op,4201 N Ocean Blvd Unit C901,Boca Raton,FL,33431,30000,,,,1,,1988,,30000,,,,,https://www.redfin.com/FL/Boca-Raton/4201-N-Ocean-Blvd-33431/unit-C901/home/42321999,,,N,Y,26.3894164,-80.0694251
PAST SALE,May-26-2023,Condo/Co-op,792 Normandy Q #792,Delray Beach,FL,33484,100000,1,1.5,KINGS POINT NORMANDY COND,760,,1979,,132,537,Sold,,,https://www.redfin.com/FL/Delray-Beach/792-Normandy-Trl-33484/unit-792/home/185482570,MARMLS,A11391049,N,Y,26.4447792,-80.1366577
PAST SALE,,Condo/Co-op,620 Hummingbird Ln,Delray Beach,FL,33445,225000,2,2.0,,980,,1975,,230,,,,,https://www.redfin.com/FL/Delray-Beach/620-Hummingbird-Ln-33445/home/42642762,,,N,Y,26.4756845,-80.1195838
PAST SALE,,Condo/Co-op,10 Garden St Unit 203S,Jupiter,FL,33469,205000,2,2.0,,910,,1972,,225,,,,,https://www.redfin.com/FL/Jupiter/10-Garden-St-33469/unit-203S/home/42476232,,,N,Y,26.962959,-80.0979688
PAST SALE,,Condo/Co-op,21950 Soundview Ter #210,Boca Raton,FL,33433,235000,2,2.0,,950,,1985,,247,,,,,https://www.redfin.com/FL/Boca-Raton/21950-Soundview-Ter-33433/unit-210/home/42259320,,,N,Y,26.3515583,-80.1469509
PAST SALE,,Condo/Co-op,117 Mockingbird Ln,Delray Beach,FL,33445,187000,2,2.0,,980,,1973,,191,,,,,https://www.redfin.com/FL/Delray-Beach/117-Mockingbird-Ln-33445/home/42635231,,,N,Y,26.4743534,-80.1172755
PAST SALE,May-31-2023,Condo/Co-op,6748 Palmetto Cir S #102,Boca Raton,FL,33433,175000,2,2.0,Casa Nueva Condo,857,,1984,,204,300,Sold,,,https://www.redfin.com/FL/Boca-Raton/6748-Palmetto-Cir-S-33433/unit-102/home/42258624,Beaches MLS,RX-10893757,N,Y,26.3510062,-80.1504939
PAST SALE,,Condo/Co-op,4664 Kittiwake Ct,Boynton Beach,FL,33436,395000,2,2.0,,1300,,1979,,304,,,,,https://www.redfin.com/FL/Boynton-Beach/4664-Kittiwake-Ct-33436/home/42207486,,,N,Y,26.509302,-80.111706
PAST SALE,,Condo/Co-op,1900 Consulate Pl #2204,West Palm Beach,FL,33401,1200000,3,2.0,,2200,,1980,,545,,,,,https://www.redfin.com/FL/West-Palm-Beach/1900-Consulate-Pl-33401/unit-2204/home/42526923,,,N,Y,26.7315118,-80.0812328
PAST SALE,,Condo/Co-op,450 NW 20th St #1060,Boca Raton,FL,33431,269000,2,2.0,,936,,1980,,287,,,,,https://www.redfin.com/FL/Boca-Raton/450-NW-20th-St-33431/unit-1060/home/42321875,,,N,Y,26.3674154,-80.0947396
PAST SALE,,Condo/Co-op,4115 Oak Terrace Dr,Greenacres,FL,33463,220000,2,2.0,,883,,1981,,249,,,,,https://www.redfin.com/FL/Greenacres/4115-Oak-Terrace-Dr-33463/home/42392729,,,N,Y,26.610922,-80.139373
PAST SALE,,Condo/Co-op,2778 S Ocean Blvd #408,Palm Beach,FL,33480,1675000,2,2.0,,1542,,1981,,1086,,,,,https://www.redfin.com/FL/Palm-Beach/2778-S-Ocean-Blvd-33480/unit-408/home/42441791,,,N,Y,26.6199647,-80.0394771
PAST SALE,,Condo/Co-op,132 Amherst Ln,Lake Worth,FL,33467,116500,1,1.5,,902,,1983,,129,,,,,https://www.redfin.com/FL/Lake-Worth/132-Amherst-Ln-33467/home/42629496,,,N,Y,26.6247361,-80.1600753
PAST SALE,,Condo/Co-op,87 Hastings F,West Palm Beach,FL,33417,60000,1,1.5,,738,,1971,,81,,,,,https://www.redfin.com/FL/West-Palm-Beach/87-Hastings-F-33417/home/42138534,,,N,Y,26.722612,-80.1257689
PAST SALE,March-27-2023,Condo/Co-op,3000 N Ocean Dr Unit 35-H,Singer Island,FL,33404,1200000,2,2.0,Tiara,1620,,1977,,741,1591,Sold,,,https://www.redfin.com/FL/Riviera-Beach/3000-N-Ocean-Dr-33404/unit-35H/home/42458051,Beaches MLS,RX-10871828,N,Y,26.7868613,-80.0332519
PAST SALE,May-11-2023,Condo/Co-op,32 Clubhouse Ln,Boynton Beach,FL,33436,680000,2,2.0,Essex AT Hunters Run Condo,2765,,1989,,246,1412,Sold,,,https://www.redfin.com/FL/Boynton-Beach/32-Clubhouse-Ln-33436/home/42669543,Beaches MLS,RX-10886105,N,Y,26.4943906,-80.0981231
PAST SALE,,Condo/Co-op,3682 Quail Ridge Dr N,Boynton Beach,FL,33436,525000,2,2.0,,1300,,1979,,404,,,,,https://www.redfin.com/FL/Boynton-Beach/3682-Quail-Ridge-Dr-N-33436/home/42296571,,,N,Y,26.5114244,-80.0995082
PAST SALE,April-19-2023,Condo/Co-op,3011 W Linton Blvd Unit 210d,Delray Beach,FL,33445,190000,1,1.5,Lakeview Greens Condo 1,939,,1983,,202,404,Sold,,,https://www.redfin.com/FL/Delray-Beach/3011-Linton-Blvd-33445/unit-210D/home/42666765,Beaches MLS,RX-10882776,N,Y,26.4406831,-80.1071101
PAST SALE,,Condo/Co-op,1701 Village Blvd #305,West Palm Beach,FL,33409,170000,1,1.0,,707,,1994,,240,,,,,https://www.redfin.com/FL/West-Palm-Beach/1701-Village-Blvd-33409/unit-305/home/42668583,,,N,Y,26.7267083,-80.1018718
PAST SALE,,Condo/Co-op,370 Horizons E #308,Boynton Beach,FL,33435,177000,1,1.5,,700,,1967,,253,,,,,https://www.redfin.com/FL/Boynton-Beach/370-Horizons-E-33435/unit-308/home/42342050,,,N,Y,26.5241487,-80.0553362
PAST SALE,,Condo/Co-op,21726 Arriba Real Unit H,Boca Raton,FL,33433,210000,2,2.0,,1216,,1979,,173,,,,,https://www.redfin.com/FL/Boca-Raton/21726-Arriba-Real-33433/unit-H/home/42260824,,,N,Y,26.3503602,-80.1820576
PAST SALE,,Condo/Co-op,3211 Myrtlewood Cir E,Palm Beach Gardens,FL,33418,380000,2,1.0,,946,,2004,,402,,,,,https://www.redfin.com/FL/Palm-Beach-Gardens/3211-Myrtlewood-Cir-E-33418/home/42606006,,,N,Y,26.87368,-80.106316
PAST SALE,,Condo/Co-op,5961 NW 2nd Ave #4110,Boca Raton,FL,33487,250000,2,2.0,,1200,,1971,,208,,,,,https://www.redfin.com/FL/Boca-Raton/5961-NW-2nd-Ave-33487/unit-4110/home/42316473,,,N,Y,26.4031163,-80.0835848
PAST SALE,,Condo/Co-op,4100 N Ocean Dr #2204,Riviera Beach,FL,33404,1250000,2,3.5,,2011,,1986,,622,,,,,https://www.redfin.com/FL/Riviera-Beach/4100-N-Ocean-Dr-33404/unit-2204/home/42462225,,,N,Y,26.796137,-80.032796
PAST SALE,,Condo/Co-op,3400 S Ocean Blvd Unit 7BII,Palm Beach,FL,33480,1767500,3,2.5,,2119,,1979,,834,,,,,https://www.redfin.com/FL/Palm-Beach/3400-S-Ocean-Blvd-33480/unit-7BII/home/42442262,,,N,Y,26.5976974,-80.0373387
PAST SALE,,Condo/Co-op,164 Cambridge G,West Palm Beach,FL,33417,55000,1,1.0,,615,,1972,,89,,,,,https://www.redfin.com/FL/West-Palm-Beach/164-Cambridge-G-33417/home/42142160,,,N,Y,26.7203529,-80.1307635
PAST SALE,,Condo/Co-op,1110 Green Pine Blvd Unit A1,West Palm Beach,FL,33409,206000,2,2.0,,1064,,1985,,194,,,,,https://www.redfin.com/FL/West-Palm-Beach/1110-Green-Pine-Blvd-33409/unit-A1/home/42513563,,,N,Y,26.7290733,-80.1032027
PAST SALE,,Condo/Co-op,2444 Paul Rd,West Palm Beach,FL,33415,150000,2,2.0,,1284,,1978,,117,,,,,https://www.redfin.com/FL/West-Palm-Beach/2444-Paul-Rd-33415/home/42621410,,,N,Y,26.6420201,-80.1332193
PAST SALE,,Condo/Co-op,1500 N Congress Ave Unit A16,West Palm Beach,FL,33401,200000,2,1.0,,800,,1980,,250,,,,,https://www.redfin.com/FL/West-Palm-Beach/1500-N-Congress-Ave-33401/unit-A16/home/42520763,,,N,Y,26.7273451,-80.08899
PAST SALE,,Condo/Co-op,2066 N Ocean Blvd Unit 15NE,Boca Raton,FL,33431,1595000,2,2.0,,1801,,1970,,886,,,,,https://www.redfin.com/FL/Boca-Raton/2066-N-Ocean-Blvd-33431/unit-15NE/home/42322225,,,N,Y,26.3694049,-80.0682486
PAST SALE,,Condo/Co-op,3328 Lucerne Park Dr #822,Greenacres,FL,33467,223000,2,2.0,,1059,,1985,,211,,,,,https://www.redfin.com/FL/Greenacres/3328-Lucerne-Park-Dr-33467/unit-822/home/42378813,,,N,Y,26.631608,-80.147807
PAST SALE,,Condo/Co-op,2650 Lake Shore Dr #1001,Riviera Beach,FL,33404,398000,2,2.0,,1583,,2006,,251,,,,,https://www.redfin.com/FL/Riviera-Beach/2650-Lake-Shore-Dr-33404/unit-1001/home/42615839,,,N,Y,26.7840912,-80.0487569
PAST SALE,,Condo/Co-op,19355 Sabal Lake Dr #5031,Boca Raton,FL,33434,245000,1,1.5,,1104,,1984,,222,,,,,https://www.redfin.com/FL/Boca-Raton/19355-Sabal-Lake-Dr-33434/unit-5031/home/42256297,,,N,Y,26.3917213,-80.1575933
PAST SALE,,Condo/Co-op,2865 SW 22nd Ave #2030,Delray Beach,FL,33445,315000,2,2.0,,1133,,1980,,278,,,,,https://www.redfin.com/FL/Delray-Beach/2865-SW-22nd-Ave-33445/unit-2030/home/42374712,,,N,Y,26.4301391,-80.0964851
PAST SALE,,Condo/Co-op,310 Wellington C,West Palm Beach,FL,33417,200000,2,2.0,,1092,,1971,,183,,,,,https://www.redfin.com/FL/West-Palm-Beach/310-Wellington-C-33417/home/42156414,,,N,Y,26.7103681,-80.1302422
PAST SALE,April-20-2023,Condo/Co-op,5040 Rose Hill Dr #101,Boynton Beach,FL,33437,185000,2,2.0,Rosehill Condo,1100,,1985,,168,615,Sold,,,https://www.redfin.com/FL/Boynton-Beach/5040-Rose-Hill-Dr-33437/unit-101/home/42207014,Beaches MLS,RX-10872914,N,Y,26.5235004,-80.1243526
PAST SALE,May-31-2023,Condo/Co-op,353 Brittany H,Delray Beach,FL,33446,135000,2,2.0,Kings Point Brittany Condos,883,,1974,,153,501,Sold,,,https://www.redfin.com/FL/Delray-Beach/353-Brittany-H-33446/home/42223564,Beaches MLS,RX-10881554,N,Y,26.444317,-80.153314
PAST SALE,May-26-2023,Condo/Co-op,315 Tuscany F #315,Delray Beach,FL,33446,113000,1,1.5,Kings Point Tuscany B-g,872,,1973,,130,525,Sold,,,https://www.redfin.com/FL/Delray-Beach/315-Tuscany-Ln-33446/unit-315/home/104379933,Beaches MLS,RX-10884565,N,Y,26.448051,-80.153636
PAST SALE,March-27-2023,Condo/Co-op,4036 Exeter B,Boca Raton,FL,33434,167000,2,2.0,Century Village Condo,1168,43560,1979,,143,334,Sold,,,https://www.redfin.com/FL/Boca-Raton/4036-Exeter-B-33434/home/42248929,Beaches MLS,RX-10864735,N,Y,26.3841523,-80.1770325
PAST SALE,March-23-2023,Condo/Co-op,1111 Lake Ter #104,Boynton Beach,FL,33426,182500,2,2.0,Leisureville Lake Condo,962,43560,1973,,190,484,Sold,,,https://www.redfin.com/FL/Boynton-Beach/1111-Lake-Ter-33426/unit-104/home/184342782,Beaches MLS,RX-10867080,N,Y,26.5275842,-80.0850767
PAST SALE,,Condo/Co-op,13334 Polo Club Rd #224,Wellington,FL,33414,525000,1,2.0,,1400,,1979,,375,,,,,https://www.redfin.com/FL/Wellington/13334-Polo-Club-Rd-33414/unit-224/home/42506009,,,N,Y,26.6430278,-80.2570701
PAST SALE,April-17-2023,Condo/Co-op,40 Capri A,Delray Beach,FL,33484,270000,2,2.0,Kings Point Capri Condos,1023,,1979,,264,562,Sold,,,https://www.redfin.com/FL/Delray-Beach/40-Capri-a-33484/home/42229237,Beaches MLS,RX-10873246,N,Y,26.4433664,-80.1365067
PAST SALE,April-13-2023,Condo/Co-op,2182 NE 1st Way #202,Boynton Beach,FL,33435,100000,1,1.5,Village Royale Condo 7,632,,1970,,158,440,Sold,,,https://www.redfin.com/FL/Boynton-Beach/2182-NE-1st-Way-33435/unit-202/home/42336439,Beaches MLS,RX-10876539,N,Y,26.5491761,-80.0653884
PAST SALE,March-29-2023,Condo/Co-op,310 Brackenwood Cir,Palm Beach Gardens,FL,33418,400000,2,2.0,Golf Villas,1180,,1981,,339,487,Sold,,,https://www.redfin.com/FL/Palm-Beach-Gardens/310-Brackenwood-Cir-33418/home/42445051,Beaches MLS,RX-10872991,N,Y,26.8289861,-80.1479597
PAST SALE,March-15-2023,Condo/Co-op,344 Northampton Q,West Palm Beach,FL,33417,80000,1,1.0,Century Village,615,,1973,,130,481,Sold,,,https://www.redfin.com/FL/West-Palm-Beach/344-Northampton-Q-33417/home/42154618,Beaches MLS,RX-10863700,N,Y,26.7174157,-80.1335544
PAST SALE,March-21-2023,Condo/Co-op,304 Saxony G,Delray Beach,FL,33446,143000,2,2.0,Kings Point,907,,1974,,158,633,Sold,,,https://www.redfin.com/FL/Delray-Beach/304-Saxony-G-33446/home/42224957,Beaches MLS,RX-10859133,N,Y,26.440263,-80.150386
PAST SALE,April-13-2023,Condo/Co-op,2002 S Federal Hwy Unit H206,Boynton Beach,FL,33435,198500,2,2.0,Seagate OF Gulfstream Condo,963,,1973,,206,568,Sold,,,https://www.redfin.com/FL/Boynton-Beach/2002-S-Federal-Hwy-33435/unit-H-206/home/172851125,Beaches MLS,RX-10863442,N,Y,26.548989,-80.0559469
PAST SALE,May-12-2023,Condo/Co-op,203 Foxtail Dr Unit H2,Greenacres,FL,33415,225000,2,2.0,Charter Club OF Palm Beach Condo,1005,,1985,,224,345,Sold,,,https://www.redfin.com/FL/Greenacres/203-Foxtail-Dr-33415/unit-H2/home/42382972,Beaches MLS,RX-10884994,N,Y,26.6445728,-80.1449954
PAST SALE,April-28-2023,Condo/Co-op,349 Fanshaw I #349,Boca Raton,FL,33434,140000,2,1.5,Century Village,835,,1980,,168,319,Sold,,,https://www.redfin.com/FL/Boca-Raton/349-Fanshaw-I-33434/unit-349/home/128953348,Beaches MLS,F10371976,N,Y,26.3846006,-80.1748188
PAST SALE,April-14-2023,Condo/Co-op,1701 Presidential Way Unit A203,West Palm Beach,FL,33401,235000,1,2.0,4 PL 1 President Country Club (pb29p72),1173,,1971,,200,704,Sold,,,https://www.redfin.com/FL/West-Palm-Beach/1701-Presidential-Way-33401/unit-A203/home/42522195,Beaches MLS,RX-10874902,N,Y,26.7293007,-80.0841705
PAST SALE,April-25-2023,Condo/Co-op,6031 10th Ave N #219,Greenacres,FL,33463,180000,3,2.0,Laurels AT Sherwood Condo,1078,,1985,,167,335,Sold,,,https://www.redfin.com/FL/Greenacres/6031-10th-Ave-N-33463/unit-219/home/42604235,Beaches MLS,RX-10878217,N,Y,26.6326576,-80.1386852
PAST SALE,April-26-2023,Condo/Co-op,639 Executive Center Dr Unit O-206,West Palm Beach,FL,33401,180000,1,1.0,Eden Place,627,,1984,,287,366,Sold,,,https://www.redfin.com/FL/West-Palm-Beach/639-Executive-Center-Dr-33401/unit-O-206/home/42519781,Beaches MLS,RX-10876134,N,Y,26.7094292,-80.0760967
PAST SALE,,Condo/Co-op,6565 Emerald Dunes Dr #202,West Palm Beach,FL,33411,207500,1,1.0,,745,,2006,,279,,,,,https://www.redfin.com/FL/West-Palm-Beach/6565-Emerald-Dunes-Dr-33411/unit-202/home/42614588,,,N,Y,26.7110149,-80.1448209
PAST SALE,April-7-2023,Condo/Co-op,1820 N Congress Ave #107,West Palm Beach,FL,33401,148000,2,1.0,Presidential Golfview,850,,1981,,174,360,Sold,,,https://www.redfin.com/FL/West-Palm-Beach/1820-N-Congress-Ave-33401/unit-107/home/42647336,Beaches MLS,F10369824,N,Y,26.7311248,-80.0890229
PAST SALE,April-21-2023,Condo/Co-op,301 N L St #103,Lake Worth,FL,33460,165000,2,1.0,JO-MYRT SUITES CONDO AS I,734,,1973,,225,265,Sold,,,https://www.redfin.com/FL/Lake-Worth/301-N-L-St-33460/unit-103/home/42426782,MARMLS,A11367995,N,Y,26.6191359,-80.0545992
PAST SALE,April-27-2023,Condo/Co-op,2600 S Ocean Blvd Unit 201 N,Palm Beach,FL,33480,2916000,2,2.5,Twenty Six Hundred Cond,1976,,1977,,1476,2203,Sold,,,https://www.redfin.com/FL/Palm-Beach/2600-S-Ocean-Blvd-33480/unit-201/home/42436543,Beaches MLS,RX-10869958,N,Y,26.6259606,-80.037424
PAST SALE,May-25-2023,Condo/Co-op,405 Executive Center Dr #212,West Palm Beach,FL,33401,140000,1,1.0,Clear Lake Palms Condo,713,,1971,,196,330,Sold,,,https://www.redfin.com/FL/West-Palm-Beach/405-Executive-Center-Dr-33401/unit-212/home/42655103,Beaches MLS,F10376801,N,Y,26.7116715,-80.0786795
PAST SALE,March-27-2023,Condo/Co-op,186 Waterford H #186,Delray Beach,FL,33446,128000,1,1.5,Kings Point,726,,1973,,176,491,Sold,,,https://www.redfin.com/FL/Delray-Beach/186-Waterford-D-33446/unit-186/home/128667183,Beaches MLS,F10369477,N,Y,26.4482705,-80.1527977
PAST SALE,May-4-2023,Condo/Co-op,1618 Meadows Cir W,Boynton Beach,FL,33436,175000,1,1.0,Meadows ON The Green Condo,704,,1986,,249,246,Sold,,,https://www.redfin.com/FL/Boynton-Beach/1618-Meadows-Cir-W-33436/unit-1618/home/42601244,Beaches MLS,RX-10882264,N,Y,26.568686,-80.093886
PAST SALE,March-20-2023,Condo/Co-op,2307 Lakeview Dr W #2307,Royal Palm Beach,FL,33411,230000,2,2.0,Trails AT Royal Palm Beach Condo,1125,,1982,,204,370,Sold,,,https://www.redfin.com/FL/Royal-Palm-Beach/2307-Lakeview-Dr-W-33411/unit-2307/home/129162903,Beaches MLS,RX-10864772,N,Y,26.707838,-80.22523
PAST SALE,May-5-2023,Condo/Co-op,1 Westgate Ln Unit A,Boynton Beach,FL,33436,135000,2,2.0,Westgate AT Hunters Run Condo,1808,,1981,,75,845,Sold,,,https://www.redfin.com/FL/Boynton-Beach/1-Westgate-Ln-33436/unit-A/home/45092038,Beaches MLS,RX-10855772,N,Y,26.4873181,-80.110535
PAST SALE,April-7-2023,Condo/Co-op,5550 N Ocean Blvd #117,Ocean Ridge,FL,33435,285000,2,2.0,Crown Colony Club,960,,1969,,297,682,Sold,,,https://www.redfin.com/FL/Ocean-Ridge/5550-N-Ocean-Blvd-33435/unit-117/home/42431393,Beaches MLS,RX-10860180,N,Y,26.5127584,-80.0539899
PAST SALE,March-30-2023,Condo/Co-op,353 S Us Highway 1 Unit A6,Jupiter,FL,33477,330907,1,1.0,Plantation Villas Condo Filed 4-30-85,662,,1985,,500,635,Sold,,,https://www.redfin.com/FL/Jupiter/353-S-US-Highway-1-33477/unit-A6/home/42409227,Beaches MLS,RX-10869831,N,Y,26.9310124,-80.0768436
PAST SALE,May-9-2023,Condo/Co-op,15 Royal Palm Way #306,Boca Raton,FL,33432,285000,1,1.5,Boca Bayou,795,,1979,,358,535,Sold,,,https://www.redfin.com/FL/Boca-Raton/15-Royal-Palm-Way-33432/unit-306/home/184917166,Beaches MLS,RX-10878414,N,Y,26.326959,-80.093642
PAST SALE,May-1-2023,Condo/Co-op,356 Seville O,Delray Beach,FL,33446,125000,2,2.0,Kings Point Seville Condos,883,43560,1973,,142,614,Sold,,,https://www.redfin.com/FL/Delray-Beach/356-Seville-O-33446/home/42627067,Beaches MLS,RX-10871007,N,Y,26.452865,-80.150871
PAST SALE,May-8-2023,Condo/Co-op,5530 N Ocean Blvd #306,Ocean Ridge,FL,33435,395000,2,2.0,Kings Bay House Condo,930,,1969,,425,611,Sold,,,https://www.redfin.com/FL/Ocean-Ridge/5530-N-Ocean-Blvd-33435/unit-306/home/42439407,Beaches MLS,RX-10882483,N,Y,26.5120292,-80.0554668
PAST SALE,March-15-2023,Condo/Co-op,474 Brackenwood Ln S,Palm Beach Gardens,FL,33418,449000,2,2.0,Golf Villas,1366,,1985,,329,589,Sold,,,https://www.redfin.com/FL/Palm-Beach-Gardens/474-Brackenwood-Ln-S-33418/home/42668647,Beaches MLS,RX-10858110,N,Y,26.829913,-80.1448465
PAST SALE,May-2-2023,Condo/Co-op,702 Sunny Pine Way Unit D1,Greenacres,FL,33415,225000,2,2.0,Pine Ridge North Village Iii Condo,1111,,1984,,203,338,Sold,,,https://www.redfin.com/FL/Greenacres/702-Sunny-Pine-Way-33415/unit-D1/home/42378832,Beaches MLS,RX-10876140,N,Y,26.6382299,-80.1437125
PAST SALE,April-4-2023,Condo/Co-op,104 Palm Bay Cir Unit B,Palm Beach Gardens,FL,33418,750000,3,2.0,PALM BAY CLUB CONDO,2195,,2001,,342,558,Sold,,,https://www.redfin.com/FL/Palm-Beach-Gardens/104-Palm-Bay-Cir-33418/unit-B/home/42563603,MARMLS,A11347427,N,Y,26.8150254,-80.1089643
PAST SALE,June-5-2023,Condo/Co-op,5800 Camino Del Sol #301,Boca Raton,FL,33433,395000,2,2.0,Camino Real Village,1230,,1980,,321,498,Sold,,,https://www.redfin.com/FL/Boca-Raton/5800-Camino-del-Sol-33433/unit-301/home/42267912,Beaches MLS,RX-10888044,N,Y,26.3420782,-80.1347896
PAST SALE,April-27-2023,Condo/Co-op,10663 Ocean Palm Way #101,Boynton Beach,FL,33437,349900,3,2.0,Palm Chase Condo,1589,43560,1985,,220,633,Sold,,,https://www.redfin.com/FL/Boynton-Beach/10663-Ocean-Palm-Way-33437/unit-101/home/42201973,Beaches MLS,RX-10867791,N,Y,26.5179826,-80.12925
PAST SALE,April-19-2023,Condo/Co-op,720 S Sapodilla Ave #402,West Palm Beach,FL,33401,450000,2,2.0,COURTYARDS IN CITYPLACE C,1120,,2001,,402,655,Sold,,,https://www.redfin.com/FL/West-Palm-Beach/720-S-Sapodilla-Ave-33401/unit-402/home/42597354,MARMLS,A11360867,N,Y,26.7076013,-80.0586561
PAST SALE,May-16-2023,Condo/Co-op,490 NW 20th St #205,Boca Raton,FL,33431,250000,2,2.0,Casa Del Rio,936,,1980,,267,344,Sold,,,https://www.redfin.com/FL/Boca-Raton/490-NW-20th-St-33431/unit-205/home/42319934,Beaches MLS,RX-10883882,N,Y,26.3688453,-80.0943033
PAST SALE,March-10-2023,Condo/Co-op,7281 Amberly Ln #306,Delray Beach,FL,33446,165000,2,2.0,Huntington Lakes,1080,,1987,,153,588,Sold,,,https://www.redfin.com/FL/Delray-Beach/7281-Amberly-Ln-33446/unit-306/home/42219144,Beaches MLS,RX-10863289,N,Y,26.462305,-80.160807
PAST SALE,,Condo/Co-op,205 Mainsail Cir,Jupiter,FL,33477,1050000,2,2.0,,1624,,1989,,647,,,,,https://www.redfin.com/FL/Jupiter/205-Mainsail-Cir-33477/home/42410359,,,N,Y,26.9003421,-80.0600597
PAST SALE,April-14-2023,Condo/Co-op,132 Kent H #132,West Palm Beach,FL,33417,135000,1,1.5,Kent Condos Century Village,684,43560,1973,,197,407,Sold,,,https://www.redfin.com/FL/West-Palm-Beach/132-Kent-St-33417/unit-132/home/182165749,Beaches MLS,RX-10870387,N,Y,26.7164994,-80.1311824
PAST SALE,May-26-2023,Condo/Co-op,12616 Shoreline Dr Unit 102 A,Wellington,FL,33414,375000,3,2.0,Shores Of Wellington,1437,,2004,,261,431,Sold,,,https://www.redfin.com/FL/Wellington/12616-Shoreline-Dr-33414/unit-102A/home/42595585,Beaches MLS,RX-10883884,N,Y,26.6537733,-80.2459962
PAST SALE,May-11-2023,Condo/Co-op,802 Meadows Cir,Boynton Beach,FL,33436,242500,2,2.0,Meadows ON The Green Condominium,921,,1986,,263,313,Sold,,,https://www.redfin.com/FL/Boynton-Beach/802-Meadows-Cir-33436/home/42602788,Beaches MLS,RX-10883182,N,Y,26.568686,-80.093886
PAST SALE,April-18-2023,Condo/Co-op,14564 Canalview Dr Unit C,Delray Beach,FL,33484,140000,1,2.0,High Point West OF Delray,1168,,1982,,120,370,Sold,,,https://www.redfin.com/FL/Delray-Beach/14564-Canalview-Dr-33484/unit-C/home/42220271,Beaches MLS,RX-10870502,N,Y,26.4598138,-80.1269366
PAST SALE,May-22-2023,Condo/Co-op,1008 Green Pine Blvd Unit G2,West Palm Beach,FL,33409,250000,2,2.0,Palm Club Village I,1064,,1984,,235,408,Sold,,,https://www.redfin.com/FL/West-Palm-Beach/1008-Green-Pine-Blvd-33409/unit-G2/home/42505820,Beaches MLS,F10374611,N,Y,26.7300394,-80.1082278
PAST SALE,,Condo/Co-op,5005 Breckenridge Pl #4,West Palm Beach,FL,33417,92000,2,1.5,,963,,1985,,96,,,,,https://www.redfin.com/FL/West-Palm-Beach/5005-Breckenridge-Pl-33417/unit-4/home/42161792,,,N,Y,26.704504,-80.1211639
PAST SALE,May-24-2023,Condo/Co-op,18860 Argosy Dr,Boca Raton,FL,33496,229000,2,2.0,Whisper Walk,1022,43560,1985,,224,442,Sold,,,https://www.redfin.com/FL/Boca-Raton/18860-Argosy-Dr-33496/home/42242267,Beaches MLS,RX-10885556,N,Y,26.3984,-80.185671
PAST SALE,May-12-2023,Condo/Co-op,2951 Ashley Dr W Unit D,West Palm Beach,FL,33415,110000,1,1.5,Cresthaven Villas NO 7 Cond Decl IN,661,,1968,,166,351,Sold,,,https://www.redfin.com/FL/West-Palm-Beach/2951-Ashley-Dr-W-33415/unit-D/home/180550470,Beaches MLS,RX-10878242,N,Y,26.6336709,-80.1203729
PAST SALE,May-1-2023,Condo/Co-op,5480 N Ocean Dr Unit A2a,Singer Island,FL,33404,425000,1,1.5,Dunes Towers Condo,945,,1972,,450,1305,Sold,,,https://www.redfin.com/FL/Riviera-Beach/5480-N-Ocean-Dr-33404/unit-A2A/home/42457923,Beaches MLS,RX-10875703,N,Y,26.8111924,-80.0357027
PAST SALE,April-28-2023,Condo/Co-op,2905 Fairway Dr N,Jupiter,FL,33477,685000,2,2.5,Estuary AT Jupiter Dunes Condo,1195,,1990,,573,720,Sold,,,https://www.redfin.com/FL/Jupiter/2905-Fairway-Dr-N-33477/home/42406186,Beaches MLS,RX-10874280,N,Y,26.939979,-80.074842
PAST SALE,May-5-2023,Condo/Co-op,500 SE Mizner Blvd Unit A909,Boca Raton,FL,33432,925000,2,2.5,Townsend Place Condo,1802,,1998,,513,1840,Sold,,,https://www.redfin.com/FL/Boca-Raton/500-SE-Mizner-Blvd-33432/unit-A909/home/42541937,Beaches MLS,RX-10880650,N,Y,26.344995,-80.0847024
PAST SALE,March-10-2023,Condo/Co-op,7380 S Oriole Blvd #201,Delray Beach,FL,33446,249900,2,2.0,Huntington Towers,1500,,1989,,167,682,Sold,,,https://www.redfin.com/FL/Delray-Beach/7380-S-Oriole-Blvd-33446/unit-201/home/42218998,Beaches MLS,RX-10864334,N,Y,26.456845,-80.160464
PAST SALE,April-17-2023,Condo/Co-op,13682 Via Flora Unit F,Delray Beach,FL,33484,202000,2,2.0,Palm Greens AT Villa Del Ray Condo II,1021,43560,1974,,198,430,Sold,,,https://www.redfin.com/FL/Delray-Beach/13682-Via-Flora-33484/unit-F/home/42212962,Beaches MLS,RX-10871622,N,Y,26.476983,-80.131724
PAST SALE,May-18-2023,Condo/Co-op,14797 Cumberland Dr #2030,Delray Beach,FL,33446,194900,2,2.0,Villages OF Oriole Deauville Condo,1005,,1980,,194,600,Sold,,,https://www.redfin.com/FL/Delray-Beach/14797-Cumberland-Dr-33446/unit-2030/home/42226922,Beaches MLS,RX-10877575,N,Y,26.458005,-80.156415
PAST SALE,,Condo/Co-op,13132 Sentry Palm Ct Unit C,Delray Beach,FL,33484,250000,2,2.0,,1381,,1980,,181,,,,,https://www.redfin.com/FL/Delray-Beach/13132-Sentry-Palm-Ct-33484/unit-C/home/42211940,,,N,Y,26.4827311,-80.1341988
PAST SALE,March-20-2023,Condo/Co-op,120 Sparrow Dr #104,Royal Palm Beach,FL,33411,205000,2,2.0,Park View AT Palm Beach Condo,793,,1975,,259,325,Sold,,,https://www.redfin.com/FL/Royal-Palm-Beach/120-Sparrow-Dr-33411/unit-104/home/42600012,Beaches MLS,RX-10861934,N,Y,26.7003149,-80.2281107
PAST SALE,,Condo/Co-op,5201 NW 2nd Ave #3110,Boca Raton,FL,33487,340000,2,2.0,,1300,,1974,,262,,,,,https://www.redfin.com/FL/Boca-Raton/5201-NW-2nd-Ave-33487/unit-3110/home/42643186,,,N,Y,26.3967121,-80.0845933
PAST SALE,March-24-2023,Condo/Co-op,681 Brittany O,Delray Beach,FL,33446,170000,2,2.0,Kings Point,883,,1974,,193,522,Sold,,,https://www.redfin.com/FL/Delray-Beach/681-Brittany-O-33446/home/42230778,Beaches MLS,RX-10862445,N,Y,26.4414647,-80.1538136
PAST SALE,May-22-2023,Condo/Co-op,2037 Cornwall B,Boca Raton,FL,33434,186005,2,1.5,Century Village,861,,1979,,216,302,Sold,,,https://www.redfin.com/FL/Boca-Raton/2037-Cornwall-B-33434/home/42244285,Beaches MLS,RX-10878444,N,Y,26.3848285,-80.1812956
PAST SALE,May-17-2023,Condo/Co-op,149 Coventry G #149,West Palm Beach,FL,33417,78000,1,1.5,COVENTRY CONDO,646,,1969,,121,425,Sold,,,https://www.redfin.com/FL/West-Palm-Beach/149-Coventry-G-33417/unit-149/home/104440055,MARMLS,A11375490,N,Y,26.7192741,-80.1222863
PAST SALE,April-28-2023,Condo/Co-op,1801 N Flagler Dr #129,West Palm Beach,FL,33407,390000,2,2.0,Flagler Pointe Condominiums,1071,,2001,,364,739,Sold,,,https://www.redfin.com/FL/West-Palm-Beach/1801-N-Flagler-Dr-33407/unit-129/home/42590799,Beaches MLS,RX-10876087,N,Y,26.7293708,-80.0504798
PAST SALE,March-31-2023,Condo/Co-op,256 Burgundy F,Delray Beach,FL,33484,145100,2,2.0,Kings Point Burgundy Condos,907,43560,1979,,160,453,Sold,,,https://www.redfin.com/FL/Delray-Beach/256-Burgundy-F-33484/home/42228189,Beaches MLS,RX-10868365,N,Y,26.4441299,-80.1325995
PAST SALE,May-3-2023,Condo/Co-op,21365 Cypress Hammock Dr Unit 20l,Boca Raton,FL,33428,208000,2,2.0,Cypresses OF Boca Lago,1266,,1979,,164,554,Sold,,,https://www.redfin.com/FL/Boca-Raton/21365-Cypress-Hammock-Dr-33428/unit-20L/home/42252829,Beaches MLS,RX-10878123,N,Y,26.3581467,-80.1917347
PAST SALE,May-30-2023,Condo/Co-op,8 Colonial Club Dr #302,Boynton Beach,FL,33435,225000,1,1.5,Colonial Club Condo Sec 1,950,,1974,,237,642,Sold,,,https://www.redfin.com/FL/Boynton-Beach/8-Colonial-Club-Dr-33435/unit-302/home/42348678,Beaches MLS,RX-10884948,N,Y,26.5010188,-80.0585129
PAST SALE,April-7-2023,Condo/Co-op,1829 N A St. St #16,Lake Worth,FL,33460,120000,1,1.0,Enclave AT Crown Park Condominium,525,,1971,,229,285,Sold,,,https://www.redfin.com/FL/Lake-Worth/1829-N-A-St-33460/unit-16/home/42669777,Beaches MLS,RX-10873154,N,Y,26.6379354,-80.0650999
PAST SALE,April-5-2023,Condo/Co-op,2500 S Ocean Blvd Unit 2 D 3,Palm Beach,FL,33480,5250000,3,3.0,TWENTY FIVE HUNDRED SOUTH,2590,,1978,,2027,7306,Sold,,,https://www.redfin.com/FL/Palm-Beach/2500-S-Ocean-Blvd-33480/unit-2D3/home/42436225,MARMLS,A11345846,N,Y,26.6289539,-80.0376295
PAST SALE,March-10-2023,Condo/Co-op,6426 Emerald Dunes Dr #107,West Palm Beach,FL,33411,306000,2,2.0,Villas AT Emerald Dunes Condo,1141,43560,2006,,268,435,Sold,,,https://www.redfin.com/FL/West-Palm-Beach/6426-Emerald-Dunes-Dr-33411/unit-107/home/42600808,Beaches MLS,RX-10865844,N,Y,26.7098237,-80.1421169
PAST SALE,June-2-2023,Condo/Co-op,1200 Crestwood Ct S #1202,Royal Palm Beach,FL,33411,307000,3,2.0,Grand View AT Crestwood,1290,1290,2001,,238,353,Sold,,,https://www.redfin.com/FL/Royal-Palm-Beach/1200-Crestwood-Ct-S-33411/unit-1202/home/42589442,Beaches MLS,RX-10878472,N,Y,26.6848482,-80.2441287
PAST SALE,May-22-2023,Condo/Co-op,10354 Fox Trail Rd S #1505,Royal Palm Beach,FL,33411,215000,1,1.0,Spa AT Sunset Isles Condo,781,,1999,,275,301,Sold,,,https://www.redfin.com/FL/West-Palm-Beach/10354-Fox-Trail-Rd-S-33411/unit-1505/home/42648122,Beaches MLS,RX-10878704,N,Y,26.7074439,-80.2062047
PAST SALE,March-10-2023,Condo/Co-op,290 W Palmetto Park Rd #409,Boca Raton,FL,33432,235000,1,1.0,Boca Palms,700,,1972,,336,227,Sold,,,https://www.redfin.com/FL/Boca-Raton/290-W-Palmetto-Park-Rd-33432/unit-409/home/42331146,Beaches MLS,F10365794,N,Y,26.350105,-80.0912486
PAST SALE,March-8-2023,Condo/Co-op,651 Okeechobee Blvd #612,West Palm Beach,FL,33401,389375,2,1.0,Tower Condo AT Cityplace,990,,2001,,393,803,Sold,,,https://www.redfin.com/FL/West-Palm-Beach/651-Okeechobee-Blvd-33401/unit-612/home/42575339,Beaches MLS,RX-10865003,N,Y,26.7065665,-80.0579309
PAST SALE,April-27-2023,Condo/Co-op,7233 Promenade Dr #602,Boca Raton,FL,33433,444750,3,2.0,Promenade at Boca Pointe Condominium,1619,,1986,,275,1095,Sold,,,https://www.redfin.com/FL/Boca-Raton/7233-Promenade-Dr-33433/unit-602/home/42267538,Beaches MLS,RX-10871268,N,Y,26.3341066,-80.1588193
PAST SALE,April-14-2023,Condo/Co-op,5140 Floria Way Unit I,Boynton Beach,FL,33437,315000,2,2.0,Platina / Giardino Village,1657,,1994,,190,650,Sold,,,https://www.redfin.com/FL/Boynton-Beach/5140-Floria-Way-33437/unit-I/home/42198266,Beaches MLS,RX-10864923,N,Y,26.530601,-80.1253951
PAST SALE,May-23-2023,Condo/Co-op,135 Yacht Clb #102,Hypoluxo,FL,33462,265000,2,1.0,Yacht Club ON The Intracoastal Condominium,982,,1996,,270,678,Sold,,,https://www.redfin.com/FL/Hypoluxo/135-Yacht-Club-Way-33462/unit-102/home/42598101,Beaches MLS,RX-10883683,N,Y,26.5662827,-80.0515277
PAST SALE,May-26-2023,Condo/Co-op,41 Norwich B #41,West Palm Beach,FL,33417,63401,1,1.5,NORWICH CONDO,684,,1970,,93,400,Sold,,,https://www.redfin.com/FL/West-Palm-Beach/41-Norwich-B-33417/unit-41/home/180730369,MARMLS,A11248852,N,Y,26.718523,-80.1212539
PAST SALE,March-31-2023,Condo/Co-op,3798 Quail Ridge Dr N,Boynton Beach,FL,33436,395000,3,2.0,Quail Ridge Condo 10-b,1958,43560,1981,,202,1061,Sold,,,https://www.redfin.com/FL/Boynton-Beach/3798-Quail-Ridge-Dr-N-33436/home/42292078,Beaches MLS,RX-10860926,N,Y,26.510713,-80.103842
PAST SALE,April-4-2023,Condo/Co-op,400 NE 20th St Unit C111,Boca Raton,FL,33431,199500,2,2.0,Boca Verde East Condo,1014,,1966,,197,374,Sold,,,https://www.redfin.com/FL/Boca-Raton/400-NE-20th-St-33431/unit-C111/home/42320315,Beaches MLS,RX-10872867,N,Y,26.3652821,-80.0811237
PAST SALE,June-1-2023,Condo/Co-op,106 Capri C,Delray Beach,FL,33484,130000,1,1.5,Kings Point/isle OF Capri,792,,1979,,164,525,Sold,,,https://www.redfin.com/FL/Delray-Beach/106-Capri-C-33484/home/42235294,Beaches MLS,RX-10879830,N,Y,26.4429572,-80.136078
PAST SALE,April-10-2023,Condo/Co-op,720 Nantucket Cir,Lake Worth,FL,33467,145000,2,2.0,Covered Bridge,941,,1973,,154,335,Sold,,,https://www.redfin.com/FL/Lake-Worth/720-Nantucket-Cir-33467/home/184645702,Beaches MLS,RX-10871611,N,Y,26.6247361,-80.1600753
PAST SALE,May-25-2023,Condo/Co-op,21935 Arriba Real Unit 20-A,Boca Raton,FL,33433,449900,2,2.0,Glades OF Boca Lago Condo,1520,1631579,1979,,296,780,Sold,,,https://www.redfin.com/FL/Boca-Raton/21935-Arriba-Real-33433/unit-20A/home/42253742,Beaches MLS,RX-10884137,N,Y,26.351994,-80.184211
PAST SALE,April-24-2023,Condo/Co-op,6815 Willow Wood Dr #4074,Boca Raton,FL,33434,380000,2,2.0,Willowwood,1324,43560,1981,,287,734,Sold,,,https://www.redfin.com/FL/Boca-Raton/6815-Willow-Wood-Dr-33434/unit-4074/home/42251421,Beaches MLS,RX-10860355,N,Y,26.375667,-80.150429
PAST SALE,May-25-2023,Condo/Co-op,918 Flanders T,Delray Beach,FL,33484,115000,2,2.0,Kings Point Flanders Condos,907,,1978,,127,523,Sold,,,https://www.redfin.com/FL/Delray-Beach/918-Flanders-T-33484/home/42227013,Beaches MLS,RX-10883192,N,Y,26.4402361,-80.137665
PAST SALE,March-22-2023,Condo/Co-op,5750 Fairway Park Ct #103,Boynton Beach,FL,33437,229000,2,2.0,Indian Spring,1380,,1980,,166,520,Sold,,,https://www.redfin.com/FL/Boynton-Beach/5750-Fairway-Park-Ct-33437/unit-103/home/42206922,Beaches MLS,RX-10867196,N,Y,26.499769,-80.133741
PAST SALE,May-1-2023,Condo/Co-op,5818 Fox Hollow Dr Unit B,Boca Raton,FL,33486,421000,2,2.5,Town Place,1560,,1984,,270,499,Sold,,,https://www.redfin.com/FL/Boca-Raton/5818-Fox-Hollow-Dr-33486/unit-B/home/42569280,Beaches MLS,F10371726,N,Y,26.357928,-80.1346369
PAST SALE,May-24-2023,Condo/Co-op,5851 Camino Del Sol #207,Boca Raton,FL,33433,350000,3,2.5,Camino Real Village,1597,,1986,,219,634,Sold,,,https://www.redfin.com/FL/Boca-Raton/5851-Camino-del-Sol-33433/unit-207/home/42265773,Beaches MLS,RX-10874102,N,Y,26.3400667,-80.1356064
PAST SALE,May-15-2023,Condo/Co-op,109 Monaco C Blvd Unit C,Delray Beach,FL,33446,170000,2,2.0,Kings Point Monaco Condos,883,,1974,,193,618,Sold,,,https://www.redfin.com/FL/Delray-Beach/109-Monaco-Ct-33446/unit-C/home/184729749,Beaches MLS,RX-10874356,N,Y,26.443607,-80.1498966
PAST SALE,March-30-2023,Condo/Co-op,265 Brittany F,Delray Beach,FL,33446,147500,2,2.0,Kings Point,883,,1973,,167,527,Sold,,,https://www.redfin.com/FL/Delray-Beach/265-Brittany-F-33446/home/42225505,Beaches MLS,RX-10863710,N,Y,26.444317,-80.153314
PAST SALE,May-9-2023,Condo/Co-op,1638 Embassy Dr #410,West Palm Beach,FL,33401,152000,2,2.0,Jamestown Condo,835,,1973,,182,390,Sold,,,https://www.redfin.com/FL/West-Palm-Beach/1638-Embassy-Dr-33401/unit-410/home/42519279,Beaches MLS,RX-10875982,N,Y,26.7280183,-80.0816682
PAST SALE,April-18-2023,Condo/Co-op,462 Monaco J #462,Delray Beach,FL,33446,75000,1,1.5,Kings Point,726,,1974,,103,513,Sold,,,https://www.redfin.com/FL/Delray-Beach/462-Monaco-J-33446/unit-462/home/184177979,Beaches MLS,RX-10864709,N,Y,26.442239,-80.1519016
PAST SALE,May-30-2023,Condo/Co-op,801 Lake Shore Dr #202,Lake Park,FL,33403,455000,2,2.0,Lake Harbour Towers Condo,1316,,1974,,346,697,Sold,,,https://www.redfin.com/FL/Lake-Park/801-Lake-Shore-Dr-33403/unit-202/home/42414992,Beaches MLS,RX-10882151,N,Y,26.7998816,-80.0526841
PAST SALE,June-1-2023,Condo/Co-op,1555 Bridgewood Dr,Boca Raton,FL,33434,200000,2,2.0,Bridgewood Mid-rise Condo,1255,,1974,,159,845,Sold,,,https://www.redfin.com/FL/Boca-Raton/1555-Bridgewood-Dr-33434/home/42249799,Beaches MLS,RX-10880607,N,Y,26.3738936,-80.1644199
PAST SALE,March-17-2023,Condo/Co-op,312 NE 17th Ave #204,Boynton Beach,FL,33435,103000,2,2.0,Four Sea Suns,1080,,1968,,95,375,Sold,,,https://www.redfin.com/FL/Boynton-Beach/312-NE-17th-Ave-33435/unit-204/home/42336318,Beaches MLS,RX-10863273,N,Y,26.5446351,-80.061552
PAST SALE,April-28-2023,Condo/Co-op,2721 Village Blvd #405,West Palm Beach,FL,33409,290000,2,2.0,Whitehall Of Pb Lakes,1385,,1987,,209,598,Sold,,,https://www.redfin.com/FL/West-Palm-Beach/2721-Village-Blvd-33409/unit-405/home/42511076,Beaches MLS,F10374342,N,Y,26.7377122,-80.092645
PAST SALE,May-23-2023,Condo/Co-op,470 Executive Center Dr Unit 2c,West Palm Beach,FL,33401,150000,1,1.0,Breakwaters OF The Palm Beaches Condo,704,,1979,,213,440,Sold,,,https://www.redfin.com/FL/West-Palm-Beach/470-Executive-Center-Dr-33401/unit-2C/home/42525186,Beaches MLS,RX-10880557,N,Y,26.7135843,-80.0772294
PAST SALE,April-28-2023,Condo/Co-op,107 Palm Bay Dr Unit A,Palm Beach Gardens,FL,33418,580000,2,2.0,Ballenisles,2195,,2002,,264,533,Sold,,,https://www.redfin.com/FL/Palm-Beach-Gardens/107-Palm-Bay-Dr-33418/unit-A/home/42563899,Beaches MLS,RX-10863806,N,Y,26.8174173,-80.1076229
PAST SALE,April-6-2023,Condo/Co-op,5380 N Ocean Dr Unit 21J,Riviera Beach,FL,33404,1050000,3,3.5,EASTPOINTE CONDO,2741,,1981,,383,2500,Sold,,,https://www.redfin.com/FL/Riviera-Beach/5380-N-Ocean-Dr-33404/unit-21J/home/42454720,MARMLS,A11353299,N,Y,26.8077208,-80.0345886
PAST SALE,April-21-2023,Condo/Co-op,480 NW 20th St #205,Boca Raton,FL,33431,298500,2,2.0,Casa Del Rio,936,,1980,,319,344,Sold,,,https://www.redfin.com/FL/Boca-Raton/480-NW-20th-St-33431/unit-205/home/42320964,Beaches MLS,RX-10872114,N,Y,26.3680395,-80.0939232
PAST SALE,May-22-2023,Condo/Co-op,1721 Village Blvd #305,West Palm Beach,FL,33409,220,2,2.0,Milano Condo,1075,,1994,,0,594,Sold,,,https://www.redfin.com/FL/West-Palm-Beach/1721-Village-Blvd-33409/unit-305/home/42595071,Beaches MLS,RX-10878498,N,Y,26.728345,-80.101391
PAST SALE,April-25-2023,Condo/Co-op,405 Meadows Cir #405,Boynton Beach,FL,33436,245000,2,2.0,MEADOWS ON THE GREEN COND,909,,1986,,270,192,Sold,,,https://www.redfin.com/FL/Boynton-Beach/405-Meadows-Cir-33436/unit-405/home/104417522,MARMLS,A11362195,N,Y,26.568686,-80.093886
PAST SALE,April-25-2023,Condo/Co-op,4843 Sable Pine Cir Unit D2,West Palm Beach,FL,33417,176000,2,1.0,Pine Ridge AT Haverhill Condo,991,,1982,,178,227,Sold,,,https://www.redfin.com/FL/West-Palm-Beach/4843-Sable-Pine-Cir-33417/unit-D2/home/42135309,Beaches MLS,RX-10879405,N,Y,26.7275224,-80.1149851
PAST SALE,March-17-2023,Condo/Co-op,5415 Verona Dr Unit K,Boynton Beach,FL,33437,223000,2,2.0,Alexandra Village,1131,,1989,,197,658,Sold,,,https://www.redfin.com/FL/Boynton-Beach/5415-Verona-Dr-33437/unit-K/home/42195266,Beaches MLS,F10362187,N,Y,26.5313504,-80.1285085
PAST SALE,,Condo/Co-op,27 Colonial Club Dr #103,Boynton Beach,FL,33435,205000,1,1.5,,950,,1973,,216,,,,,https://www.redfin.com/FL/Boynton-Beach/27-Colonial-Club-Dr-33435/unit-103/home/42346747,,,N,Y,26.5020895,-80.0598007
PAST SALE,April-28-2023,Condo/Co-op,7564 Regency Lake Dr Unit A-101,Boca Raton,FL,33433,499000,3,2.5,Regency AT Boca Pointe,2325,43560,1987,,215,1000,Sold,,,https://www.redfin.com/FL/Boca-Raton/7564-Regency-Lake-Dr-33433/unit-A-101/home/184180451,Beaches MLS,RX-10864783,N,Y,26.332966,-80.161259
PAST SALE,May-31-2023,Condo/Co-op,160 Burgundy D #160,Delray Beach,FL,33484,125000,1,1.5,Kings Point Saxony Condos,760,,1978,,164,458,Sold,,,https://www.redfin.com/FL/Delray-Beach/160-Burgandy-Way-33484/unit-160/home/185311151,Beaches MLS,F10379146,N,Y,26.4415672,-80.1321183
PAST SALE,April-3-2023,Condo/Co-op,2697 N Ocean Blvd Unit F502,Boca Raton,FL,33431,1550000,2,3.0,Yacht & Racquet Club Of B,1759,,1979,,881,2077,Sold,,,https://www.redfin.com/FL/Boca-Raton/2697-N-Ocean-Blvd-33431/unit-F502/home/184306073,Beaches MLS,F10368164,N,Y,26.3747076,-80.0720697
PAST SALE,March-14-2023,Condo/Co-op,407 Executive Center Dr #201,West Palm Beach,FL,33401,142850,2,1.0,Clear Lake Palms Con,900,,1971,,159,371,Sold,,,https://www.redfin.com/FL/West-Palm-Beach/407-Executive-Center-Dr-33401/unit-201/home/42657600,Beaches MLS,F10367502,N,Y,26.7122461,-80.0788999
PAST SALE,May-31-2023,Condo/Co-op,2947 Hope Valley St #202,West Palm Beach,FL,33411,315000,3,3.0,LINKS AT EMERALD DUNES CO,1423,,2006,,221,400,Sold,,,https://www.redfin.com/FL/Royal-Palm-Beach/2947-Hope-Valley-St-33411/unit-202/home/42614635,MARMLS,A11372428,N,Y,26.7190934,-80.1434586
PAST SALE,March-20-2023,Condo/Co-op,12260 Sag Harbor Ct #7,Wellington,FL,33414,300000,3,2.0,Lakeshore Heights Condo,1460,43560,1985,,205,351,Sold,,,https://www.redfin.com/FL/Wellington/12260-Sag-Harbor-Ct-33414/unit-7/home/42498883,Beaches MLS,RX-10858465,N,Y,26.6550968,-80.2396923
PAST SALE,March-13-2023,Condo/Co-op,2828 Tennis Club Dr #502,West Palm Beach,FL,33417,153000,1,1.0,Tcpb Condo,781,,1978,,196,307,Sold,,,https://www.redfin.com/FL/West-Palm-Beach/2828-Tennis-Club-Dr-33417/unit-502/home/42151414,Beaches MLS,RX-10862435,N,Y,26.718627,-80.116753
PAST SALE,March-17-2023,Condo/Co-op,174 Kent J #174,West Palm Beach,FL,33417,165000,2,1.5,Century Village,798,,1973,,207,419,Sold,,,https://www.redfin.com/FL/West-Palm-Beach/174-Kent-J-33417/unit-174/home/183264114,Beaches MLS,F10359264,N,Y,26.7179358,-80.1314687
PAST SALE,May-1-2023,Condo/Co-op,321 Norwood Ter Unit N121,Boca Raton,FL,33431,325000,2,2.0,Windwood,935,,1988,,348,596,Sold,,,https://www.redfin.com/FL/Boca-Raton/321-Norwood-Ter-33431/unit-N121/home/42324060,Beaches MLS,F10373124,N,Y,26.3792176,-80.0881755
PAST SALE,March-15-2023,Condo/Co-op,515 Piedmont K,Delray Beach,FL,33484,130000,1,1.5,Kings Point,792,43560,1980,,164,482,Sold,,,https://www.redfin.com/FL/Delray-Beach/515-Piedmont-K-33484/home/42225840,Beaches MLS,RX-10868700,N,Y,26.4419396,-80.1438639
PAST SALE,April-28-2023,Condo/Co-op,124 Lake Dora Dr #124,West Palm Beach,FL,33411,130000,1,1.5,Golden Lakes Village Condo 1 Thru 13-a,704,,1977,,185,363,Sold,,,https://www.redfin.com/FL/West-Palm-Beach/124-Lake-Dora-Dr-33411/unit-124/home/184742195,Beaches MLS,RX-10874789,N,Y,26.706611,-80.1673969
PAST SALE,April-14-2023,Condo/Co-op,440 Windsor S,West Palm Beach,FL,33417,112500,1,1.5,Century Village,702,,1972,,160,469,Sold,,,https://www.redfin.com/FL/West-Palm-Beach/440-Windsor-S-33417/home/42136257,Beaches MLS,RX-10867288,N,Y,26.7122743,-80.1345547
PAST SALE,,Condo/Co-op,4029 Guildford B,Boca Raton,FL,33434,169000,2,1.5,,880,,1980,,192,,,,,https://www.redfin.com/FL/Boca-Raton/4029-Guildford-B-33434/home/42630973,,,N,Y,26.386803,-80.175392
PAST SALE,May-30-2023,Condo/Co-op,3000 N Ocean Dr Unit 9-C,Riviera Beach,FL,33404,850000,2,2.0,Tiara Condo,1600,,1977,,531,1557,Sold,,,https://www.redfin.com/FL/Riviera-Beach/3000-N-Ocean-Dr-33404/unit-9C/home/42460975,Beaches MLS,RX-10885220,N,Y,26.7868613,-80.0332519
PAST SALE,March-15-2023,Condo/Co-op,16769 Oak Hill Trl #711,Delray Beach,FL,33484,345000,3,2.0,"Boca Delray I-iii Condo S Filed IN Or3857p483,4",1597,43560,1985,,216,733,Sold,,,https://www.redfin.com/FL/Delray-Beach/16769-Oak-Hill-Trl-33484/unit-711/home/42230141,Beaches MLS,RX-10858254,N,Y,26.4277292,-80.1261529
PAST SALE,April-26-2023,Condo/Co-op,829 Camino Rd #109,Delray Beach,FL,33445,220000,2,2.0,Lago Del Rey,1207,,1980,,182,410,Sold,,,https://www.redfin.com/FL/Delray-Beach/829-Camino-Rd-33445/unit-109/home/42371157,Beaches MLS,RX-10850402,N,Y,26.4488353,-80.1051489
PAST SALE,May-31-2023,Condo/Co-op,19860 Sawgrass Dr #6001,Boca Raton,FL,33434,1100000,3,3.0,Peppertree,2250,43560,1980,,489,923,Sold,,,https://www.redfin.com/FL/Boca-Raton/19860-Sawgrass-Dr-33434/unit-6001/home/42249494,Beaches MLS,RX-10866295,N,Y,26.3846031,-80.1570302
PAST SALE,March-31-2023,Condo/Co-op,1532 Bridgewood Dr #1532,Boca Raton,FL,33434,75000,2,2.0,BRIDGEWOOD MID-RISE CONDO,1255,,1974,,60,600,Sold,,,https://www.redfin.com/FL/Boca-Raton/1532-Bridgewood-Dr-33434/unit-1532/home/133500312,MARMLS,A11333846,N,Y,26.3737873,-80.1646862
PAST SALE,March-30-2023,Condo/Co-op,1720 N Congress Ave #210,West Palm Beach,FL,33401,150000,1,1.0,PRESIDENTIAL GOLFVIEW CON,,,1981,,,360,Sold,,,https://www.redfin.com/FL/West-Palm-Beach/1720-N-Congress-Ave-33401/unit-210/home/42519400,MARMLS,A11348032,N,Y,26.7300309,-80.0883683
PAST SALE,March-24-2023,Condo/Co-op,7351 Kinghurst Dr #304,Delray Beach,FL,33446,225000,2,2.0,Huntington Lakes,1220,43560,1989,,184,743,Sold,,,https://www.redfin.com/FL/Delray-Beach/7351-Kinghurst-Dr-33446/unit-304/home/42217796,Beaches MLS,RX-10864478,N,Y,26.460349,-80.1623512
PAST SALE,March-10-2023,Condo/Co-op,9210 SW 3rd St #207,Boca Raton,FL,33428,255000,2,2.0,Sandalfoot Squire Condo,1050,43560,1981,,243,290,Sold,,,https://www.redfin.com/FL/Boca-Raton/9210-SW-3rd-St-33428/unit-207/home/42267563,Beaches MLS,RX-10864502,N,Y,26.344679,-80.1907103
PAST SALE,May-10-2023,Condo/Co-op,7201 Promenade Drive Dr #701,Boca Raton,FL,33433,436000,3,2.5,"Subdivisionpromenade AT Boca Pointe Conds NO 1,2 & 3",1870,,1986,,233,1095,Sold,,,https://www.redfin.com/FL/Boca-Raton/7201-Promenade-Dr-33433/unit-701/home/42639928,Beaches MLS,RX-10878000,N,Y,26.3337464,-80.1568546
PAST SALE,March-9-2023,Condo/Co-op,725 Hummingbird Way #109,North Palm Beach,FL,33408,175000,1,1.0,Lori-lynn Condo,656,,1972,,267,220,Sold,,,https://www.redfin.com/FL/North-Palm-Beach/725-Hummingbird-Way-33408/unit-109/home/42485058,Beaches MLS,RX-10864531,N,Y,26.8119649,-80.0693389
PAST SALE,April-3-2023,Condo/Co-op,429 Pine Glen Ln Unit B-1,Greenacres,FL,33463,182000,2,1.0,Pine Ridge South IV Condo,812,43560,1981,,224,320,Sold,,,https://www.redfin.com/FL/Greenacres/429-Pine-Glen-Ln-33463/unit-B1/home/42389079,Beaches MLS,RX-10870174,N,Y,26.6052698,-80.1442816
PAST SALE,May-10-2023,Condo/Co-op,300 N Highway A1a Unit 104d,Jupiter,FL,33477,650000,2,2.0,Ocean Parks Condo,1520,,1979,,428,780,Sold,,,https://www.redfin.com/FL/Jupiter/300-N-Highway-A1A-33477/unit-104D/home/42402479,Beaches MLS,RX-10872358,N,Y,26.9374648,-80.0795306
PAST SALE,May-15-2023,Condo/Co-op,6271 Chasewood Dr Unit F,Jupiter,FL,33458,295000,2,2.0,Chasewood OF Jupiter Condo,980,,1984,,301,379,Sold,,,https://www.redfin.com/FL/Jupiter/6271-Chasewood-Dr-33458/unit-F/home/42128601,Beaches MLS,RX-10881980,N,Y,26.9276864,-80.1310384
PAST SALE,April-14-2023,Condo/Co-op,74 Windsor D #74,West Palm Beach,FL,33417,90000,1,1.5,WINDSOR CONDOS,702,,1972,,128,450,Sold,,,https://www.redfin.com/FL/West-Palm-Beach/74-Windsor-D-33417/unit-74/home/184735937,MARMLS,A11358827,N,Y,26.7114555,-80.1366556
PAST SALE,April-3-2023,Condo/Co-op,609 Meadows Cir,Boynton Beach,FL,33436,251000,2,2.0,Meadows ON The Green Condo,921,,1986,,273,313,Sold,,,https://www.redfin.com/FL/Boynton-Beach/609-Meadows-Cir-33436/home/42608294,Beaches MLS,RX-10872772,N,Y,26.5709156,-80.0921604
PAST SALE,March-31-2023,Condo/Co-op,250 S Ocean Blvd Unit 10c,Boca Raton,FL,33432,1400000,2,2.0,Marbella Condo,1526,,1975,,917,1437,Sold,,,https://www.redfin.com/FL/Boca-Raton/250-S-Ocean-Blvd-33432/unit-10C/home/42328200,Beaches MLS,RX-10861424,N,Y,26.3487156,-80.0699556
PAST SALE,May-6-2023,Condo/Co-op,2013 Guildford A #2013,Boca Raton,FL,33434,155000,2,1.5,Century Village,880,,1980,,176,558,Sold,,,https://www.redfin.com/FL/Boca-Raton/2013-Guildford-E-33434/unit-2013/home/184781151,Beaches MLS,F10373048,N,Y,26.3868133,-80.1753678
PAST SALE,March-9-2023,Condo/Co-op,4883 Pga Blvd #305,Palm Beach Gardens,FL,33418,313250,1,1.0,Residences AT Midtown Condo,823,43560,2008,,381,459,Sold,,,https://www.redfin.com/FL/Palm-Beach-Gardens/4883-Pga-Blvd-33418/unit-305/home/42665979,Beaches MLS,RX-10859118,N,Y,26.8393977,-80.1096044
PAST SALE,March-31-2023,Condo/Co-op,350 N Federal Hwy #604,Boynton Beach,FL,33435,275000,1,1.0,Casa Costa Condo,840,,2010,,327,525,Sold,,,https://www.redfin.com/FL/Boynton-Beach/350-N-Federal-Hwy-33435/unit-604/home/42672509,Beaches MLS,RX-10844337,N,Y,26.529837,-80.057551
PAST SALE,April-6-2023,Condo/Co-op,6133 Balboa Cir #301,Boca Raton,FL,33433,350000,3,2.0,Whitehall Condo AT Camino Real,1385,,1985,,253,516,Sold,,,https://www.redfin.com/FL/Boca-Raton/6133-Balboa-Cir-33433/unit-301/home/42261876,Beaches MLS,RX-10869940,N,Y,26.345146,-80.141972
PAST SALE,April-5-2023,Condo/Co-op,1036 Us Hwy 1 #415,North Palm Beach,FL,33408,530000,3,2.5,Marina Bay,1632,,1981,,325,725,Sold,,,https://www.redfin.com/FL/North-Palm-Beach/1036-US-Highway-1-33408/unit-415/home/42475970,Beaches MLS,RX-10871443,N,Y,26.8300632,-80.0599099
PAST SALE,May-23-2023,Condo/Co-op,6753 Heritage Grande #4306,Boynton Beach,FL,33437,225000,2,2.0,Green Cay Village,939,,2007,,240,372,Sold,,,https://www.redfin.com/FL/Boynton-Beach/6753-Heritage-Grande-33437/unit-4306/home/42619137,Beaches MLS,RX-10885401,N,Y,26.49001,-80.15047
PAST SALE,May-12-2023,Condo/Co-op,2009 NW 18th St #103,Delray Beach,FL,33445,230000,2,2.0,Pines OF Delray North Condo,1335,,1981,,172,458,Sold,,,https://www.redfin.com/FL/Delray-Beach/2009-NW-18th-St-33445/unit-103/home/42364630,Beaches MLS,RX-10879872,N,Y,26.4831042,-80.0945651
PAST SALE,June-2-2023,Condo/Co-op,7847 Lakeside Blvd #1072,Boca Raton,FL,33434,337000,2,2.0,Lakewood Midrise,1255,,1976,,269,718,Sold,,,https://www.redfin.com/FL/Boca-Raton/7847-Lakeside-Blvd-33434/unit-1072/home/42249137,Beaches MLS,RX-10872798,N,Y,26.3811173,-80.168063
PAST SALE,April-17-2023,Condo/Co-op,955 Egret Cir #204,Delray Beach,FL,33444,350000,2,2.0,Lavers Resort & Racquet Club,1175,,1985,,298,516,Sold,,,https://www.redfin.com/FL/Delray-Beach/955-Egret-Cir-33444/unit-204/home/42375842,Beaches MLS,RX-10872245,N,Y,26.4359928,-80.0805356
PAST SALE,May-24-2023,Condo/Co-op,2220 Tuscany Way,Boynton Beach,FL,33435,365000,2,2.0,Tuscany ON The Intracoastal Condo,1118,,2002,,326,859,Sold,,,https://www.redfin.com/FL/Boynton-Beach/2220-Tuscany-Way-33435/home/42580709,Beaches MLS,RX-10876243,N,Y,26.508021,-80.058289
PAST SALE,March-27-2023,Condo/Co-op,700 Uno Lago Dr #401,Juno Beach,FL,33408,490000,2,2.0,Uno Lago,1358,,1985,,361,752,Sold,,,https://www.redfin.com/FL/Juno-Beach/700-Uno-Lago-Dr-33408/unit-401/home/42394108,Beaches MLS,RX-10870423,N,Y,26.8580204,-80.0608311
PAST SALE,June-5-2023,Condo/Co-op,7802 Lakeside Blvd #712,Boca Raton,FL,33434,377500,2,2.0,Lakewood Midrise Condo,1255,90,1976,,301,714,Sold,,,https://www.redfin.com/FL/Boca-Raton/7802-Lakeside-Blvd-33434/unit-712/home/42255842,Beaches MLS,RX-10881125,N,Y,26.379621,-80.1674479
PAST SALE,April-4-2023,Condo/Co-op,625 Casa Loma Blvd #403,Boynton Beach,FL,33435,475000,2,2.0,Marina Village AT Boynton Beach Condo,1130,43560,2006,,420,885,Sold,,,https://www.redfin.com/FL/Boynton-Beach/625-Casa-Loma-Blvd-33435/unit-403/home/42625705,Beaches MLS,RX-10868691,N,Y,26.528264,-80.0561991
PAST SALE,June-2-2023,Condo/Co-op,4700 Oak Terrace Dr,Greenacres,FL,33463,175000,2,2.0,Pine Court Condo,883,,1980,,198,421,Sold,,,https://www.redfin.com/FL/Greenacres/4700-Oak-Terrace-Dr-33463/home/42386710,Beaches MLS,RX-10884307,N,Y,26.608735,-80.1398169
PAST SALE,May-12-2023,Condo/Co-op,315 7th Ave S Unit 6a,Lake Worth Beach,FL,33460,85000,1,1.0,Clairhouse Condo,560,,1969,,152,100,Sold,,,https://www.redfin.com/FL/Lake-Worth/315-7th-Ave-S-33460/unit-6A/home/42424288,Beaches MLS,RX-10884438,N,Y,26.607018,-80.0528593
PAST SALE,May-4-2023,Condo/Co-op,7430 Victory Ln #9901,Delray Beach,FL,33446,385000,2,2.0,Gleneagles Condo IV,1705,,1987,,226,512,Sold,,,https://www.redfin.com/FL/Delray-Beach/7430-Victory-Ln-33446/unit-9901/home/42220532,Beaches MLS,RX-10878880,N,Y,26.439988,-80.162431
PAST SALE,May-1-2023,Condo/Co-op,11842 Pebblewood Dr Unit 202-B,Wellington,FL,33414,725000,2,3.0,Pebblewood Condo,1350,43560,1985,,537,864,Sold,,,https://www.redfin.com/FL/Wellington/11842-Pebblewood-Dr-33414/unit-202-B/home/184048497,Beaches MLS,RX-10862170,N,Y,26.6464081,-80.2251246
PAST SALE,April-7-2023,Condo/Co-op,179 Coventry H,West Palm Beach,FL,33417,165000,2,1.5,Coventry Condo,798,43560,1969,,207,566,Sold,,,https://www.redfin.com/FL/West-Palm-Beach/179-Coventry-H-33417/home/42143939,Beaches MLS,RX-10863485,N,Y,26.7194713,-80.1222795
PAST SALE,May-3-2023,Condo/Co-op,13334 Polo Club Rd Unit 324-325,Wellington,FL,33414,675000,2,2.0,Bagattelle Condo,1400,43560,1979,,482,641,Sold,,,https://www.redfin.com/FL/Wellington/13334-Polo-Club-Rd-33414/unit-324-325/home/104383758,Beaches MLS,RX-10869325,N,Y,26.643027,-80.2570701
PAST SALE,April-19-2023,Condo/Co-op,600 S Dixie Hwy #321,West Palm Beach,FL,33401,395000,1,1.0,PRADO CONDO,911,,2006,,434,775,Sold,,,https://www.redfin.com/FL/West-Palm-Beach/600-S-Dixie-Hwy-33401/unit-321/home/42662408,MARMLS,A11352159,N,Y,26.7083276,-80.053507
PAST SALE,March-31-2023,Condo/Co-op,9681 Sills Dr E #104,Boynton Beach,FL,33437,295000,2,2.0,Sun Valley East Condo,1498,,1994,,197,458,Sold,,,https://www.redfin.com/FL/Boynton-Beach/9681-Sills-Dr-E-33437/unit-104/home/42197068,Beaches MLS,RX-10866457,N,Y,26.5321965,-80.1317979
PAST SALE,March-29-2023,Condo/Co-op,3482 Briar Bay Blvd #205,West Palm Beach,FL,33411,227500,2,2.0,Cove AT Briar Bay Condo,910,43560,2003,,250,450,Sold,,,https://www.redfin.com/FL/Royal-Palm-Beach/3482-Briar-Bay-Blvd-33411/unit-205/home/42591483,Beaches MLS,RX-10867037,N,Y,26.7284189,-80.1385624
PAST SALE,April-27-2023,Condo/Co-op,1801 N Flagler Dr #621,West Palm Beach,FL,33407,470000,2,2.0,Flagler Pointe Condo,1071,,2001,,439,731,Sold,,,https://www.redfin.com/FL/West-Palm-Beach/1801-N-Flagler-Dr-33407/unit-621/home/42669712,Beaches MLS,RX-10873318,N,Y,26.7293708,-80.0504798
PAST SALE,May-19-2023,Condo/Co-op,2871 N Ocean Blvd Unit D102,Boca Raton,FL,33431,940000,3,2.5,San Remo Condo,1633,,1967,,576,1717,Sold,,,https://www.redfin.com/FL/Boca-Raton/2871-N-Ocean-Blvd-33431/unit-D102/home/42313798,Beaches MLS,RX-10876767,N,Y,26.3766421,-80.0712595
PAST SALE,April-26-2023,Condo/Co-op,2778 S Ocean Blvd Unit 401s,Palm Beach,FL,33480,1762000,2,2.0,Sutton Place Condo,1542,,1981,,1143,1566,Sold,,,https://www.redfin.com/FL/Palm-Beach/2778-S-Ocean-Blvd-33480/unit-401s/home/179459604,Beaches MLS,RX-10869746,N,Y,26.6204801,-80.0397825
PAST SALE,May-12-2023,Condo/Co-op,2726 Anzio Ct #306,Palm Beach Gardens,FL,33410,270000,1,1.0,San Matera The Gardens Condo,872,,2003,,310,361,Sold,,,https://www.redfin.com/FL/Palm-Beach-Gardens/2726-Anzio-Ct-33410/unit-306/home/42613081,Beaches MLS,RX-10882410,N,Y,26.8493288,-80.0780249
PAST SALE,April-20-2023,Condo/Co-op,1200 Scotia Dr #306,Hypoluxo,FL,33462,345000,2,1.0,Hypoluxos Mariners Cay Condo,960,,2001,,359,616,Sold,,,https://www.redfin.com/FL/Hypoluxo/1200-Scotia-Dr-33462/unit-306/home/42580855,Beaches MLS,RX-10874341,N,Y,26.5611825,-80.051615
PAST SALE,April-11-2023,Condo/Co-op,389 Monaco I #389,Delray Beach,FL,33446,249900,2,2.0,Kings Point Monaco Condos,907,,1977,,276,577,Sold,,,https://www.redfin.com/FL/Delray-Beach/389-Monaco-Blvd-33446/unit-389/home/184621511,Beaches MLS,RX-10871172,N,Y,26.4422853,-80.1526846
PAST SALE,April-28-2023,Condo/Co-op,96 Mansfield C,Boca Raton,FL,33434,130000,1,1.5,Mansfield AT Century Village Condo,720,43560,1980,,181,289,Sold,,,https://www.redfin.com/FL/Boca-Raton/96-Mansfield-C-33434/home/42632141,Beaches MLS,RX-10869416,N,Y,26.393597,-80.175797
PAST SALE,April-14-2023,Condo/Co-op,160 Saxony Unit D,Delray Beach,FL,33446,155000,2,2.0,Kings Point Saxony A Thru O Condos,907,43560,1974,,171,633,Sold,,,https://www.redfin.com/FL/Delray-Beach/160-Saxony-Trl-33446/unit-D/home/184190555,Beaches MLS,RX-10864897,N,Y,26.440263,-80.150386
