SALE TYPE,SOLD DATE,PROPERTY TYPE,ADDRESS,CITY,STATE OR PROVINCE,ZIP OR POSTAL CODE,PRICE,BEDS,BATHS,LOCATION,SQUARE FEET,LOT SIZE,YEAR BUILT,DAYS ON MARKET,$/SQUARE FEET,HOA/MONTH,STATUS,NEXT OPEN HOUSE START TIME,NEXT OPEN HOUSE END TIME,URL (SEE https://www.redfin.com/buy-a-home/comparative-market-analysis FOR INFO ON PRICING),SOURCE,MLS#,FAVORITE,INTERESTED,LATITUDE,LONGITUDE
PAST SALE,June-14-2023,Condo/Co-op,1900 N Bayshore Dr #4012,Miami,FL,33132,860000,3,3.0,QUANTUM ON THE BAY CONDO,1494,,2008,,576,1326,Sold,,,https://www.redfin.com/FL/Miami/1900-N-Bayshore-Dr-33132/unit-4012/home/43406119,MARMLS,A11384624,N,Y,25.7950425,-80.1871288
PAST SALE,April-20-2023,Condo/Co-op,2030 S Douglas Rd #707,Coral Gables,FL,33134,530000,2,2.0,THE MINORCA CONDO,1114,,2005,,476,690,Sold,,,https://www.redfin.com/FL/Coral-Gables/2030-S-Douglas-Rd-33134/unit-707/home/43347455,MARMLS,A11343234,N,Y,25.753657,-80.255219
PAST SALE,June-15-2023,Condo/Co-op,3025 Indian Creek Dr #108,Miami Beach,FL,33140,375000,1,1.0,SOUTH BEACH BAYSIDE CONDO,590,,1935,,636,980,Sold,,,https://www.redfin.com/FL/Miami-Beach/3025-Indian-Creek-Dr-33140/unit-108/home/42790800,MARMLS,A11384998,N,Y,25.8066956,-80.1254332
PAST SALE,June-2-2023,Condo/Co-op,6495 W 27th Ave Unit 41-101,Hialeah,FL,33016,270000,2,2.0,LAGO GRANDE CONDO THREE C,770,,1983,,351,286,Sold,,,https://www.redfin.com/FL/Hialeah/6495-W-27th-Ave-33016/unit-41-101/home/42827134,MARMLS,A11376197,N,Y,25.8812957,-80.3366187
PAST SALE,May-18-2023,Condo/Co-op,1139 W 39th Ter #11,Hialeah,FL,33012,350000,3,2.0,MANGO HILL CONDO,1528,,1979,,229,269,Sold,,,https://www.redfin.com/FL/Hialeah/1139-W-39th-Ter-33012/unit-11/home/42835076,MARMLS,A11371870,N,Y,25.8571798,-80.3056252
PAST SALE,May-17-2023,Condo/Co-op,133 NE 2nd Ave #2506,Miami,FL,33132,455000,2,2.0,THE LOFT DOWNTOWN II COND,1010,,2007,,450,827,Sold,,,https://www.redfin.com/FL/Miami/133-NE-2nd-Ave-33132/unit-2506/home/43445680,MARMLS,A11362960,N,Y,25.7759537,-80.1901927
PAST SALE,July-3-2023,Condo/Co-op,6820 Indian Creek Dr Unit 9A,Miami Beach,FL,33141,410000,1,2.0,INDIAN CREEK CL MARINA CO,1311,,1981,,313,440,Sold,,,https://www.redfin.com/FL/Miami-Beach/6820-Indian-Creek-Dr-33141/unit-9A/home/42775684,MARMLS,A11379320,N,Y,25.8527158,-80.1231723
PAST SALE,April-18-2023,Condo/Co-op,333 NE 24th St #609,Miami,FL,33137,572500,2,2.0,GALLERY ART CONDO,1048,,2008,,546,809,Sold,,,https://www.redfin.com/FL/Miami/333-NE-24th-St-33137/unit-609/home/43401361,MARMLS,A11340532,N,Y,25.800735,-80.1881168
PAST SALE,April-28-2023,Condo/Co-op,801 Brickell Key Blvd #607,Miami,FL,33131,530000,1,1.5,COURTS BRICKELL KEY CONDO,878,,2002,,604,743,Sold,,,https://www.redfin.com/FL/Miami/801-Brickell-Key-Blvd-33131/unit-607/home/43280313,MARMLS,A11354741,N,Y,25.7686611,-80.1866783
PAST SALE,May-30-2023,Condo/Co-op,3530 Mystic Pointe Dr #406,Aventura,FL,33180,498500,2,2.0,MYSTIC POINTE TOWER 500 C,1361,,1991,,366,896,Sold,,,https://www.redfin.com/FL/Aventura/3530-Mystic-Pointe-Dr-33180/unit-406/home/42942800,MARMLS,A11352286,N,Y,25.9529117,-80.130938
PAST SALE,June-27-2023,Condo/Co-op,21205 Yacht Club Dr #701,Aventura,FL,33180,520000,2,2.0,NORTH TOWER AT THE POINT,1700,,1997,,306,1773,Sold,,,https://www.redfin.com/FL/Aventura/21205-NE-37th-Ave-33180/unit-701/home/42932372,MARMLS,A11334490,N,Y,25.9728961,-80.1263475
PAST SALE,April-17-2023,Condo/Co-op,475 Brickell Ave #5708,Miami,FL,33131,700000,1,1.0,ICONBRICKELL CONDO NO 1,986,,2008,,710,1107,Sold,,,https://www.redfin.com/FL/Miami/475-Brickell-Ave-33131/unit-5708/home/42678707,MARMLS,A11281455,N,Y,25.7688518,-80.1885381
PAST SALE,June-14-2023,Condo/Co-op,185 SE 14th Ter #1607,Miami,FL,33131,470000,2,2.0,FORTUNE HOUSE CONDO,930,,1998,,505,963,Sold,,,https://www.redfin.com/FL/Miami/185-SE-14th-Ter-33131/unit-1607/home/42765639,MARMLS,A11223680,N,Y,25.7593856,-80.1909065
PAST SALE,April-21-2023,Condo/Co-op,1791 NE Miami Gardens Dr Unit E202,Miami,FL,33179,300000,2,2.0,SKYLOFTS CONDO,1234,,2007,,243,,Sold,,,https://www.redfin.com/FL/Miami/1791-NE-Miami-Gardens-Dr-33179/unit-E202/home/43385958,MARMLS,A11376185,N,Y,25.9462545,-80.1654813
PAST SALE,May-5-2023,Condo/Co-op,6045 NW 186th St #322,Hialeah,FL,33015,260000,2,2.5,MIRASSOU CONDO,1095,,1991,,237,413,Sold,,,https://www.redfin.com/FL/Hialeah/6045-NW-186th-St-33015/unit-322/home/43341564,MARMLS,A11383417,N,Y,25.9432595,-80.296979
PAST SALE,May-25-2023,Condo/Co-op,3330 NE 190th St #2414,Aventura,FL,33180,950000,3,2.5,AVENTURA MARINA CONDO NUM,2289,,2007,,415,1400,Sold,,,https://www.redfin.com/FL/Aventura/3332-NE-190th-St-33180/unit-2414/home/43366914,MARMLS,A11394003,N,Y,25.9508899,-80.1355861
PAST SALE,,Condo/Co-op,6831 W 14th Ct #407,Hialeah,FL,33014,218500,1,1.0,,724,,1973,,302,,,,,https://www.redfin.com/FL/Hialeah/6831-W-14th-Ct-33014/unit-407/home/42824118,,,N,Y,25.8846462,-80.3118256
PAST SALE,,Condo/Co-op,16711 Collins Ave #1407,Sunny Isles Beach,FL,33160,1340000,3,3.0,,2120,,1996,,632,,,,,https://www.redfin.com/FL/Sunny-Isles-Beach/16711-Collins-Ave-33160/unit-1407/home/43437733,,,N,Y,25.9316158,-80.121049
PAST SALE,May-25-2023,Condo/Co-op,7000 Island Blvd #2110,Aventura,FL,33160,1000000,2,2.0,WILLIAMS ISLAND,1750,,1998,,571,1885,Sold,,,https://www.redfin.com/FL/Aventura/7000-Island-Blvd-33160/unit-2110/home/43417129,MARMLS,A11393341,N,Y,25.9441751,-80.1354542
PAST SALE,June-19-2023,Condo/Co-op,2895 W 76th St #102,Hialeah,FL,33018,225000,2,2.0,El Prado,885,,1991,,254,110,Sold,,,https://www.redfin.com/FL/Hialeah/2895-W-76th-St-33018/unit-102/home/185814928,Beaches MLS,F10386064,N,Y,25.8917097,-80.3419259
PAST SALE,,Condo/Co-op,1330 Ocean Dr Unit R9A,Miami Beach,FL,33139,5250000,3,3.0,,3080,,1936,,1705,,,,,https://www.redfin.com/FL/Miami-Beach/1330-Ocean-Dr-33139/unit-R9A/home/42790957,,,N,Y,25.7845837,-80.130166
PAST SALE,,Condo/Co-op,21 Madeira Ave #17,Coral Gables,FL,33134,370000,2,1.0,,900,,1947,,411,,,,,https://www.redfin.com/FL/Coral-Gables/21-Madeira-Ave-33134/unit-17/home/43429882,,,N,Y,25.7561564,-80.2556442
PAST SALE,May-30-2023,Condo/Co-op,90 Edgewater Dr #625,Coral Gables,FL,33133,825000,2,2.0,GABLES WATERWAY TOWERS CO,1310,,1969,,630,1050,Sold,,,https://www.redfin.com/FL/Coral-Gables/90-Edgewater-Dr-33133/unit-625/home/42815713,MARMLS,A11363293,N,Y,25.7062052,-80.2552625
PAST SALE,May-2-2023,Condo/Co-op,1451 Brickell Ave #2403,Miami,FL,33131,1200000,2,2.5,ECHO BRICKELL CONDO,1137,,2017,,1055,2100,Sold,,,https://www.redfin.com/FL/Miami/1451-Brickell-Ave-33131/unit-2403/home/56742950,MARMLS,A11380653,N,Y,25.7581414,-80.1924308
PAST SALE,April-27-2023,Condo/Co-op,1100 Biscayne Blvd #4508,Miami,FL,33132,945000,2,2.5,MARQUIS CONDO,1647,,2009,,574,1660,Sold,,,https://www.redfin.com/FL/Miami/1100-Biscayne-Blvd-33132/unit-4508/home/42676279,MARMLS,A11366570,N,Y,25.7851774,-80.1900783
PAST SALE,,Condo/Co-op,455 Grand Bay Dr #802,Key Biscayne,FL,33149,1550000,1,1.0,,849,,2001,,1826,,,,,https://www.redfin.com/FL/Key-Biscayne/455-Grand-Bay-Dr-33149/unit-802/home/43271088,,,N,Y,25.6911742,-80.1586012
PAST SALE,May-23-2023,Condo/Co-op,2101 Brickell Ave #1910,Miami,FL,33129,510000,1,1.0,SKYLINE ON BRICKELL CONDO,791,,2004,,645,804,Sold,,,https://www.redfin.com/FL/Miami/2101-Brickell-Ave-33129/unit-1910/home/43320683,MARMLS,A11390333,N,Y,25.752407,-80.198873
PAST SALE,,Condo/Co-op,398 NE 5th St #4110,Miami,FL,33132,1077000,1,1.0,,509,,2022,,2116,,,,,https://www.redfin.com/FL/Miami/398-NE-5th-St-33132/unit-4110/home/185391134,,,N,Y,25.7788802,-80.1890556
PAST SALE,,Condo/Co-op,400 NE 18th Ave #105,Homestead,FL,33033,155000,2,2.0,,856,,1974,,181,,,,,https://www.redfin.com/FL/Homestead/400-NE-18th-Ave-33033/unit-105/home/42894528,,,N,Y,25.4739564,-80.4532949
PAST SALE,June-1-2023,Condo/Co-op,18061 Biscayne Blvd #503,Aventura,FL,33160,350000,1,2.0,DEL PRADO MARINA,1005,,1971,,348,722,Sold,,,https://www.redfin.com/FL/Aventura/18061-Biscayne-Blvd-33160/unit-503/home/179362623,MARMLS,A11396911,N,Y,25.942851,-80.145774
PAST SALE,,Condo/Co-op,900 Biscayne Blvd #4101,Miami,FL,33132,1300000,3,3.0,,1694,,2008,,767,,,,,https://www.redfin.com/FL/Miami/900-Biscayne-Blvd-33132/unit-4101/home/43449371,,,N,Y,25.7834936,-80.1902091
PAST SALE,June-1-2023,Condo/Co-op,470 NE 18th Ave #107,Homestead,FL,33033,147000,2,1.5,TOWNHOUSES AT SUNRISE C C,1008,,1979,,146,250,Sold,,,https://www.redfin.com/FL/Homestead/470-NE-18th-Ave-33033/unit-107/home/42893111,MARMLS,A11371135,N,Y,25.4744199,-80.454407
PAST SALE,,Condo/Co-op,15231 SW 80th St #309,Miami,FL,33193,227500,2,2.0,,877,,1992,,259,,,,,https://www.redfin.com/FL/Miami/15231-SW-80th-St-33193/unit-309/home/43358829,,,N,Y,25.6939796,-80.4399923
PAST SALE,,Condo/Co-op,2025 Brickell Ave #1201,Miami,FL,33129,1100000,3,3.0,,2149,,1982,,512,,,,,https://www.redfin.com/FL/Miami/2025-Brickell-Ave-33129/unit-1201/home/43411111,,,N,Y,25.752999,-80.1986213
PAST SALE,June-30-2023,Condo/Co-op,900 Bay Dr #1025,Miami Beach,FL,33141,530000,2,2.0,KING COLE CONDO,1520,,1963,,349,1709,Sold,,,https://www.redfin.com/FL/Miami-Beach/900-Bay-Dr-33141/unit-1025/home/42773521,MARMLS,A11412510,N,Y,25.853281,-80.1262938
PAST SALE,,Condo/Co-op,18041 Biscayne Blvd Unit 602-4,Aventura,FL,33160,621000,2,2.0,,1251,,1971,,496,,,,,https://www.redfin.com/FL/Aventura/18041-Biscayne-Blvd-33160/unit-602-4/home/42944729,,,N,Y,25.9425843,-80.148246
PAST SALE,,Condo/Co-op,800 West Ave #510,Miami Beach,FL,33139,318000,1,1.0,,850,,1966,,374,,,,,https://www.redfin.com/FL/Miami-Beach/800-West-Ave-33139/unit-510/home/42803147,,,N,Y,25.7780111,-80.1424658
PAST SALE,June-1-2023,Condo/Co-op,460 NE 18th Ave #113,Homestead,FL,33033,170000,2,1.5,TOWNHOUSES AT SUNRISE C C,1008,,1979,,169,250,Sold,,,https://www.redfin.com/FL/Homestead/460-NE-18th-Ave-33033/unit-113/home/42892613,MARMLS,A11368658,N,Y,25.4743891,-80.4541697
PAST SALE,,Condo/Co-op,1604 Drexel Ave #103,Miami Beach,FL,33139,215000,,1.0,,506,,1952,,425,,,,,https://www.redfin.com/FL/Miami-Beach/1604-Drexel-Ave-33139/unit-103/home/45430026,,,N,Y,25.7894049,-80.1334592
PAST SALE,,Condo/Co-op,50 S Pointe Dr Unit TWN5,Miami Beach,FL,33139,3030000,4,4.0,,2775,,2008,,1092,,,,,https://www.redfin.com/FL/Miami-Beach/50-S-Pointe-Dr-33139/unit-TWN5/home/43405125,,,N,Y,25.767875,-80.132756
PAST SALE,,Condo/Co-op,7725 N Kendall Dr Unit A221,Miami,FL,33156,195000,1,1.0,,648,,1965,,301,,,,,https://www.redfin.com/FL/Miami/7725-N-Kendall-Dr-33156/unit-A221/home/43448276,,,N,Y,25.6892068,-80.318996
PAST SALE,June-15-2023,Condo/Co-op,5600 Collins Ave Unit 4R,Miami Beach,FL,33140,485000,2,2.0,5600 CONDO,1190,,1967,,408,1235,Sold,,,https://www.redfin.com/FL/Miami-Beach/5600-Collins-Ave-33140/unit-4R/home/43265434,MARMLS,A11397432,N,Y,25.836034,-80.121313
PAST SALE,,Condo/Co-op,6780 SW 44th St #7,Miami,FL,33155,190000,1,1.0,,527,,1966,,361,,,,,https://www.redfin.com/FL/Miami/6780-SW-44th-St-33155/unit-7/home/43343318,,,N,Y,25.7294087,-80.3034431
PAST SALE,,Condo/Co-op,5005 Collins Ave Unit 1204H,Miami Beach,FL,33140,419000,1,1.0,,942,,1964,,445,,,,,https://www.redfin.com/FL/Miami-Beach/5005-Collins-Ave-33140/unit-1204H/home/42781549,,,N,Y,25.8265484,-80.1211363
PAST SALE,May-3-2023,Condo/Co-op,763 Pennsylvania Ave #107,Miami Beach,FL,33139,125000,0,1.0,ROYAL SOUTH BEACH CONDO,270,,1936,,463,1489,Sold,,,https://www.redfin.com/FL/Miami-Beach/763-Pennsylvania-Ave-33139/unit-107/home/43296664,MARMLS,A11367339,N,Y,25.7781689,-80.1337743
PAST SALE,,Condo/Co-op,4345 W 12th Ln Unit 8C,Hialeah,FL,33012,220000,2,2.0,,824,,1983,,267,,,,,https://www.redfin.com/FL/Hialeah/4345-W-12th-Ln-33012/unit-8C/home/43451089,,,N,Y,25.8612756,-80.3085418
PAST SALE,May-15-2023,Condo/Co-op,227 Michigan Ave #202,Miami Beach,FL,33139,600000,2,2.0,THE AMBASSADORS COND,1020,,2000,,588,516,Sold,,,https://www.redfin.com/FL/Miami-Beach/227-Michigan-Ave-33139/unit-202/home/43257700,MARMLS,A10719288,N,Y,25.7716524,-80.1377555
PAST SALE,,Condo/Co-op,3000 Marcos Dr Unit P209,Aventura,FL,33160,165000,1,1.0,,768,,1968,,215,,,,,https://www.redfin.com/FL/Aventura/3000-Marcos-Dr-33160/unit-P209/home/42938092,,,N,Y,25.9389995,-80.1427504
PAST SALE,,Condo/Co-op,117 NW 42nd Ave #1503,Miami,FL,33126,180000,2,2.0,,1033,,2006,,174,,,,,https://www.redfin.com/FL/Miami/117-NW-42nd-Ave-33126/unit-1503/home/43355587,,,N,Y,25.7729187,-80.2633635
PAST SALE,,Condo/Co-op,117 NW 42nd Ave #1214,Miami,FL,33126,360000,2,2.0,,965,,2006,,373,,,,,https://www.redfin.com/FL/Miami/117-NW-42nd-Ave-33126/unit-1214/home/43444697,,,N,Y,25.7729187,-80.2633635
PAST SALE,,Condo/Co-op,4804 NW 79th Ave #303,Doral,FL,33166,197500,1,1.0,,810,,1972,,244,,,,,https://www.redfin.com/FL/Doral/4804-NW-79th-Ave-33166/unit-303/home/43438851,,,N,Y,25.8176813,-80.3262393
PAST SALE,April-24-2023,Condo/Co-op,10000 NW 80th Ct #2545,Hialeah Gardens,FL,33016,232000,2,2.0,SAMARI LAKE EAST CONDO,960,,1977,,242,265,Sold,,,https://www.redfin.com/FL/Hialeah-Gardens/10000-NW-80th-Ct-33016/unit-2545/home/42933920,MARMLS,A11375970,N,Y,25.8648109,-80.3299275
PAST SALE,,Condo/Co-op,851 NE 1st Ave #1012,Miami,FL,33132,1553300,3,4.0,,2172,,2019,,715,,,,,https://www.redfin.com/FL/Miami/851-NE-1st-Ave-33132/unit-1012/home/171960632,,,N,Y,25.782502,-80.1917783
PAST SALE,,Condo/Co-op,666 W 81st St #117,Hialeah,FL,33014,185000,2,1.0,,770,,1971,,240,,,,,https://www.redfin.com/FL/Hialeah/666-W-81st-St-33014/unit-117/home/43260480,,,N,Y,25.8957169,-80.2989811
PAST SALE,,Condo/Co-op,18700 NE 3rd Ct #602,North Miami Beach,FL,33179,115000,2,2.0,,1025,,1968,,112,,,,,https://www.redfin.com/FL/North-Miami-Beach/18700-NE-3rd-Ct-33179/unit-602/home/43455408,,,N,Y,25.9472212,-80.1944351
PAST SALE,,Condo/Co-op,6865 Bay Dr #23,Miami Beach,FL,33141,390000,2,2.0,,960,,1948,,406,,,,,https://www.redfin.com/FL/Miami-Beach/6865-Bay-Dr-33141/unit-23/home/42775026,,,N,Y,25.8540221,-80.1265603
PAST SALE,,Condo/Co-op,1130 11th St Unit 6G,Miami Beach,FL,33139,281000,1,1.0,,792,,1968,,355,,,,,https://www.redfin.com/FL/Miami-Beach/1130-11th-St-33139/unit-6G/home/43414881,,,N,Y,25.7815168,-80.1405213
PAST SALE,,Condo/Co-op,136 NW 26th St #305,Miami,FL,33127,310500,1,1.0,,450,,2022,,690,,,,,https://www.redfin.com/FL/Miami/136-NW-26th-St-33127/unit-305/home/169050932,,,N,Y,25.8012377,-80.1979022
PAST SALE,June-13-2023,Condo/Co-op,1225 Marseille Dr #18,Miami Beach,FL,33141,238000,1,1.0,THE MARSEILLES CONDO,701,,1956,,340,504,Sold,,,https://www.redfin.com/FL/Miami-Beach/1225-Marseille-Dr-33141/unit-18/home/43379067,MARMLS,A11399684,N,Y,25.8567554,-80.1322823
PAST SALE,,Townhouse,6604 SW 113th Ave,Miami,FL,33173,380000,3,2.0,,1378,1855,1974,,276,,,,,https://www.redfin.com/FL/Miami/6604-SW-113th-Ave-33173/home/43090823,,,N,Y,25.7055692,-80.3762931
PAST SALE,,Condo/Co-op,7304 SW 82nd St Unit A208,Miami,FL,33143,195000,1,1.0,,700,,1968,,279,,,,,https://www.redfin.com/FL/Miami/7304-SW-82nd-St-33143/unit-A208/home/43313974,,,N,Y,25.6935463,-80.3117265
PAST SALE,April-14-2023,Condo/Co-op,2960 NE 207th St #516,Aventura,FL,33180,810000,2,2.0,AVENTURA PARKSQUARE RESID,1108,,2018,,731,1274,Sold,,,https://www.redfin.com/FL/Aventura/2960-NE-207th-St-33180/unit-516/home/168121228,MARMLS,A11368740,N,Y,25.9663031,-80.1422914
PAST SALE,May-9-2023,Condo/Co-op,2960 NE 207th St #1207,Aventura,FL,33180,595000,1,2.0,AVENTURA PARKSQUARE RESID,867,,2018,,686,990,Sold,,,https://www.redfin.com/FL/Aventura/2960-NE-207th-St-33180/unit-1207/home/168121109,MARMLS,A11371656,N,Y,25.9663031,-80.1422914
PAST SALE,,Condo/Co-op,1010 Brickell Ave #3801,Miami,FL,33131,1725000,3,3.0,,1753,,2017,,984,,,,,https://www.redfin.com/FL/Miami/1010-Brickell-Ave-33131/unit-3801/home/79134609,,,N,Y,25.764055,-80.1923013
PAST SALE,,Condo/Co-op,1244 Pennsylvania Ave #102,Miami Beach,FL,33139,240000,1,1.0,,551,,1925,,436,,,,,https://www.redfin.com/FL/Miami-Beach/1244-Pennsylvania-Ave-33139/unit-102/home/43365378,,,N,Y,25.7837099,-80.1344279
PAST SALE,,Condo/Co-op,1395 NE 33rd Ave Unit 112-26,Homestead,FL,33033,240000,2,2.0,,1069,,2005,,225,,,,,https://www.redfin.com/FL/Homestead/1395-NE-33rd-Ave-33033/unit-112-26/home/43348978,,,N,Y,25.4841331,-80.427252
PAST SALE,,Condo/Co-op,1330 West Ave #3203,Miami Beach,FL,33139,515000,1,1.0,,806,,2001,,639,,,,,https://www.redfin.com/FL/Miami-Beach/1330-West-Ave-33139/unit-3203/home/43288413,,,N,Y,25.7849555,-80.1424552
PAST SALE,,Condo/Co-op,1111 SW 1st Ave Unit 1618-N,Miami,FL,33130,435000,1,1.0,,707,,2008,,615,,,,,https://www.redfin.com/FL/Miami/1111-SW-1st-Ave-33130/unit-1618-N/home/43398540,,,N,Y,25.7628418,-80.194655
PAST SALE,,Condo/Co-op,1775 Washington Ave Unit 12F,Miami Beach,FL,33139,380000,2,2.0,,960,,1983,,396,,,,,https://www.redfin.com/FL/Miami-Beach/1775-Washington-Ave-33139/unit-12F/home/42799516,,,N,Y,25.793601,-80.1316054
PAST SALE,,Condo/Co-op,7601 E Treasure Dr #1224,North Bay Village,FL,33141,420000,2,2.0,,1030,,1987,,408,,,,,https://www.redfin.com/FL/North-Bay-Village/7601-E-Treasure-Dr-33141/unit-1224/home/43297229,,,N,Y,25.8476718,-80.1458676
PAST SALE,,Condo/Co-op,1300 NE Miami Gardens Dr Unit 617E,Miami Gardens,FL,33179,172000,1,2.0,,889,,1975,,193,,,,,https://www.redfin.com/FL/Miami-Gardens/1300-NE-Miami-Gardens-Dr-33179/unit-617E/home/43010192,,,N,Y,25.9446694,-80.1762298
PAST SALE,June-23-2023,Condo/Co-op,2000 Island Blvd #901,Aventura,FL,33160,787500,2,2.5,2000 ISL BLVD WILLIAMS IS,2040,,1995,,386,2549,Sold,,,https://www.redfin.com/FL/Aventura/2000-Island-Blvd-33160/unit-901/home/42949845,MARMLS,A11370413,N,Y,25.9391034,-80.1372354
PAST SALE,April-26-2023,Condo/Co-op,501 NE 31st St #1106,Miami,FL,33137,750000,3,2.0,PARAISO BAYVIEWS CONDO,1152,,2018,,651,1864,Sold,,,https://www.redfin.com/FL/Miami/501-NE-31st-St-33137/unit-1106/home/79137747,MARMLS,A11370847,N,Y,25.8068816,-80.1873138
PAST SALE,May-16-2023,Condo/Co-op,7900 Harbor Island Dr #1225,North Bay Village,FL,33141,660000,2,2.0,360 CONDO A,1552,,2007,,425,915,Sold,,,https://www.redfin.com/FL/North-Bay-Village/7900-Harbor-Island-Dr-33141/unit-1225/home/43381261,MARMLS,A11366789,N,Y,25.8495939,-80.1586448
PAST SALE,,Condo/Co-op,8899 NW 107th Ct #103,Doral,FL,33178,387000,3,2.0,,1207,,2010,,321,,,,,https://www.redfin.com/FL/Doral/8899-NW-107th-Ct-33178/unit-103/home/43462015,,,N,Y,25.8538755,-80.3710411
PAST SALE,June-12-2023,Condo/Co-op,1052 Jefferson Ave #8,Miami Beach,FL,33139,210000,0,1.0,HELENE MARIE CONDO,390,,1947,,538,250,Sold,,,https://www.redfin.com/FL/Miami-Beach/1052-Jefferson-Ave-33139/unit-8/home/43249660,MARMLS,A11383946,N,Y,25.7816001,-80.1377046
PAST SALE,,Condo/Co-op,615 Ocean Dr Unit 2A,Key Biscayne,FL,33149,2650000,3,2.0,,1772,,1969,,1495,,,,,https://www.redfin.com/FL/Key-Biscayne/615-Ocean-Dr-33149/unit-2A/home/42916734,,,N,Y,25.6901247,-80.1574734
PAST SALE,,Condo/Co-op,7235 SW 94th Pl Unit J8,Miami,FL,33173,238000,2,2.0,,763,,1968,,312,,,,,https://www.redfin.com/FL/Miami/7235-SW-94th-Pl-33173/unit-J8/home/43375648,,,N,Y,25.7005843,-80.3480232
PAST SALE,June-15-2023,Condo/Co-op,8333 Lake Dr #307,Doral,FL,33166,280000,1,1.0,LAS VISTAS AT DORAL CONDO,810,,1989,,346,341,Sold,,,https://www.redfin.com/FL/Doral/8333-Lake-Dr-33166/unit-307/home/43360901,MARMLS,A11389414,N,Y,25.8181914,-80.332669
PAST SALE,,Condo/Co-op,7270 SW 89th St Unit C206,Miami,FL,33156,180000,1,1.0,,770,,2007,,234,,,,,https://www.redfin.com/FL/Miami/7270-SW-89th-St-33156/unit-C206/home/42674200,,,N,Y,25.6872504,-80.3125628
PAST SALE,,Condo/Co-op,7852 Fisher Island Dr #7852,Miami Beach,FL,33109,11200000,3,3.0,,4590,,1990,,2440,,,,,https://www.redfin.com/FL/Miami-Beach/7852-Fisher-Island-Dr-33109/unit-7852/home/43096875,,,N,Y,25.7597737,-80.1372698
PAST SALE,May-26-2023,Condo/Co-op,2899 Collins Ave #543,Miami Beach,FL,33140,332500,1,1.5,TRITON TOWER CONDO,775,,1966,,429,580,Sold,,,https://www.redfin.com/FL/Miami-Beach/2899-Collins-Ave-33140/unit-543/home/42787283,MARMLS,A11373680,N,Y,25.8041379,-80.1251496
PAST SALE,June-12-2023,Condo/Co-op,1221 SW 122nd Ave #412,Miami,FL,33184,270000,3,2.0,SEGOVIA CONDO,1168,,1988,,231,150,Sold,,,https://www.redfin.com/FL/Miami/1221-SW-122nd-Ave-33184/unit-412/home/43367900,MARMLS,A11402430,N,Y,25.7568683,-80.3901194
PAST SALE,,Condo/Co-op,9392 SW 77th Ave Unit E3,Miami,FL,33156,365000,2,2.0,,1092,,1967,,334,,,,,https://www.redfin.com/FL/Miami/9392-SW-77th-Ave-33156/unit-E3/home/43149366,,,N,Y,25.683947,-80.320317
PAST SALE,May-12-2023,Condo/Co-op,1100 Biscayne Blvd #5107,Miami,FL,33132,1200000,2,2.5,MARQUIS CONDO,1647,,2009,,729,,Sold,,,https://www.redfin.com/FL/Miami/1100-Biscayne-Blvd-33132/unit-5107/home/43397281,MARMLS,A11377810,N,Y,25.7851774,-80.1900783
PAST SALE,,Condo/Co-op,1910 Bay Dr #403,Miami Beach,FL,33141,1150000,2,2.0,,1513,,2012,,760,,,,,https://www.redfin.com/FL/Miami-Beach/1910-Bay-Dr-33141/unit-403/home/45429337,,,N,Y,25.8494067,-80.1404596
PAST SALE,,Condo/Co-op,4800 NW 79th Ave #302,Doral,FL,33166,215000,1,1.0,,810,,1972,,265,,,,,https://www.redfin.com/FL/Doral/4800-NW-79th-Ave-33166/unit-302/home/43438755,,,N,Y,25.8174242,-80.3265005
PAST SALE,May-24-2023,Condo/Co-op,2201 E Brickell Ave #17,Miami,FL,33129,420000,2,2.0,BRICKELL MAR CONDO,1000,,1969,,420,1374,Sold,,,https://www.redfin.com/FL/Miami/2201-Brickell-Ave-33129/unit-17/home/42767253,MARMLS,A11371635,N,Y,25.7514067,-80.1994085
PAST SALE,,Condo/Co-op,186 SE 12th Ter #2108,Miami,FL,33131,475000,1,1.0,,754,,2006,,630,,,,,https://www.redfin.com/FL/Miami/186-SE-12th-Ter-33131/unit-2108/home/43362070,,,N,Y,25.7613332,-80.1906131
PAST SALE,,Condo/Co-op,880 NE 69th St Unit 8M,Miami,FL,33138,400000,2,2.0,,1104,,1965,,362,,,,,https://www.redfin.com/FL/Miami/880-NE-69th-St-33138/unit-8M/home/42717847,,,N,Y,25.8389244,-80.1786548
PAST SALE,May-19-2023,Condo/Co-op,19400 Turnberry Way #1012,Aventura,FL,33180,835000,3,3.0,THE PARC AT TURNBERRY ISL,1825,,2005,,458,1343,Sold,,,https://www.redfin.com/FL/Aventura/19400-Turnberry-Way-33180/unit-1012/home/43353453,MARMLS,A11293779,N,Y,25.9552542,-80.1278838
PAST SALE,,Condo/Co-op,851 NE 1st Ave #1001,Miami,FL,33132,1508600,3,4.0,,2197,,2019,,687,,,,,https://www.redfin.com/FL/Miami/851-NE-1st-Ave-33132/unit-1001/home/171960195,,,N,Y,25.782502,-80.1917783
PAST SALE,June-16-2023,Condo/Co-op,218 SE 14th St #1007,Miami,FL,33131,421500,1,1.0,THE EMERALD AT BRICKELL C,811,,2006,,520,751,Sold,,,https://www.redfin.com/FL/Miami/218-SE-14th-St-33131/unit-1007/home/43348709,MARMLS,A11390769,N,Y,25.759683,-80.1902309
PAST SALE,June-21-2023,Condo/Co-op,6301 Collins Ave #2004,Miami Beach,FL,33141,700000,1,1.5,LA GORCE PALACE CONDO,940,,1995,,745,940,Sold,,,https://www.redfin.com/FL/Miami-Beach/6301-Collins-Ave-33141/unit-2004/home/42775881,MARMLS,A11407284,N,Y,25.8445198,-80.1197839
PAST SALE,May-31-2023,Condo/Co-op,2831 S Bayshore Dr #401,Miami,FL,33133,1700000,3,2.5,CLUB RESIDENCES AT PARK G,1281,,2018,,1327,2944,Sold,,,https://www.redfin.com/FL/Miami/2831-S-Bayshore-Dr-33133/unit-401/home/79134140,MARMLS,A11374267,N,Y,25.7293556,-80.2385542
PAST SALE,,Condo/Co-op,3000 Marcos Dr Unit P106,Aventura,FL,33160,302500,2,2.0,,1083,,1968,,279,,,,,https://www.redfin.com/FL/Aventura/3000-Marcos-Dr-33160/unit-P106/home/42944611,,,N,Y,25.9389995,-80.1427504
PAST SALE,,Condo/Co-op,360 Meridian Ave Unit 6D,Miami Beach,FL,33139,330000,1,1.0,,626,,1969,,527,,,,,https://www.redfin.com/FL/Miami-Beach/360-Meridian-Ave-33139/unit-6D/home/43452793,,,N,Y,25.7734681,-80.136438
PAST SALE,,Condo/Co-op,8635 NW 8th St #220,Miami,FL,33126,220000,2,2.0,,1030,,1981,,214,,,,,https://www.redfin.com/FL/Miami/8635-NW-8th-St-33126/unit-220/home/43028597,,,N,Y,25.7782306,-80.3358158
PAST SALE,,Condo/Co-op,410 Euclid Ave #8,Miami Beach,FL,33139,367800,1,1.0,,572,,1961,,643,,,,,https://www.redfin.com/FL/Miami-Beach/410-Euclid-Ave-33139/unit-8/home/43398030,,,N,Y,25.7739148,-80.1352475
PAST SALE,,Condo/Co-op,11000 SW 200th St #501,Cutler Bay,FL,33157,141000,1,1.0,,579,,2005,,244,,,,,https://www.redfin.com/FL/Cutler-Bay/11000-SW-200th-St-33157/unit-501/home/43387270,,,N,Y,25.5803259,-80.3702217
PAST SALE,,Condo/Co-op,920 NE 169th St #306,Miami,FL,33162,155000,1,1.0,,770,,1974,,201,,,,,https://www.redfin.com/FL/Miami/920-NE-169th-St-33162/unit-306/home/42877814,,,N,Y,25.9304665,-80.1817612
PAST SALE,June-6-2023,Condo/Co-op,4550 NW 9th St Unit 206E,Miami,FL,33126,175000,1,1.0,YOLANDA VILLAS CONDO,598,,1972,,293,370,Sold,,,https://www.redfin.com/FL/Miami/4550-NW-9th-St-33126/unit-206E/home/43328901,MARMLS,A11396516,N,Y,25.779874,-80.2705875
PAST SALE,,Condo/Co-op,1300 S Miami Ave #3506,Miami,FL,33130,900000,3,2.0,,1154,,2016,,780,,,,,https://www.redfin.com/FL/Miami/1300-S-Miami-Ave-33130/unit-3506/home/56742602,,,N,Y,25.7612047,-80.1935966
PAST SALE,,Condo/Co-op,321 Ocean Dr #701,Miami Beach,FL,33139,5200000,3,3.0,,2530,,2015,,2055,,,,,https://www.redfin.com/FL/Miami-Beach/321-Ocean-Dr-33139/unit-701/home/110130631,,,N,Y,25.772259,-80.131727
PAST SALE,,Condo/Co-op,18100 N Bay Rd #1207,Sunny Isles Beach,FL,33160,675000,2,2.0,,1255,,2002,,538,,,,,https://www.redfin.com/FL/Sunny-Isles-Beach/18100-N-Bay-Rd-33160/unit-1207/home/43296284,,,N,Y,25.9444371,-80.1245297
PAST SALE,,Condo/Co-op,18683 Collins Ave #1005,Sunny Isles Beach,FL,33160,470000,1,1.0,,688,,2005,,683,,,,,https://www.redfin.com/FL/Sunny-Isles-Beach/18683-Collins-Ave-33160/unit-1005/home/43354941,,,N,Y,25.9491487,-80.1198478
PAST SALE,,Condo/Co-op,16118 NE 21st Ave #4,North Miami Beach,FL,33162,95000,2,1.0,,829,,1970,,115,,,,,https://www.redfin.com/FL/North-Miami-Beach/16118-NE-21st-Ave-33162/unit-4/home/43371457,,,N,Y,25.9244223,-80.1582107
PAST SALE,,Condo/Co-op,1250 SE 29th St Unit 105-58,Homestead,FL,33035,235000,2,2.0,,822,,2004,,286,,,,,https://www.redfin.com/FL/Homestead/1250-SE-29th-St-33035/unit-105-58/home/43322347,,,N,Y,25.442127,-80.459396
PAST SALE,,Condo/Co-op,3350 SW 27th Ave #1908,Miami,FL,33133,767000,1,1.0,,936,,2002,,819,,,,,https://www.redfin.com/FL/Miami/3350-SW-27th-Ave-33133/unit-1908/home/43470057,,,N,Y,25.730469,-80.2377858
PAST SALE,June-15-2023,Condo/Co-op,3000 Island Blvd Unit TH-5,Aventura,FL,33160,1185000,3,3.5,3000 ISL BLVD WILLIAMS IS,2718,,1988,,436,3492,Sold,,,https://www.redfin.com/FL/Aventura/3000-Island-Blvd-33160/unit-TH5/home/42940940,MARMLS,A11371592,N,Y,25.9406051,-80.1344671
PAST SALE,May-31-2023,Condo/Co-op,901 Brickell Key Blvd #304,Miami,FL,33131,1950000,3,3.5,CARBONELL CONDO,2591,,2005,,753,1926,Sold,,,https://www.redfin.com/FL/Miami/901-Brickell-Key-Blvd-33131/unit-304/home/43329849,MARMLS,A11395787,N,Y,25.7690507,-80.187027
PAST SALE,May-24-2023,Condo/Co-op,2600 Island Blvd #2501,Aventura,FL,33160,1700000,2,3.0,2600 ISL BLVD WILLIAMS IS,2580,,1997,,659,2984,Sold,,,https://www.redfin.com/FL/Aventura/2600-Island-Blvd-33160/unit-2501/home/42939484,MARMLS,A11386316,N,Y,25.9390201,-80.1337556
PAST SALE,,Condo/Co-op,11000 SW 200th St #405,Cutler Bay,FL,33157,141000,1,1.0,,538,,2005,,262,,,,,https://www.redfin.com/FL/Cutler-Bay/11000-SW-200th-St-33157/unit-405/home/43387297,,,N,Y,25.5803259,-80.3702217
PAST SALE,April-12-2023,Condo/Co-op,5555 Collins Ave Unit 6J,Miami Beach,FL,33140,511700,2,2.0,OCEANSIDE PLAZA CONDO,1048,,1967,,488,972,Sold,,,https://www.redfin.com/FL/Miami-Beach/5555-Collins-Ave-33140/unit-6J/home/42780370,MARMLS,A11348199,N,Y,25.8354804,-80.1201337
PAST SALE,May-22-2023,Condo/Co-op,415 NE 194th Ln #415,Miami,FL,33179,525000,3,2.5,CHAMPION LAKES,1671,,2015,,314,653,Sold,,,https://www.redfin.com/FL/Miami/415-NE-194th-Ln-33179/unit-415/home/184893405,MARMLS,A11363093,N,Y,25.9549409,-80.1930479
PAST SALE,,Condo/Co-op,16485 Collins Ave #2131,Sunny Isles Beach,FL,33160,2050000,3,3.0,,2430,,1991,,844,,,,,https://www.redfin.com/FL/Sunny-Isles-Beach/16485-Collins-Ave-33160/unit-2131/home/43247495,,,N,Y,25.9291648,-80.1215102
PAST SALE,June-9-2023,Condo/Co-op,8933 NE 4th Ave Rd #8933,Miami Shores,FL,33138,200000,1,1.5,SHORES VILLAS CONDO,954,,1974,,210,566,Sold,,,https://www.redfin.com/FL/Miami-Shores/8933-NE-4th-Avenue-Rd-33138/unit-8933/home/42903349,MARMLS,A11392412,N,Y,25.8575732,-80.1865073
PAST SALE,,Condo/Co-op,6055 W 19th Ave #205,Hialeah,FL,33012,225000,2,2.0,,890,,1975,,253,,,,,https://www.redfin.com/FL/Hialeah/6055-W-19th-Ave-33012/unit-205/home/42829888,,,N,Y,25.8779266,-80.3206803
PAST SALE,,Condo/Co-op,17375 Collins Ave #2106,Sunny Isles Beach,FL,33160,500000,1,1.0,,960,,2000,,521,,,,,https://www.redfin.com/FL/Sunny-Isles-Beach/17375-Collins-Ave-33160/unit-2106/home/43271411,,,N,Y,25.9368824,-80.121241
PAST SALE,,Condo/Co-op,18801 NE 2nd Ave #1015,Miami,FL,33179,45000,,1.0,,407,,1969,,111,,,,,https://www.redfin.com/FL/Miami/18801-NE-2nd-Ave-33179/unit-1015/home/43461413,,,N,Y,25.9477164,-80.1968779
PAST SALE,,Condo/Co-op,2400 SW 27th Ave #404,Miami,FL,33145,275000,1,1.0,,745,,2005,,369,,,,,https://www.redfin.com/FL/Miami/2400-SW-27th-Ave-33145/unit-404/home/43432808,,,N,Y,25.7463517,-80.2384484
PAST SALE,,Condo/Co-op,20201 E Country Club Dr #2801,Aventura,FL,33180,1380000,4,5.0,,3575,,2004,,386,,,,,https://www.redfin.com/FL/Aventura/20201-E-Country-Club-Dr-33180/unit-2801/home/43323686,,,N,Y,25.9650428,-80.1262184
PAST SALE,,Condo/Co-op,10850 NW 89th Ter Unit 206-5,Doral,FL,33178,350000,3,2.0,,1284,,2007,,273,,,,,https://www.redfin.com/FL/Doral/10850-NW-89th-Ter-33178/unit-206-5/home/43386655,,,N,Y,25.8545867,-80.3734769
PAST SALE,,Condo/Co-op,410 Euclid Ave #3,Miami Beach,FL,33139,300000,,1.0,,414,,1961,,725,,,,,https://www.redfin.com/FL/Miami-Beach/410-Euclid-Ave-33139/unit-3/home/43403381,,,N,Y,25.7739148,-80.1352475
PAST SALE,,Condo/Co-op,3201 NE 183rd St #507,Aventura,FL,33160,1637500,3,3.0,,3274,,2003,,500,,,,,https://www.redfin.com/FL/Aventura/3201-NE-183rd-St-33160/unit-507/home/43308121,,,N,Y,25.9456874,-80.1356183
PAST SALE,May-31-2023,Condo/Co-op,1770 NE 191st St Unit 103-1,Miami,FL,33179,202000,2,2.0,JADE WINDS GROUP -,1315,,1969,,154,956,Sold,,,https://www.redfin.com/FL/Miami/1770-NE-191st-St-33179/unit-103-1/home/43011422,MARMLS,A11395969,N,Y,25.9510033,-80.1664855
PAST SALE,,Condo/Co-op,398 NE 5th St #3910,Miami,FL,33132,1073000,1,1.0,,509,,2022,,2108,,,,,https://www.redfin.com/FL/Miami/398-NE-5th-St-33132/unit-3910/home/185391132,,,N,Y,25.7788802,-80.1890556
PAST SALE,,Condo/Co-op,16699 Collins Ave #3504,Sunny Isles Beach,FL,33160,850000,2,2.0,,1715,,2006,,496,,,,,https://www.redfin.com/FL/Sunny-Isles-Beach/16699-Collins-Ave-33160/unit-3504/home/43378984,,,N,Y,25.9301894,-80.121367
PAST SALE,May-8-2023,Condo/Co-op,947 Lenox Ave #605,Miami Beach,FL,33139,276000,2,1.0,LENOX VIEW CONDOMINIUM,904,,1970,,305,606,Sold,,,https://www.redfin.com/FL/Miami-Beach/947-Lenox-Ave-33139/unit-605/home/42800883,MARMLS,A11373848,N,Y,25.780186,-80.1393136
PAST SALE,June-7-2023,Condo/Co-op,6278 W 22nd Ct #24,Hialeah,FL,33016,170000,2,1.5,CADIZ II CONDO,778,,1988,,219,550,Sold,,,https://www.redfin.com/FL/Hialeah/6278-W-22nd-Ct-33016/unit-24/home/43256579,MARMLS,A11298871,N,Y,25.8792185,-80.3285775
PAST SALE,May-10-2023,Condo/Co-op,1345 West Ave #403,Miami Beach,FL,33139,295000,1,1.5,GOLDEN WEST CONDO,918,,1977,,321,575,Sold,,,https://www.redfin.com/FL/Miami-Beach/1345-West-Ave-33139/unit-403/home/43412843,MARMLS,A11361253,N,Y,25.7847697,-80.1419643
PAST SALE,May-24-2023,Condo/Co-op,100 S Pointe Dr #411,Miami Beach,FL,33139,1500000,0,1.0,Continuum on South Beach,450,,2002,,3333,,Sold,,,https://www.redfin.com/FL/Miami-Beach/100-S-Pointe-Dr-33139/unit-411/home/185506448,MARMLS,A11392445,N,Y,25.7671567,-80.1327543
PAST SALE,June-20-2023,Condo/Co-op,7711 SW 56th St Unit 211A,Miami,FL,33155,215000,1,1.0,LAKEVIEW GARDENS CONDO,628,,1967,,342,192,Sold,,,https://www.redfin.com/FL/Miami/7711-Miller-Dr-33155/unit-211A/home/43443061,MARMLS,A11383648,N,Y,25.7181138,-80.3197003
PAST SALE,June-2-2023,Condo/Co-op,3700 Collins Ave Unit S-107,Miami Beach,FL,33140,285000,1,1.0,OCEAN VILLAS CONDO,490,,1938,,582,250,Sold,,,https://www.redfin.com/FL/Miami-Beach/3700-Collins-Ave-33140/unit-S-107/home/42791329,MARMLS,A11353144,N,Y,25.8105556,-80.1236883
PAST SALE,April-21-2023,Condo/Co-op,7740 Camino Real Unit G-203,Miami,FL,33143,250000,2,1.0,VILLAGE OF KINGS CREEK CO,804,,1972,,311,375,Sold,,,https://www.redfin.com/FL/Miami/7740-Camino-Real-33143/unit-203G/home/43100814,MARMLS,A11356806,N,Y,25.6928072,-80.319091
PAST SALE,April-28-2023,Condo/Co-op,1055 N Franklin Ave Unit 1055K,Homestead,FL,33034,200000,3,2.0,LAKESHORE CONDO I,1195,,1985,,167,272,Sold,,,https://www.redfin.com/FL/Homestead/1055-N-Franklin-Ave-33034/unit-1055K/home/42894537,MARMLS,A11364242,N,Y,25.4600909,-80.461116
PAST SALE,April-25-2023,Condo/Co-op,16850 S Glades Dr Unit 5H,North Miami Beach,FL,33162,220000,2,2.0,ANDOR PLAZA CONDO,1120,,1969,,196,452,Sold,,,https://www.redfin.com/FL/North-Miami-Beach/16850-S-Glades-Dr-33162/unit-5H/home/42871285,MARMLS,A11373039,N,Y,25.9307596,-80.1694146
PAST SALE,May-18-2023,Condo/Co-op,60 SW 13th St #2018,Miami,FL,33130,420000,1,1.5,INFINITY AT BRICKELL COND,785,,2008,,535,700,Sold,,,https://www.redfin.com/FL/Miami/60-SW-13th-St-33130/unit-2018/home/43405943,MARMLS,A11389498,N,Y,25.7609697,-80.1943717
PAST SALE,May-2-2023,Condo/Co-op,1800 Sans Souci Blvd #309,North Miami,FL,33181,180000,1,1.5,BAYVIEW PALMS CONDO,714,,1971,,252,372,Sold,,,https://www.redfin.com/FL/North-Miami/1800-Sans-Souci-Blvd-33181/unit-309/home/43368141,MARMLS,A11365579,N,Y,25.8854871,-80.1612343
PAST SALE,April-27-2023,Condo/Co-op,951 Brickell Ave #700,Miami,FL,33131,415000,1,1.0,THE PLAZA 901 BRICKELL CO,774,,2008,,536,750,Sold,,,https://www.redfin.com/FL/Miami/951-Brickell-Ave-33131/unit-700/home/43417206,MARMLS,A11364568,N,Y,25.7644352,-80.1907826
PAST SALE,April-28-2023,Condo/Co-op,710 Washington Ave #506,Miami Beach,FL,33139,229000,0,1.0,HAMPTON ON WASHINGTON AV,400,,1976,,573,481,Sold,,,https://www.redfin.com/FL/Miami-Beach/710-Washington-Ave-33139/unit-506/home/43449600,MARMLS,A11363323,N,Y,25.777647,-80.1336853
PAST SALE,April-28-2023,Condo/Co-op,1000 E Island Blvd #2105,Aventura,FL,33160,365000,2,2.0,1000 ISL BLVD WILLIAMS IS,1230,,1990,,297,4690,Sold,,,https://www.redfin.com/FL/Aventura/1000-E-Island-Blvd-33160/unit-2105/home/42941407,MARMLS,A11354433,N,Y,25.939191,-80.1388895
PAST SALE,June-15-2023,Condo/Co-op,791 Crandon Blvd #206,Key Biscayne,FL,33149,5250000,4,4.5,OCEAN TOWER TWO CONDO,3989,,2001,,1316,5203,Sold,,,https://www.redfin.com/FL/Key-Biscayne/791-Crandon-Blvd-33149/unit-206/home/43276925,MARMLS,A11377045,N,Y,25.6883371,-80.1579324
PAST SALE,June-23-2023,Condo/Co-op,9205 SW 141st Pl #9205,Miami,FL,33186,241500,1,1.0,PARC VISTA CONDO,862,,1987,,280,262,Sold,,,https://www.redfin.com/FL/Miami/9205-SW-141st-Pl-33186/unit-9205/home/43326253,MARMLS,A11397311,N,Y,25.681048,-80.419628
PAST SALE,May-5-2023,Condo/Co-op,1350 SW 122nd Ave #404,Miami,FL,33184,385000,3,3.0,PENINSULA AT INTL GARDENS,1580,,1983,,244,460,Sold,,,https://www.redfin.com/FL/Miami/1350-SW-122nd-Ave-33184/unit-404/home/43111047,MARMLS,A11368394,N,Y,25.7556499,-80.393025
PAST SALE,,Condo/Co-op,1235 Meridian Ave #3,Miami Beach,FL,33139,299900,1,1.0,,630,,1942,,476,,,,,https://www.redfin.com/FL/Miami-Beach/1235-Meridian-Ave-33139/unit-3/home/43255886,,,N,Y,25.7834945,-80.135996
PAST SALE,June-29-2023,Condo/Co-op,5445 Collins Ave #635,Miami Beach,FL,33140,480000,0,1.0,CASTLE BEACH CLUB CONDO,430,,1966,,1116,150,Sold,,,https://www.redfin.com/FL/Miami-Beach/5445-Collins-Ave-33140/unit-635/home/42783190,MARMLS,A11401698,N,Y,25.8343741,-80.1202116
PAST SALE,May-15-2023,Condo/Co-op,210 174th St #2016,Sunny Isles Beach,FL,33160,358000,1,1.5,WINSTON TOWERS 600 CONDO,1061,,1981,,337,479,Sold,,,https://www.redfin.com/FL/Sunny-Isles-Beach/210-174th-St-33160/unit-2016/home/43244151,MARMLS,A11349671,N,Y,25.9369169,-80.1223578
PAST SALE,,Condo/Co-op,7943 SW 104th St Unit C110,Miami,FL,33156,330000,2,2.0,,1133,,1971,,291,,,,,https://www.redfin.com/FL/Miami/7943-SW-104th-St-33156/unit-C110/home/43311455,,,N,Y,25.6749423,-80.3244006
PAST SALE,,Condo/Co-op,11000 SW 200th St #213,Cutler Bay,FL,33157,129900,2,1.0,,718,,2005,,181,,,,,https://www.redfin.com/FL/Cutler-Bay/11000-SW-200th-St-33157/unit-213/home/43454875,,,N,Y,25.5803259,-80.3702217
PAST SALE,May-19-2023,Condo/Co-op,17620 Atlantic Blvd #315,Sunny Isles Beach,FL,33160,234900,1,1.5,AVILA CONDO,620,,1973,,379,434,Sold,,,https://www.redfin.com/FL/Sunny-Isles-Beach/17620-Atlantic-Blvd-33160/unit-315/home/42677875,MARMLS,A11373661,N,Y,25.9399414,-80.1228583
PAST SALE,April-26-2023,Condo/Co-op,10857 NW 7th St #13,Miami,FL,33172,295000,2,2.0,TERRANOVA CONDO #6,1012,,1984,,292,220,Sold,,,https://www.redfin.com/FL/Miami/10857-NW-7th-St-33172/unit-13/home/184821671,MARMLS,A11362390,N,Y,25.7785171,-80.3732113
PAST SALE,May-1-2023,Condo/Co-op,7419 SW 152nd Ave Unit 8-207,Miami,FL,33193,210000,2,1.0,MAGNOLIA LANE CONDO,784,,1986,,268,299,Sold,,,https://www.redfin.com/FL/Miami/7419-SW-152nd-Ave-33193/unit-8-207/home/43371762,MARMLS,A11353181,N,Y,25.697079,-80.4370979
PAST SALE,April-10-2023,Condo/Co-op,2993 W 80th St #15,Hialeah,FL,33018,321000,2,2.5,FLORIDIAN CONDO,1170,,2003,,274,115,Sold,,,https://www.redfin.com/FL/Hialeah/2993-W-80th-St-33018/unit-15/home/43302380,MARMLS,A11354097,N,Y,25.8955283,-80.3441652
PAST SALE,June-15-2023,Condo/Co-op,14113 SW 66th St Unit J2,Miami,FL,33183,395000,3,2.5,LAKE VILLAGE CONDO,1641,,1973,,241,609,Sold,,,https://www.redfin.com/FL/Miami/14113-SW-66th-St-33183/unit-J2/home/43130006,MARMLS,A11388262,N,Y,25.7051671,-80.4222076
PAST SALE,May-25-2023,Condo/Co-op,1250 West Ave Unit 5H,Miami Beach,FL,33139,224000,1,1.0,BAY GARDEN MANOR CONDO,658,,1964,,340,1940,Sold,,,https://www.redfin.com/FL/Miami-Beach/1250-West-Ave-33139/unit-5H/home/42794732,MARMLS,A11376857,N,Y,25.7837366,-80.1432509
PAST SALE,June-29-2023,Condo/Co-op,10413 N Kendall Dr Unit B209,Miami,FL,33176,191000,1,1.0,NOB HILL WEST CONDO,750,,1977,,255,330,Sold,,,https://www.redfin.com/FL/Miami/10413-N-Kendall-Dr-33176/unit-B209/home/43325733,MARMLS,A11391778,N,Y,25.6878909,-80.362266
PAST SALE,May-12-2023,Condo/Co-op,3551 NE 169th St #111,North Miami Beach,FL,33160,290000,2,2.0,EDEN ISLES CONDO PART 1,1085,,1969,,267,585,Sold,,,https://www.redfin.com/FL/Miami/3551-NE-169th-St-33160/unit-111/home/42881658,MARMLS,A11367836,N,Y,25.9360202,-80.1365277
PAST SALE,June-14-2023,Condo/Co-op,6801 Harding Ave #510,Miami Beach,FL,33141,240000,1,1.0,HARDING TOWER CONDO,670,,1994,,358,358,Sold,,,https://www.redfin.com/FL/Miami-Beach/6801-Harding-Ave-33141/unit-510/home/42777684,MARMLS,A11387465,N,Y,25.8522116,-80.1211758
PAST SALE,June-16-2023,Condo/Co-op,6900 NW 179th St Unit 208-1,Hialeah,FL,33015,294000,3,2.0,SAN MARCO VILLAS CONDO,992,,2001,,296,317,Sold,,,https://www.redfin.com/FL/Hialeah/6900-NW-179th-St-33015/unit-208-1/home/43277640,MARMLS,A11376057,N,Y,25.9343787,-80.314188
PAST SALE,,Condo/Co-op,9900 NW 44th Ter #101,Doral,FL,33178,432500,3,3.0,,1184,,1992,,365,,,,,https://www.redfin.com/FL/Doral/9900-NW-44th-Ter-33178/unit-101/home/43380268,,,N,Y,25.814247,-80.3586004
PAST SALE,May-23-2023,Condo/Co-op,19255 NE 2nd Ave #2210,Miami,FL,33179,168000,2,2.0,STAR LAKE NORTH NAUTILUS,1025,,1972,,164,382,Sold,,,https://www.redfin.com/FL/Miami/19255-NE-2nd-Ave-33179/unit-2210/home/43013502,MARMLS,A11378287,N,Y,25.951723,-80.1970353
PAST SALE,April-21-2023,Condo/Co-op,465 Ocean Dr Unit 315/316,Miami Beach,FL,33139,1230000,2,2.0,ROYAL ATLANTIC CONDO,1421,,1969,,866,2152,Sold,,,https://www.redfin.com/FL/Miami-Beach/465-Ocean-Dr-33139/unit-315/home/42804164,MARMLS,A11335548,N,Y,25.7744208,-80.1313873
PAST SALE,June-2-2023,Condo/Co-op,1025 Alton Rd #510,Miami Beach,FL,33139,332220,1,1.5,PALMS OF ALTON ROAD CONDO,730,,1970,,455,461,Sold,,,https://www.redfin.com/FL/Miami-Beach/1025-Alton-Rd-33139/unit-510/home/42800349,MARMLS,A11380578,N,Y,25.7811799,-80.1406341
PAST SALE,April-13-2023,Condo/Co-op,90 Edgewater Dr #1027,Coral Gables,FL,33133,836000,2,2.5,GABLES WATERWAY TOWERS CO,1510,,1969,,554,1217,Sold,,,https://www.redfin.com/FL/Coral-Gables/90-Edgewater-Dr-33133/unit-1027/home/42816840,MARMLS,A11353933,N,Y,25.7062052,-80.2552625
PAST SALE,,Condo/Co-op,1021 NW 3rd St #104,Miami,FL,33128,133000,1,1.0,,465,,1930,,286,,,,,https://www.redfin.com/FL/Miami/1021-NW-3rd-St-33128/unit-104/home/43475145,,,N,Y,25.7767752,-80.212
PAST SALE,May-24-2023,Condo/Co-op,606 W 81st St #120,Hialeah,FL,33014,215000,2,1.0,LAS ESTRELLAS CONDO,770,,1971,,279,234,Sold,,,https://www.redfin.com/FL/Hialeah/606-W-81st-St-33014/unit-120/home/43275771,MARMLS,A11360971,N,Y,25.8959386,-80.2971745
PAST SALE,April-10-2023,Condo/Co-op,3131 NE 7th Ave #402,Miami,FL,33137,695000,1,1.5,One Paraiso,959,,2018,,725,1150,Sold,,,https://www.redfin.com/FL/Miami/3131-NE-7th-Ave-33137/unit-402/home/79132367,MARMLS,A11354248,N,Y,25.8070469,-80.1855776
PAST SALE,May-26-2023,Condo/Co-op,5112 NW 79 Ave #301,Doral,FL,33166,245000,1,1.0,DORAL GARDENS II CONDO,810,,1972,,302,298,Sold,,,https://www.redfin.com/FL/Doral/5112-NW-79th-Ave-33166/unit-301/home/43379637,MARMLS,A11384827,N,Y,25.820171,-80.3266689
PAST SALE,June-16-2023,Condo/Co-op,10851 SW 2nd St Unit K316,Sweetwater,FL,33174,227500,2,1.0,WEST FLAGLER HERITAGE NO,720,,1975,,316,290,Sold,,,https://www.redfin.com/FL/Miami/10851-SW-2nd-St-33174/unit-K316/home/43456012,MARMLS,A11384483,N,Y,25.7671025,-80.3718503
PAST SALE,May-5-2023,Condo/Co-op,8420 SW 133rd Ave Rd #410,Miami,FL,33183,230000,2,2.0,HORIZONS WEST CONDO #2,965,,1981,,238,528,Sold,,,https://www.redfin.com/FL/Miami/8420-SW-133rd-Avenue-Rd-33183/unit-410/home/43142372,MARMLS,A11371089,N,Y,25.6886289,-80.4134823
PAST SALE,May-8-2023,Condo/Co-op,8215 SW 152nd Ave Unit G-418,Miami,FL,33193,289900,3,2.0,VERABELLA FALLS CONDO,1346,,1984,,215,331,Sold,,,https://www.redfin.com/FL/Miami/8215-SW-152nd-Ave-33193/unit-G-418/home/43329236,MARMLS,A11367314,N,Y,25.6903685,-80.437949
PAST SALE,June-20-2023,Condo/Co-op,301 Altara Ave #823,Coral Gables,FL,33146,548500,1,1.0,MERRICK MANOR CONDO,713,,2019,,769,652,Sold,,,https://www.redfin.com/FL/Coral-Gables/301-Altara-Ave-33146/unit-823/home/171969372,MARMLS,A11384119,N,Y,25.7336441,-80.2617956
PAST SALE,,Condo/Co-op,1000 Brickell Plz Ph 5801,Miami,FL,33131,2950000,3,3.0,,1955,,2019,,1509,,,,,https://www.redfin.com/FL/Miami/1000-Brickell-Plz-33131/unit-5801/home/79135576,,,N,Y,25.7642644,-80.192725
PAST SALE,June-12-2023,Condo/Co-op,1620 West Ave #601,Miami Beach,FL,33139,350000,1,1.0,TWIN TOWERS CONDO,667,,1965,,525,395,Sold,,,https://www.redfin.com/FL/Miami-Beach/1620-West-Ave-33139/unit-601/home/42790812,MARMLS,A11368542,N,Y,25.7896776,-80.1428366
PAST SALE,April-14-2023,Condo/Co-op,2451 Brickell Ave Unit 11R,Miami,FL,33129,415000,1,1.0,BRICKELL TOWNHOUSE CONDO,886,,1963,,468,703,Sold,,,https://www.redfin.com/FL/Miami/2451-Brickell-Ave-33129/unit-11R/home/42765257,MARMLS,A11357881,N,Y,25.7499451,-80.2008092
PAST SALE,April-26-2023,Condo/Co-op,1541 Brickell Ave Unit A702,Miami,FL,33129,825000,2,2.0,The Palace Condo,1640,,1981,,503,2042,Sold,,,https://www.redfin.com/FL/Miami/1541-Brickell-Ave-33129/unit-A702/home/42756281,Beaches MLS,RX-10875329,N,Y,25.7563807,-80.1924757
PAST SALE,June-30-2023,Condo/Co-op,7483 SW 82nd St Unit A202,Miami,FL,33143,407000,3,2.0,DADELAND CAPRI CONDO,1140,,1968,,357,495,Sold,,,https://www.redfin.com/FL/Miami/7483-SW-82nd-St-33143/unit-A202/home/43328147,MARMLS,A11393823,N,Y,25.6942705,-80.315022
PAST SALE,May-1-2023,Condo/Co-op,601 NE 27th St #1704,Miami,FL,33137,430000,1,1.0,THE CRIMSON CONDO,774,,2016,,556,750,Sold,,,https://www.redfin.com/FL/Miami/601-NE-27th-St-33137/unit-1704/home/108245906,MARMLS,A11362575,N,Y,25.8031474,-80.1865911
PAST SALE,May-11-2023,Condo/Co-op,11780 SW 18th St Unit 507-2,Miami,FL,33175,240000,2,2.0,INTERNATIONAL PARK I COND,898,,1984,,267,270,Sold,,,https://www.redfin.com/FL/Miami/11780-SW-18th-St-33175/unit-507-2/home/43109460,MARMLS,A11353666,N,Y,25.7500814,-80.3860894
PAST SALE,June-9-2023,Condo/Co-op,4670 NW 79th Ave Unit 1E,Doral,FL,33166,290000,2,2.0,DORAL GARDENS CONDO,1060,,1970,,274,395,Sold,,,https://www.redfin.com/FL/Doral/4670-NW-79th-Ave-33166/unit-1E/home/43314978,MARMLS,A11383056,N,Y,25.81456,-80.3263241
PAST SALE,May-12-2023,Condo/Co-op,700 Biltmore Way #901,Coral Gables,FL,33134,565000,2,2.0,DAVID WILLIAM HOTEL CONDO,1290,,1963,,438,1308,Sold,,,https://www.redfin.com/FL/Coral-Gables/700-Biltmore-Way-33134/unit-901/home/42809902,MARMLS,A11369598,N,Y,25.7476383,-80.2696412
PAST SALE,July-3-2023,Condo/Co-op,6973 W 29th Ave #201,Hialeah,FL,33018,307000,2,2.0,GEOMARA GARDENS CONDO,940,,1996,,327,109,Sold,,,https://www.redfin.com/FL/Hialeah/6973-W-29th-Ave-33018/unit-201/home/42820715,MARMLS,A11393201,N,Y,25.8858631,-80.3408719
PAST SALE,June-15-2023,Condo/Co-op,2186 W 60th St #20204,Hialeah,FL,33016,220000,2,1.5,HIALEAH CLUB VILLAS CONDO,1056,,1986,,208,290,Sold,,,https://www.redfin.com/FL/Hialeah/2186-W-60th-St-33016/unit-20204/home/43412327,MARMLS,A11354710,N,Y,25.8740693,-80.3263007
PAST SALE,April-17-2023,Condo/Co-op,2648 SW 29th Ct #2648,Miami,FL,33133,665000,3,2.5,VILLAS ON 29TH CT,1271,,2014,,523,261,Sold,,,https://www.redfin.com/FL/Coconut-Grove/2648-SW-29th-Ct-33133/unit-2648/home/56862245,MARMLS,A11356811,N,Y,25.7425028,-80.2410334
PAST SALE,May-11-2023,Condo/Co-op,16909 N Bay Rd #702,Sunny Isles Beach,FL,33160,305000,1,1.5,PLAZA OF AMERICAS CONDO P,767,,1979,,398,490,Sold,,,https://www.redfin.com/FL/Sunny-Isles-Beach/16909-N-Bay-Rd-33160/unit-702/home/43254684,MARMLS,A11359646,N,Y,25.930951,-80.125012
PAST SALE,May-23-2023,Condo/Co-op,2951 S Bayshore Dr #1109,Miami,FL,33133,625000,1,1.5,THE MUTINY CONDO,740,,1998,,845,840,Sold,,,https://www.redfin.com/FL/Miami/2951-S-Bayshore-Dr-33133/unit-1109/home/42763053,MARMLS,A11382733,N,Y,25.7272352,-80.239933
PAST SALE,May-25-2023,Condo/Co-op,7901 W 29th Ln Unit 202-10,Hialeah,FL,33018,290000,2,2.0,EL PRADO XIII CONDO,980,,1991,,296,110,Sold,,,https://www.redfin.com/FL/Hialeah/7901-W-29th-Ln-33018/unit-202-10/home/42826078,MARMLS,A11376227,N,Y,25.8941572,-80.3434807
PAST SALE,April-20-2023,Condo/Co-op,2030 Douglas Rd #509,Coral Gables,FL,33134,550000,2,2.0,The Minorca Condo,1114,,2005,,494,690,Sold,,,https://www.redfin.com/FL/Coral-Gables/2030-S-Douglas-Rd-33134/unit-509/home/43347918,Beaches MLS,F10373564,N,Y,25.753657,-80.255219
PAST SALE,April-11-2023,Condo/Co-op,7525 SW 153rd Pl Unit 204-11,Miami,FL,33193,275000,2,2.0,HIGHLANDS AT KENDALL LKS,917,,1985,,300,298,Sold,,,https://www.redfin.com/FL/Miami/7525-SW-153rd-Pl-33193/unit-204-11/home/43132445,MARMLS,A11334443,N,Y,25.696317,-80.4414552
PAST SALE,April-17-2023,Condo/Co-op,20 Island Ave #803,Miami Beach,FL,33139,560000,1,1.5,BELLE PLAZA CONDO,897,,1962,,624,2080,Sold,,,https://www.redfin.com/FL/Miami-Beach/20-Island-Ave-33139/unit-803/home/42792625,MARMLS,A11368820,N,Y,25.7901852,-80.1465734
PAST SALE,June-2-2023,Condo/Co-op,7730 SW 56th Ave #2,Miami,FL,33143,325000,2,1.0,HIGH PINES CONDO,840,,1949,,387,408,Sold,,,https://www.redfin.com/FL/Miami/7730-SW-56th-Ave-33143/unit-2/home/43094451,MARMLS,A11383777,N,Y,25.6992143,-80.2844616
PAST SALE,April-19-2023,Condo/Co-op,8065 SW 107th Ave #304,Miami,FL,33173,206000,1,1.5,THE HORIZONS CONDO #5,705,,1980,,292,328,Sold,,,https://www.redfin.com/FL/Miami/8065-SW-107th-Ave-33173/unit-304/home/43092143,MARMLS,A11362015,N,Y,25.6930049,-80.3640417
PAST SALE,May-2-2023,Condo/Co-op,7300 NW 114th Ave Unit 106-6,Doral,FL,33178,349000,2,2.0,PALM GARDENS AT DORAL CON,910,,2003,,384,270,Sold,,,https://www.redfin.com/FL/Doral/7300-NW-114th-Ave-33178/unit-106-6/home/43381564,MARMLS,A11360340,N,Y,25.8395988,-80.3845046
PAST SALE,April-21-2023,Condo/Co-op,6190 W 19 Ave #310,Hialeah,FL,33012,187000,1,1.0,MORADA,700,,1973,,267,268,Sold,,,https://www.redfin.com/FL/Hialeah/6190-W-19th-Ave-33012/unit-310/home/42829763,MARMLS,A11359977,N,Y,25.8792463,-80.3217913
PAST SALE,April-19-2023,Condo/Co-op,18216 Mediterranean Blvd Unit 2-19 (1902),Hialeah,FL,33015,250000,2,2.0,MOORS POINTE CONDO,900,,1988,,278,415,Sold,,,https://www.redfin.com/FL/Hialeah/18216-Mediterranean-Blvd-33015/unit-2-19/home/42971315,MARMLS,A11357540,N,Y,25.9394716,-80.3060444
PAST SALE,,Condo/Co-op,186 SE 12th Ter #1909,Miami,FL,33131,650000,2,2.0,,1145,,2006,,568,,,,,https://www.redfin.com/FL/Miami/186-SE-12th-Ter-33131/unit-1909/home/43353069,,,N,Y,25.7613332,-80.1906131
PAST SALE,,Condo/Co-op,11040 SW 196th St #407,Cutler Bay,FL,33157,198000,2,2.0,,809,,2005,,245,,,,,https://www.redfin.com/FL/Cutler-Bay/11040-SW-196th-St-33157/unit-407/home/43453260,,,N,Y,25.5835776,-80.3689533
PAST SALE,April-26-2023,Condo/Co-op,870 NW 87th Ave #509,Miami,FL,33172,240000,2,2.0,PINEBARK CONDO NO 3,1026,,1972,,234,278,Sold,,,https://www.redfin.com/FL/Miami/870-NW-87th-Ave-33172/unit-509/home/43020458,MARMLS,A11354888,N,Y,25.7791421,-80.3393267
PAST SALE,June-20-2023,Condo/Co-op,7755 SW 86th St Unit C-202,Miami,FL,33143,359000,2,2.0,KINGS CREEK SO CONDO,1200,,1969,,299,686,Sold,,,https://www.redfin.com/FL/Miami/7755-SW-86th-St-33143/unit-C-202/home/43099186,MARMLS,A11384142,N,Y,25.6916032,-80.3194591
PAST SALE,April-24-2023,Condo/Co-op,8800 NW 107th Ct #210,Doral,FL,33178,400000,3,2.5,CORONADO AT DORAL VII CON,1284,,2010,,312,366,Sold,,,https://www.redfin.com/FL/Doral/8800-NW-107th-Ct-33178/unit-210/home/43462084,MARMLS,A11362067,N,Y,25.8538477,-80.371998
PAST SALE,May-17-2023,Condo/Co-op,10931 W Okeechobee Rd #202,Hialeah Gardens,FL,33018,310000,2,2.0,GARDEN VILLAS CONDO I,1029,,2000,,301,166,Sold,,,https://www.redfin.com/FL/Hialeah-Gardens/10931-W-Okeechobee-Rd-33018/unit-202/home/43265900,MARMLS,A11372290,N,Y,25.874856,-80.348097
PAST SALE,May-16-2023,Condo/Co-op,15635 SW 74th Cir Dr #13,Miami,FL,33193,250000,1,2.0,THE FOUNTAINS II CONDO,800,,1986,,313,250,Sold,,,https://www.redfin.com/FL/Miami/15635-SW-74th-Circle-Dr-33193/unit-13/home/43268839,MARMLS,A11369390,N,Y,25.6962019,-80.4461259
PAST SALE,May-30-2023,Condo/Co-op,2625 Collins Ave #1001,Miami Beach,FL,33140,450000,1,1.5,OCEANFRONT PLAZA CONDO,1075,,1980,,419,677,Sold,,,https://www.redfin.com/FL/Miami-Beach/2625-Collins-Ave-33140/unit-1001/home/42786181,MARMLS,A11378049,N,Y,25.8026375,-80.1252805
PAST SALE,May-24-2023,Condo/Co-op,809 Hamilton Dr Unit 809F,Homestead,FL,33034,210000,2,2.0,LAKESHORE CONDO 6,960,,1985,,219,290,Sold,,,https://www.redfin.com/FL/Homestead/809-Hamilton-Dr-33034/unit-809F/home/42896547,MARMLS,A11376534,N,Y,25.4556551,-80.4653088
PAST SALE,May-9-2023,Condo/Co-op,666 W 81st St #104,Hialeah,FL,33014,240000,2,1.0,LAS ESTRELLAS CONDo,770,,1971,,312,234,Sold,,,https://www.redfin.com/FL/Hialeah/666-W-81st-St-33014/unit-104/home/43274138,MARMLS,A11351170,N,Y,25.8957169,-80.2989811
PAST SALE,June-8-2023,Condo/Co-op,12850 SW 43rd Dr #160,Miami,FL,33175,260000,3,1.0,ROYALE GREEN CONDO 7,952,,1974,,273,200,Sold,,,https://www.redfin.com/FL/Miami/12850-SW-43rd-Dr-33175/unit-160/home/43118455,MARMLS,A11382030,N,Y,25.7271272,-80.403048
PAST SALE,May-1-2023,Condo/Co-op,250 SW 181st Dr #212,Sunny Isles Beach,FL,33160,263000,1,2.5,THE ISLES CONDO,780,,1974,,337,339,Sold,,,https://www.redfin.com/FL/Sunny-Isles-Beach/250-181st-Dr-33160/unit-212/home/42679354,MARMLS,A11347259,N,Y,25.943283,-80.1235153
PAST SALE,June-16-2023,Condo/Co-op,1250 S Miami Ave #1810,Miami,FL,33130,430000,1,1.5,VUE AT BRICKELL CONDO,838,,2004,,513,773,Sold,,,https://www.redfin.com/FL/Miami/1250-S-Miami-Ave-33130/unit-1810/home/43345155,MARMLS,A11379675,N,Y,25.7622648,-80.1935654
PAST SALE,June-14-2023,Condo/Co-op,2055 SW 122nd Ave #530,Miami,FL,33175,249000,2,2.0,International Towers,850,,1988,,293,273,Sold,,,https://www.redfin.com/FL/Miami/2055-SW-122nd-Ave-33175/unit-530/home/43105718,Beaches MLS,F10379692,N,Y,25.7489388,-80.3895683
PAST SALE,June-23-2023,Condo/Co-op,7151 SW 129th Ave #2,Miami,FL,33183,263000,2,2.0,GREENTREE CONDO II,810,,1993,,325,275,Sold,,,https://www.redfin.com/FL/Miami/7151-SW-129th-Ave-33183/unit-2/home/43124925,MARMLS,A11390018,N,Y,25.700793,-80.4021784
PAST SALE,April-6-2023,Condo/Co-op,16465 NE 22nd Ave #609,North Miami Beach,FL,33160,220000,2,2.0,TALL TREES CONDO,1012,,1971,,217,359,Sold,,,https://www.redfin.com/FL/North-Miami-Beach/16465-NE-22nd-Ave-33160/unit-609/home/42886788,MARMLS,A11355558,N,Y,25.9280494,-80.1549428
PAST SALE,May-12-2023,Condo/Co-op,20191 E Country Club Dr #1709,Aventura,FL,33180,600000,2,2.0,TERRACES NORTH TURNBERRY,1647,,1983,,364,1344,Sold,,,https://www.redfin.com/FL/Aventura/20191-E-Country-Club-Dr-33180/unit-1709/home/42935922,MARMLS,A11356963,N,Y,25.964032,-80.1249399
PAST SALE,May-17-2023,Condo/Co-op,13120 SW 92nd Ave Unit B-412,Miami,FL,33176,269000,1,1.0,VILLAGE AT THE FALLS COND,840,,1974,,320,408,Sold,,,https://www.redfin.com/FL/Miami/13120-SW-92nd-Ave-33176/unit-B-412/home/43325461,MARMLS,A11376018,N,Y,25.6475626,-80.345427
PAST SALE,May-26-2023,Condo/Co-op,801 NW 47th Ave Unit 918W,Miami,FL,33126,175000,1,1.0,YOLANDA VILLAS CONDO,605,,1972,,289,343,Sold,,,https://www.redfin.com/FL/Miami/801-NW-47th-Ave-33126/unit-918W/home/43372558,MARMLS,A11370118,N,Y,25.7799784,-80.2714316
PAST SALE,May-12-2023,Condo/Co-op,791 Crandon Blvd #508,Key Biscayne,FL,33149,9250000,4,5.5,OCEAN TOWER TWO CONDO,5207,,2001,,1776,6809,Sold,,,https://www.redfin.com/FL/Key-Biscayne/791-Crandon-Blvd-33149/unit-508/home/43263902,MARMLS,A11349145,N,Y,25.6883371,-80.1579324
PAST SALE,June-29-2023,Condo/Co-op,8305 SW 72nd Ave Unit 107A,Miami,FL,33143,323000,2,2.0,THE LEDGES CONDO,1044,,1969,,309,451,Sold,,,https://www.redfin.com/FL/Miami/8305-SW-72nd-Ave-33143/unit-107A/home/43099589,MARMLS,A11383577,N,Y,25.6929315,-80.3079805
PAST SALE,May-12-2023,Condo/Co-op,22841 SW 88th Pl #106,Cutler Bay,FL,33190,268000,3,2.0,THE COURTS AT BAYSHORE II,1018,,2007,,263,220,Sold,,,https://www.redfin.com/FL/Cutler-Bay/22841-SW-88th-Pl-33190/unit-106/home/43394919,MARMLS,A11360123,N,Y,25.5561217,-80.3343444
PAST SALE,June-6-2023,Condo/Co-op,2158 W 60th St #13101,Hialeah,FL,33016,180000,1,1.0,HIALEAH CLUB VILLAS CONDO,528,,1985,,341,290,Sold,,,https://www.redfin.com/FL/Hialeah/2158-W-60th-St-33016/unit-13101/home/43412192,MARMLS,A11381903,N,Y,25.875808,-80.3265757
PAST SALE,,Condo/Co-op,870 SW 129th Pl #105,Miami,FL,33184,210000,1,1.0,,639,,1974,,329,,,,,https://www.redfin.com/FL/Miami/870-SW-129th-Pl-33184/unit-105/home/43284430,,,N,Y,25.7598893,-80.407115
PAST SALE,May-1-2023,Condo/Co-op,8301 SW 142nd Ave Unit C202,Miami,FL,33183,196000,1,1.0,CAPTIVA LAKES VILLAS COND,703,,1972,,279,190,Sold,,,https://www.redfin.com/FL/Miami/8301-SW-142nd-Ave-33183/unit-C202/home/43270837,MARMLS,A11359834,N,Y,25.689532,-80.423083
PAST SALE,May-9-2023,Condo/Co-op,301 Altara Ave #613,Coral Gables,FL,33146,820000,2,2.0,MERRICK MANOR CONDO,906,,2019,,905,828,Sold,,,https://www.redfin.com/FL/Coral-Gables/301-Altara-Ave-33146/unit-613/home/171969334,MARMLS,A11360326,N,Y,25.7336441,-80.2617956
PAST SALE,May-15-2023,Condo/Co-op,905 Brickell Bay Dr #1621,Miami,FL,33131,385000,2,1.5,FOUR AMBASSADORS CONDO PH,990,,1968,,389,775,Sold,,,https://www.redfin.com/FL/Miami/905-Brickell-Bay-Dr-33131/unit-1621/home/42769184,MARMLS,A11371134,N,Y,25.7641968,-80.1889886
PAST SALE,May-9-2023,Condo/Co-op,4730 NW 102th Ave Unit 204-13,Doral,FL,33178,305000,2,2.0,Doral,,,1988,,,545,Sold,,,https://www.redfin.com/FL/Doral/4730-NW-102nd-Ave-33178/unit-204-13/home/43025984,MARMLS,A11351633,N,Y,25.8167666,-80.3620805
PAST SALE,April-21-2023,Condo/Co-op,7241 Miami Lakes Dr Unit D3,Miami Lakes,FL,33014,182500,1,1.0,CYPRESS VILLAGE CONDO,544,,1972,,335,267,Sold,,,https://www.redfin.com/FL/Miami-Lakes/7241-Miami-Lakes-Dr-33014/unit-D3/home/42965551,MARMLS,A11350129,N,Y,25.9108948,-80.3179594
PAST SALE,June-21-2023,Condo/Co-op,9190 Fontainebleau Blvd #202,Miami,FL,33172,240000,1,1.0,PARKVIEW CONDO NO 2,838,,1974,,286,235,Sold,,,https://www.redfin.com/FL/Miami/9190-Fontainebleau-Blvd-33172/unit-202/home/43051456,MARMLS,A11391513,N,Y,25.7716797,-80.3450929
PAST SALE,June-9-2023,Condo/Co-op,15465 SW 80th St Unit 201-4,Miami,FL,33193,280000,2,2.0,CRYSTAL LAKE VILLAS CONDO,862,,1985,,325,175,Sold,,,https://www.redfin.com/FL/Miami/15465-SW-80th-St-33193/unit-201-4/home/43140061,MARMLS,A11377893,N,Y,25.6933375,-80.4435067
PAST SALE,May-3-2023,Condo/Co-op,6995 NW 186th St Unit E107,Hialeah,FL,33015,248000,2,2.0,LAS BRISAS@ COUNTRY CLUB,925,,1986,,268,328,Sold,,,https://www.redfin.com/FL/Hialeah/6995-NW-186th-St-33015/unit-E107/home/43298267,MARMLS,A11359474,N,Y,25.9420042,-80.3162485
PAST SALE,May-15-2023,Condo/Co-op,1244 Pennsylvania Ave #302,Miami Beach,FL,33139,240000,1,1.0,DORANN CONDO,543,,1925,,442,824,Sold,,,https://www.redfin.com/FL/Miami-Beach/1244-Pennsylvania-Ave-33139/unit-302/home/43454883,MARMLS,A11361748,N,Y,25.7836916,-80.1345279
PAST SALE,April-21-2023,Condo/Co-op,14180 NW 22nd Ave #1,Opa-locka,FL,33054,185000,3,2.0,THE ARABIAN ARMS CONDO,1056,,1952,,175,390,Sold,,,https://www.redfin.com/FL/Opa-Locka/14180-NW-22nd-Ave-33054/unit-1/home/43322896,MARMLS,A11366218,N,Y,25.9038456,-80.2360305
PAST SALE,April-28-2023,Condo/Co-op,2935 SE 1st Dr #21,Homestead,FL,33033,280000,3,2.0,FIJI CONDO NO 3,1151,,2009,,243,206,Sold,,,https://www.redfin.com/FL/Homestead/2935-SE-1st-Dr-33033/unit-21/home/43374385,MARMLS,A11353240,N,Y,25.4697472,-80.4334127
PAST SALE,May-30-2023,Condo/Co-op,13101 Memorial Hwy 209 Hwy #209,North Miami,FL,33161,135000,1,1.0,WENDOVER CONDO,644,,1973,,210,250,Sold,,,https://www.redfin.com/FL/North-Miami/13101-Memorial-Hwy-33161/unit-209/home/55271502,MARMLS,A11379615,N,Y,25.895836,-80.193567
PAST SALE,June-14-2023,Condo/Co-op,10790 N Kendall Dr Unit C1,Miami,FL,33176,223000,1,1.0,SPANISH TRACE CONDO,630,,1968,,354,264,Sold,,,https://www.redfin.com/FL/Miami/10790-N-Kendall-Dr-33176/unit-C1/home/43154655,MARMLS,A11383877,N,Y,25.6852539,-80.3675678
PAST SALE,May-19-2023,Condo/Co-op,15560 SW 104th Ter #613,Miami,FL,33196,219500,1,1.0,BISCAYNE BEACH CLUB CONDO,588,,1989,,373,270,Sold,,,https://www.redfin.com/FL/Miami/15560-SW-104th-Ter-33196/unit-613/home/43374577,MARMLS,A11373482,N,Y,25.6688832,-80.4478632
PAST SALE,June-30-2023,Condo/Co-op,7111 SW 129th Ave #2,Miami,FL,33183,260000,2,2.0,GREENTREE CONDO II,810,,1992,,321,275,Sold,,,https://www.redfin.com/FL/Miami/7111-SW-129th-Ave-33183/unit-2/home/43125045,MARMLS,A11400792,N,Y,25.7011022,-80.4027001
PAST SALE,May-17-2023,Condo/Co-op,13000 SW 92nd Ave Unit B113,Miami,FL,33176,331000,2,2.0,BRIARWINDS CONDO PH II,1120,,1981,,296,375,Sold,,,https://www.redfin.com/FL/Miami/13000-SW-92nd-Ave-33176/unit-B113/home/43162817,MARMLS,A11364877,N,Y,25.6483796,-80.3439171
PAST SALE,June-7-2023,Condo/Co-op,2750 NE 183rd St #505,Aventura,FL,33160,285000,2,2.0,COMMODORE PLAZA CONDO,1303,,1971,,219,998,Sold,,,https://www.redfin.com/FL/Aventura/2750-NE-183rd-St-33160/unit-505/home/43424802,MARMLS,A11376867,N,Y,25.9439079,-80.1451445
PAST SALE,June-23-2023,Condo/Co-op,100 Lincoln Rd #1415,Miami Beach,FL,33139,300000,1,1.0,THE DECOPLAGE CONDO,570,,1965,,526,665,Sold,,,https://www.redfin.com/FL/Miami-Beach/100-Lincoln-Rd-33139/unit-1415/home/42797793,MARMLS,A11393368,N,Y,25.7904391,-80.1296945
PAST SALE,,Condo/Co-op,255 W 24th St #107,Miami Beach,FL,33140,260000,,1.0,,320,,1941,,813,,,,,https://www.redfin.com/FL/Miami-Beach/255-W-24th-St-33140/unit-107/home/42789805,,,N,Y,25.800953,-80.128032
PAST SALE,May-12-2023,Condo/Co-op,1900 N Bayshore Dr #705,Miami,FL,33132,445000,1,1.0,QUANTUM ON THE BAY CONDO,811,,2008,,549,695,Sold,,,https://www.redfin.com/FL/Miami/1900-N-Bayshore-Dr-33132/unit-705/home/43388559,MARMLS,A11372040,N,Y,25.7950425,-80.1871288
PAST SALE,May-12-2023,Condo/Co-op,90 Edgewater Dr #210,Coral Gables,FL,33133,550000,1,1.5,GABLES WATERWAY TOWERS CO,910,,1969,,604,745,Sold,,,https://www.redfin.com/FL/Coral-Gables/90-Edgewater-Dr-33133/unit-210/home/42817244,MARMLS,A11374112,N,Y,25.7062052,-80.2552625
PAST SALE,May-17-2023,Condo/Co-op,315 69th St #110,Miami Beach,FL,33141,195000,0,1.0,MIMO ON THE BEACH III CON,442,,1957,,441,374,Sold,,,https://www.redfin.com/FL/Miami-Beach/315-69th-St-33141/unit-110/home/43332293,MARMLS,A11375606,N,Y,25.854475,-80.121625
PAST SALE,June-22-2023,Condo/Co-op,9114 SW 159th Ter Unit C,Palmetto Bay,FL,33157,305000,2,1.5,PINEBROOKE CONDO J,1018,,1974,,300,350,Sold,,,https://www.redfin.com/FL/Palmetto-Bay/9114-SW-159th-Ter-33157/unit-C/home/43168574,MARMLS,A11397843,N,Y,25.6218228,-80.3408648
PAST SALE,June-9-2023,Condo/Co-op,1600 NE 114th St #311,Miami,FL,33181,215000,2,1.0,LIDO BAY LODGE CONDOMINIU,865,,1962,,249,444,Sold,,,https://www.redfin.com/FL/Miami/1600-NE-114th-St-33181/unit-311/home/43455957,MARMLS,A11372586,N,Y,25.880697,-80.165347
PAST SALE,May-16-2023,Condo/Co-op,20225 NE 34th Ct #518,Aventura,FL,33180,315000,2,2.0,DELVISTA TOWERS CONDO,1233,,1982,,255,710,Sold,,,https://www.redfin.com/FL/Aventura/20225-NE-34th-Ct-33180/unit-518/home/42935451,MARMLS,A11340875,N,Y,25.9644529,-80.1325517
PAST SALE,June-30-2023,Condo/Co-op,177 Ocean Lane Dr #1112,Key Biscayne,FL,33149,1200000,2,2.0,KEY BISCAYNE COMMODORE CL,1260,,1971,,952,1376,Sold,,,https://www.redfin.com/FL/Key-Biscayne/177-Ocean-Lane-Dr-33149/unit-1112/home/42919758,MARMLS,A11384649,N,Y,25.6999267,-80.1571143
PAST SALE,May-30-2023,Condo/Co-op,8145 NW 7th St #506,Miami,FL,33126,253000,2,2.0,FONTAINEBLEAU GARDENS CON,870,,1988,,291,360,Sold,,,https://www.redfin.com/FL/Miami/8145-NW-7th-St-33126/unit-506/home/43314385,MARMLS,A11362906,N,Y,25.7770696,-80.3271919
PAST SALE,June-1-2023,Condo/Co-op,4105 W 11th Ct #73,Hialeah,FL,33012,270000,2,1.5,OASIS EN MANGO HILL CONDO,871,,1982,,310,250,Sold,,,https://www.redfin.com/FL/Hialeah/4105-W-11th-Ct-33012/unit-73/home/42843206,MARMLS,A11374650,N,Y,25.8589557,-80.3054615
PAST SALE,May-17-2023,Condo/Co-op,11780 SW 18th St Unit 127-2,Miami,FL,33175,250000,2,2.0,INTERNATIONAL PARK I COND,898,,1984,,278,314,Sold,,,https://www.redfin.com/FL/Miami/11780-SW-18th-St-33175/unit-127-2/home/43110780,MARMLS,A11361860,N,Y,25.7500814,-80.3860894
PAST SALE,June-14-2023,Condo/Co-op,3339 Virginia St #130,Miami,FL,33133,452500,1,1.5,Lofts at Mayfair,838,,2007,,540,590,Sold,,,https://www.redfin.com/FL/Miami/3339-Virginia-St-33133/unit-130/home/43382712,MARMLS,A11393529,N,Y,25.7292912,-80.24128
PAST SALE,April-14-2023,Condo/Co-op,690 SW 1st Ct #1922,Miami,FL,33130,391000,1,1.5,Neo Vertika,795,,2006,,492,745,Sold,,,https://www.redfin.com/FL/Miami/690-SW-1st-Ct-33130/unit-1922/home/43360220,Beaches MLS,F10374084,N,Y,25.7680254,-80.1959769
PAST SALE,April-12-2023,Condo/Co-op,10401 SW 108th Ave #145,Miami,FL,33176,215000,1,1.0,KENDALLWOOD VILLAS CONDO,650,,1971,,331,188,Sold,,,https://www.redfin.com/FL/Miami/10401-SW-108th-Ave-33176/unit-145/home/43150776,MARMLS,A11344968,N,Y,25.6717237,-80.369393
PAST SALE,June-14-2023,Condo/Co-op,2505 W 76th St #109,Hialeah,FL,33016,300000,2,2.0,WEST PALM VILLAS III COND,1110,,1998,,270,310,Sold,,,https://www.redfin.com/FL/Hialeah/2505-W-76th-St-33016/unit-109/home/42823183,MARMLS,A11374307,N,Y,25.8917677,-80.3340704
PAST SALE,June-3-2023,Condo/Co-op,1500 Bay Rd Unit 720S,Miami Beach,FL,33139,335000,1,1.0,FLAMINGO SOUTH BEACH I CO,729,,1960,,460,1090,Sold,,,https://www.redfin.com/FL/Miami-Beach/1500-Bay-Rd-33139/unit-720S/home/43365598,MARMLS,A11349914,N,Y,25.7864019,-80.1443552
PAST SALE,April-28-2023,Condo/Co-op,2905 Point Dr Unit L-410,Aventura,FL,33160,190000,1,1.0,Point East,961,,1967,,198,490,Sold,,,https://www.redfin.com/FL/Aventura/2905-Point-East-Dr-33160/unit-L410/home/42937479,Beaches MLS,F10372858,N,Y,25.9399636,-80.1455152
PAST SALE,April-28-2023,Condo/Co-op,421 Grand Concourse #18,Miami Shores,FL,33138,252000,1,1.0,GRAND CONCOURSE CONDO,794,,1925,,317,525,Sold,,,https://www.redfin.com/FL/Miami-Shores/421-Grand-Conc-33138/unit-18/home/43343515,MARMLS,A11356424,N,Y,25.8645091,-80.1890978
PAST SALE,May-11-2023,Condo/Co-op,8821 W Flagler St #504,Miami,FL,33174,335000,2,1.5,THE GREENS CONDO,900,,1972,,372,307,Sold,,,https://www.redfin.com/FL/Miami/8821-W-Flagler-St-33174/unit-504/home/43052340,MARMLS,A11370641,N,Y,25.7704837,-80.3403514
PAST SALE,June-10-2023,Condo/Co-op,510 NW 86th Pl Unit 12-101,Miami,FL,33126,339000,2,2.0,CORAL POINTE TOWNHOMES CO,845,,1987,,401,240,Sold,,,https://www.redfin.com/FL/Miami/510-NW-86th-Pl-33126/unit-12-101/home/43324593,MARMLS,A11372814,N,Y,25.7755646,-80.3362363
PAST SALE,May-9-2023,Condo/Co-op,5505 NW 7th St Unit W411,Miami,FL,33126,245000,2,2.0,EL LAGO CONDO,888,,1972,,276,602,Sold,,,https://www.redfin.com/FL/Miami/5505-NW-7th-St-33126/unit-W411/home/42716161,MARMLS,A11368343,N,Y,25.7786266,-80.2845417
PAST SALE,April-17-2023,Condo/Co-op,16801 NE 14th Ave #111,Miami,FL,33162,125000,1,1.0,FOUNTAINVIEW CONDO NO 2,670,,1965,,187,270,Sold,,,https://www.redfin.com/FL/North-Miami-Beach/16801-NE-14th-Ave-33162/unit-111/home/43007393,MARMLS,A11351187,N,Y,25.9301974,-80.1717898
PAST SALE,April-20-2023,Condo/Co-op,11860 SW 18th Ter #103,Miami,FL,33175,380000,3,3.0,LES CHATEAUX AT INTL GARDE,1232,,1987,,308,126,Sold,,,https://www.redfin.com/FL/Miami/11860-SW-18th-Ter-33175/unit-103/home/43114084,MARMLS,A11352174,N,Y,25.7505743,-80.388505
PAST SALE,June-12-2023,Condo/Co-op,53 NW 109th Ct Unit A,Miami,FL,33172,351000,3,2.0,TWIN WOODS CONDO 13/1,1310,,1979,,268,,Sold,,,https://www.redfin.com/FL/Miami/53-NW-109th-Ct-33172/unit-A/home/43057160,MARMLS,A11383918,N,Y,25.7696708,-80.3737368
PAST SALE,May-23-2023,Condo/Co-op,9419 Fontainebleau Blvd #109,Miami,FL,33172,300000,2,2.0,BLEAU FONTAINE CONDO #2,1000,,1985,,300,220,Sold,,,https://www.redfin.com/FL/Miami/9419-Fontainebleau-Blvd-33172/unit-109/home/43053055,MARMLS,A11371600,N,Y,25.777612,-80.347202
PAST SALE,May-12-2023,Condo/Co-op,2441 SW 99th Pl #2441,Miami,FL,33165,540000,3,2.0,UNIVERSITY VILLAS CONDO NO,1190,,1983,,454,,Sold,,,https://www.redfin.com/FL/Miami/2441-SW-99th-Pl-33165/unit-2441/home/184952052,MARMLS,A11367741,N,Y,25.74624,-80.356814
PAST SALE,June-22-2023,Condo/Co-op,7350 SW 89th St Unit 1110S,Miami,FL,33156,437500,2,2.0,TOSCANO CONDO,1155,,2007,,379,1112,Sold,,,https://www.redfin.com/FL/Miami/7350-SW-89th-St-33156/unit-1110S/home/43470556,MARMLS,A11396752,N,Y,25.687519,-80.314608
PAST SALE,April-17-2023,Condo/Co-op,100 Edgewater Dr #231,Coral Gables,FL,33133,385000,1,1.5,WATERS EDGE OF CORAL GABL,808,,1970,,476,599,Sold,,,https://www.redfin.com/FL/Coral-Gables/100-Edgewater-Dr-33133/unit-231/home/42808585,MARMLS,A11343990,N,Y,25.7063178,-80.2562643
PAST SALE,May-15-2023,Condo/Co-op,2949 Point Dr Unit B-110,Aventura,FL,33160,232000,1,1.0,Point East,768,,1966,,302,428,Sold,,,https://www.redfin.com/FL/Aventura/2949-Point-East-Dr-33160/unit-B110/home/42945136,Beaches MLS,F10377212,N,Y,25.9410395,-80.1418553
PAST SALE,June-15-2023,Condo/Co-op,7961 SW 152nd Ave #1603,Miami,FL,33193,266000,2,2.0,IMAGES OF KENDALL CONDO,780,,1993,,341,352,Sold,,,https://www.redfin.com/FL/Miami/7961-SW-152nd-Ave-33193/unit-1603/home/43144330,MARMLS,A11386816,N,Y,25.6928311,-80.4378944
PAST SALE,April-28-2023,Condo/Co-op,10525 SW 112th Ave #109,Miami,FL,33176,289000,2,2.0,GARDEN OF KENDALL CONDO N,936,,1978,,309,475,Sold,,,https://www.redfin.com/FL/Miami/10525-SW-112th-Ave-33176/unit-109/home/43155403,MARMLS,A11357177,N,Y,25.6706905,-80.374683
PAST SALE,June-30-2023,Condo/Co-op,9055 SW 73rd Ct #701,Miami,FL,33156,495000,2,2.0,METROPOLIS I AT DADELAND,1419,,2006,,349,1303,Sold,,,https://www.redfin.com/FL/Pinecrest/9055-SW-73rd-Ct-33156/unit-701/home/43371705,MARMLS,A11396799,N,Y,25.6865492,-80.3141788
PAST SALE,May-12-2023,Condo/Co-op,6990 NW 173rd Dr #2002,Hialeah,FL,33015,295000,2,2.0,LAGO DEL REY CONDO,1020,,1991,,289,220,Sold,,,https://www.redfin.com/FL/Hialeah/6990-NW-173rd-Dr-33015/unit-2002/home/42961562,MARMLS,A11370759,N,Y,25.9283254,-80.3144953
PAST SALE,June-5-2023,Condo/Co-op,9320 Fontainebleau Blvd #301,Miami,FL,33172,260000,2,2.0,THE FOUNTAINS AT FONTAINE,870,,1972,,299,368,Sold,,,https://www.redfin.com/FL/Miami/9320-Fontainebleau-Blvd-33172/unit-301/home/43056763,MARMLS,A11375505,N,Y,25.7715087,-80.3476371
PAST SALE,May-10-2023,Condo/Co-op,1331 Brickell Bay Dr #506,Miami,FL,33131,630000,1,1.0,JADE RESIDENCES AT BRICKE,895,,2004,,704,1139,Sold,,,https://www.redfin.com/FL/Miami/1331-Brickell-Bay-Dr-33131/unit-506/home/43317014,MARMLS,A11374534,N,Y,25.7599996,-80.1891629
PAST SALE,May-19-2023,Condo/Co-op,9365 Fontainebleau Blvd Unit E101,Miami,FL,33172,185000,2,2.0,THE BEACH CLUB FONTAINEBL,1149,,1972,,161,293,Sold,,,https://www.redfin.com/FL/Miami/9365-Fontainebleau-Blvd-33172/unit-E101/home/43356562,MARMLS,A11378730,N,Y,25.7756726,-80.346941
PAST SALE,April-11-2023,Condo/Co-op,1158 NW 125th Path #103,Miami,FL,33182,350000,3,2.0,VILLA REAL CONDO NO 7,1090,,1998,,321,199,Sold,,,https://www.redfin.com/FL/Miami/1158-NW-125th-Path-33182/unit-103/home/43454564,MARMLS,A11353388,N,Y,25.7816516,-80.3981483
PAST SALE,May-30-2023,Condo/Co-op,50 S Pointe Dr #612,Miami Beach,FL,33139,1700000,1,1.0,CONTINUUM ON SOUTH BEACH,742,,2008,,2291,2694,Sold,,,https://www.redfin.com/FL/Miami-Beach/50-S-Pointe-Dr-33139/unit-612/home/43408754,MARMLS,A11380922,N,Y,25.767875,-80.132756
PAST SALE,May-26-2023,Condo/Co-op,7300 Wayne Ave #514,Miami Beach,FL,33141,245000,1,1.5,PARKVIEW PLAZA CONDO,784,,1980,,313,376,Sold,,,https://www.redfin.com/FL/Miami-Beach/7300-Wayne-Ave-33141/unit-514/home/42772614,MARMLS,A11375308,N,Y,25.8581725,-80.1268509
PAST SALE,June-14-2023,Condo/Co-op,921 Meridian Ave #4,Miami Beach,FL,33139,210000,0,1.0,921 MERIDIAN AVE APTS CON,405,,1965,,519,409,Sold,,,https://www.redfin.com/FL/Miami-Beach/921-Meridian-Ave-33139/unit-4/home/42789732,MARMLS,A11392699,N,Y,25.779793,-80.1358845
PAST SALE,May-18-2023,Condo/Co-op,635 83rd St #49,Miami Beach,FL,33141,195000,1,1.0,WINDS OF NOBE CONDO,577,,1949,,338,381,Sold,,,https://www.redfin.com/FL/Miami-Beach/635-83rd-St-33141/unit-49/home/43355959,MARMLS,A11371710,N,Y,25.868651,-80.125829
PAST SALE,June-14-2023,Condo/Co-op,8500 SW 133rd Ave Rd #118,Miami,FL,33183,315000,3,2.0,HORIZONS WEST CONDO #3,1040,,1981,,303,677,Sold,,,https://www.redfin.com/FL/Miami/8500-SW-133rd-Avenue-Rd-33183/unit-118/home/43149478,MARMLS,A11381566,N,Y,25.6892225,-80.4124172
PAST SALE,May-12-2023,Condo/Co-op,4721 NW 7th St Unit 105-12,Miami,FL,33126,249000,2,2.0,SUNSET VILLAS NO 3 CONDO,793,,1974,,314,467,Sold,,,https://www.redfin.com/FL/Miami/4721-NW-7th-St-33126/unit-105-12/home/42716287,MARMLS,A11362064,N,Y,25.7808323,-80.2735539
PAST SALE,April-28-2023,Condo/Co-op,7370 SW 82nd St Unit E119,Miami,FL,33143,205000,1,1.0,VILLAGE AT DADELAND CONDO,700,,1968,,293,405,Sold,,,https://www.redfin.com/FL/Miami/7370-SW-82nd-St-33143/unit-E119/home/43313892,MARMLS,A11358042,N,Y,25.6938544,-80.312256
PAST SALE,June-1-2023,Condo/Co-op,2214 W 74th St Unit 201-27,Hialeah,FL,33016,280000,2,2.0,ALCAZAR VILLAS CONDO,960,,1992,,292,150,Sold,,,https://www.redfin.com/FL/Hialeah/2214-W-74th-St-33016/unit-201-27/home/42825847,MARMLS,A11381390,N,Y,25.8896175,-80.3285822
PAST SALE,July-3-2023,Condo/Co-op,1865 79th St Cswy Unit 12E,North Bay Village,FL,33141,272000,1,1.0,KENNEDY HOUSE CONDO,940,,1952,,289,730,Sold,,,https://www.redfin.com/FL/North-Bay-Village/1865-79th-Street-Cswy-33141/unit-12E/home/42921469,MARMLS,A11364248,N,Y,25.8490546,-80.147295
PAST SALE,May-26-2023,Condo/Co-op,18041 Biscayne Blvd Unit 404-4,Aventura,FL,33160,300000,2,2.0,Del Prado Condo,1605,,1971,,187,1053,Sold,,,https://www.redfin.com/FL/Aventura/18041-Biscayne-Blvd-33160/unit-404-4/home/42944251,Beaches MLS,RX-10883448,N,Y,25.9425843,-80.148246
PAST SALE,June-15-2023,Condo/Co-op,10141 Costa Del Sol Blvd Unit F-58,Doral,FL,33178,580000,3,2.5,COSTA DEL SOL CONDO I,1712,,1988,,339,657,Sold,,,https://www.redfin.com/FL/Doral/10141-Costa-del-Sol-Blvd-33178/unit-F-58/home/43017424,MARMLS,A11384211,N,Y,25.808831,-80.360542
PAST SALE,June-30-2023,Condo/Co-op,50 Biscayne Blvd #2807,Miami,FL,33132,435000,1,1.0,50 BISCAYNE CONDO,800,,2007,,544,662,Sold,,,https://www.redfin.com/FL/Miami/50-Biscayne-Blvd-33132/unit-2807/home/43383907,MARMLS,A11394321,N,Y,25.7750019,-80.1879868
PAST SALE,,Condo/Co-op,7211 NW 174th Ter #101,Hialeah,FL,33015,300000,2,2.0,,880,,2004,,341,,,,,https://www.redfin.com/FL/Hialeah/7211-NW-174th-Ter-33015/unit-101/home/43321791,,,N,Y,25.9321026,-80.3185905
PAST SALE,June-23-2023,Condo/Co-op,18206 Mediterranean Blvd Unit 5-21,Hialeah,FL,33015,267500,2,2.0,MOORS POINTE CONDO,900,,1988,,297,400,Sold,,,https://www.redfin.com/FL/Hialeah/18206-Mediterranean-Blvd-33015/unit-5-21/home/42970677,MARMLS,A11384671,N,Y,25.9397665,-80.3064562
PAST SALE,April-20-2023,Condo/Co-op,900 Meridian Ave #207,Miami Beach,FL,33139,275000,1,1.0,900 MERIDIAN CONDO,535,,1951,,514,359,Sold,,,https://www.redfin.com/FL/Miami-Beach/900-Meridian-Ave-33139/unit-207/home/43449669,MARMLS,A11361359,N,Y,25.7796017,-80.1363515
PAST SALE,April-27-2023,Condo/Co-op,117 NW 42nd Ave #703,Miami,FL,33126,420000,2,2.5,MEDITERRANEA CONDO,1033,,2006,,407,533,Sold,,,https://www.redfin.com/FL/Miami/117-NW-42nd-Ave-33126/unit-703/home/43369095,MARMLS,A11353801,N,Y,25.7729187,-80.2633635
PAST SALE,June-27-2023,Condo/Co-op,13937 SW 93rd Ln #13937,Miami,FL,33186,245000,1,1.0,PARC VISTA CONDO,978,,1987,,251,342,Sold,,,https://www.redfin.com/FL/Miami/13937-SW-93rd-Ln-33186/unit-13937/home/43327657,MARMLS,A11389827,N,Y,25.681053,-80.419631
PAST SALE,July-3-2023,Condo/Co-op,9333 SW 227th St Unit 6-6,Cutler Bay,FL,33190,335000,3,2.5,The Shores Condo 1,1325,,2006,,253,281,Sold,,,https://www.redfin.com/FL/Cutler-Bay/9333-SW-227th-St-33190/unit-6-6/home/43444985,Beaches MLS,F10379009,N,Y,25.5591925,-80.342329
PAST SALE,May-31-2023,Condo/Co-op,18101 NW 68th Ave Unit D207,Hialeah,FL,33015,260000,3,2.5,VENETIAN GARDENS AT COUNT,1417,,1970,,183,649,Sold,,,https://www.redfin.com/FL/Hialeah/18101-NW-68th-Ave-33015/unit-D207/home/43388666,MARMLS,A11375794,N,Y,25.9363194,-80.3110824
PAST SALE,May-9-2023,Condo/Co-op,2951 S Bayshore Dr #204,Miami,FL,33133,550000,1,1.5,THE MUTINY CONDO,950,,1998,,579,1004,Sold,,,https://www.redfin.com/FL/Miami/2951-S-Bayshore-Dr-33133/unit-204/home/42751592,MARMLS,A11356585,N,Y,25.7272352,-80.239933
PAST SALE,May-30-2023,Condo/Co-op,455 NE 25th St #806,Miami,FL,33137,400000,2,2.0,BAYLOFTS CONDO,965,,2004,,415,563,Sold,,,https://www.redfin.com/FL/Miami/455-NE-25th-St-33137/unit-806/home/43302720,MARMLS,A11374454,N,Y,25.8011997,-80.1875501
PAST SALE,,Condo/Co-op,19800 SW 103rd Ct #208,Cutler Bay,FL,33157,205000,2,2.0,,921,,1988,,223,,,,,https://www.redfin.com/FL/Cutler-Bay/19800-SW-103rd-Ct-33157/unit-208/home/43215955,,,N,Y,25.5831456,-80.363742
PAST SALE,April-24-2023,Condo/Co-op,3831 SW 79th Ave #3831,Miami,FL,33155,240000,2,2.0,TROPICAL PARK CONDO,862,,1968,,278,220,Sold,,,https://www.redfin.com/FL/Miami/3831-SW-79th-Ave-33155/unit-3831/home/43320341,MARMLS,A11355576,N,Y,25.734554,-80.322791
PAST SALE,April-17-2023,Condo/Co-op,4550 NW 79th Ave Unit 2D,Doral,FL,33166,275000,2,2.0,DORAL GARDENS CONDO,1060,,1970,,259,390,Sold,,,https://www.redfin.com/FL/Doral/4550-NW-79th-Ave-33166/unit-2D/home/43322504,MARMLS,A11331580,N,Y,25.8159601,-80.3266636
PAST SALE,June-15-2023,Condo/Co-op,2831 S Bayshore Dr #1005,Miami,FL,33133,1525000,2,2.0,CLUB RESIDENCES AT PARK G,1184,,2018,,1288,2738,Sold,,,https://www.redfin.com/FL/Miami/2831-S-Bayshore-Dr-33133/unit-1005/home/79134214,MARMLS,A11378766,N,Y,25.7293556,-80.2385542
PAST SALE,June-29-2023,Condo/Co-op,1155 Brickell Bay Dr #1801,Miami,FL,33131,635000,2,2.0,THE MARK ON BRICKELL COND,1200,,2001,,529,1191,Sold,,,https://www.redfin.com/FL/Miami/1155-Brickell-Bay-Dr-33131/unit-1801/home/43260711,MARMLS,A11387267,N,Y,25.7621838,-80.1889886
PAST SALE,June-21-2023,Condo/Co-op,1300 Lincoln Rd Unit F206,Miami Beach,FL,33139,176000,0,1.0,LINCOLN TOWERS CONDO,350,,1966,,503,365,Sold,,,https://www.redfin.com/FL/Miami-Beach/1300-Lincoln-Rd-33139/unit-F206/home/42784790,MARMLS,A11394073,N,Y,25.7902088,-80.1427234
PAST SALE,April-21-2023,Condo/Co-op,10865 SW 112th Ave #209,Miami,FL,33176,301500,2,2.0,GARDENS OF KENDALL SO CON,936,,1981,,322,389,Sold,,,https://www.redfin.com/FL/Miami/10865-SW-112th-Ave-33176/unit-209/home/43157101,MARMLS,A11351802,N,Y,25.668074,-80.371349
PAST SALE,April-14-2023,Condo/Co-op,17911 NW 68th Ave Unit P201,Miami Lakes,FL,33015,190000,1,1.5,VENETIAN GARDENS AT COUNT,982,,1970,,193,450,Sold,,,https://www.redfin.com/FL/Hialeah/17911-NW-68th-Ave-33015/unit-P201/home/43403130,MARMLS,A11349367,N,Y,25.9359923,-80.310299
PAST SALE,May-31-2023,Condo/Co-op,880 NE 69th St Unit 12Q,Miami,FL,33138,375000,1,1.0,CLIPPER CONDO NO 1,831,,1965,,451,1426,Sold,,,https://www.redfin.com/FL/Miami/880-NE-69th-St-33138/unit-12Q/home/42720242,MARMLS,A11378427,N,Y,25.8389244,-80.1786548
PAST SALE,June-7-2023,Condo/Co-op,600 NE 36th St Unit T11,Miami,FL,33137,380000,1,1.5,CHARTER CLUB CONDO,955,,1973,,398,809,Sold,,,https://www.redfin.com/FL/Miami/600-NE-36th-St-33137/unit-T11/home/42726986,MARMLS,A11373837,N,Y,25.8097771,-80.1865475
PAST SALE,April-14-2023,Condo/Co-op,224 NW 84th St #224,Miami,FL,33150,255000,4,3.0,SUNSET PALM VILLAS CONDO,1660,,1958,,154,430,Sold,,,https://www.redfin.com/FL/Miami/224-NW-84th-St-33150/unit-224/home/43288741,MARMLS,A11350519,N,Y,25.852077,-80.2033639
PAST SALE,May-4-2023,Condo/Co-op,9340 Fontainebleau Blvd Unit W306,Miami,FL,33172,360000,3,2.0,KEYSTONE COURTS CONDO,1208,,2002,,298,352,Sold,,,https://www.redfin.com/FL/Miami/9340-Fontainebleau-Blvd-33172/unit-W306/home/43290306,MARMLS,A11368439,N,Y,25.7728474,-80.3485414
PAST SALE,May-1-2023,Condo/Co-op,11486 NW 80th St,Doral,FL,33178,610000,3,2.5,DORAL ISLES NORTH,2080,,2004,,293,260,Sold,,,https://www.redfin.com/FL/Doral/11486-NW-80th-St-33178/home/43310200,MARMLS,A11353111,N,Y,25.8462528,-80.3840814
PAST SALE,May-11-2023,Condo/Co-op,10521 SW 157th Pl #203,Miami,FL,33196,240000,1,1.0,ROYAL PALM PLACE,778,,1990,,308,305,Sold,,,https://www.redfin.com/FL/Miami/10521-SW-157th-Pl-33196/unit-203/home/43328899,MARMLS,A11358131,N,Y,25.6684176,-80.4510658
PAST SALE,April-28-2023,Condo/Co-op,9701 Collins Ave Unit 704S,Bal Harbour,FL,33154,4450000,2,2.5,BAL HARBOUR NORTH SOUTH C,1911,,2011,,2329,2961,Sold,,,https://www.redfin.com/FL/Bal-Harbour/9701-Collins-Ave-33154/unit-704S/home/45429665,MARMLS,A11355740,N,Y,25.8884913,-80.1228812
PAST SALE,June-16-2023,Condo/Co-op,401 NW 72nd Ave Unit 403-A,Miami,FL,33126,245000,2,1.0,FUTURA CONDO,925,,1982,,265,230,Sold,,,https://www.redfin.com/FL/Miami/401-NW-72nd-Ave-33126/unit-403-A/home/43432756,MARMLS,A11390586,N,Y,25.77489,-80.3112432
PAST SALE,May-1-2023,Condo/Co-op,6223 SW 131st Ct #103,Miami,FL,33183,300000,2,2.0,LAKE FOREST PARK CONDO VI,820,,1989,,366,204,Sold,,,https://www.redfin.com/FL/Miami/6223-SW-131st-Ct-33183/unit-103/home/43131906,MARMLS,A11354352,N,Y,25.7088121,-80.405801
PAST SALE,May-31-2023,Condo/Co-op,8615 NW 8th St #402,Miami,FL,33126,285000,2,2.0,FOX CHASE CONDO #1,1030,,1980,,277,311,Sold,,,https://www.redfin.com/FL/Miami/8615-NW-8th-St-33126/unit-402/home/43028729,MARMLS,A11383462,N,Y,25.7795017,-80.3357188
PAST SALE,May-15-2023,Condo/Co-op,90 SW 3rd St #4103,Miami,FL,33130,565000,2,2.0,IVY CONDO,1114,,2008,,507,980,Sold,,,https://www.redfin.com/FL/Miami/90-SW-3rd-St-33130/unit-4103/home/42676240,MARMLS,A11360265,N,Y,25.77031,-80.195202
PAST SALE,April-11-2023,Condo/Co-op,6820 W Flagler St #107,Miami,FL,33144,219000,2,1.5,MADRID TERRACE CONDO,813,,1973,,269,235,Sold,,,https://www.redfin.com/FL/Miami/6820-W-Flagler-St-33144/unit-107/home/42731646,MARMLS,A11348613,N,Y,25.7702211,-80.3066959
PAST SALE,April-19-2023,Condo/Co-op,1345 West Ave #602,Miami Beach,FL,33139,360000,1,1.5,GOLDEN WEST CONDO,918,,1977,,392,1150,Sold,,,https://www.redfin.com/FL/Miami-Beach/1345-West-Ave-33139/unit-602/home/42794981,MARMLS,A11356108,N,Y,25.7847669,-80.1419291
PAST SALE,June-30-2023,Condo/Co-op,8031 NW 104th Ave #4,Doral,FL,33178,450000,2,2.0,APEX AT PARK CENTRAL COND,1134,,2019,,397,474,Sold,,,https://www.redfin.com/FL/Doral/8031-NW-104th-Ave-33178/unit-4/home/171036929,MARMLS,A11390209,N,Y,25.8467959,-80.3650385
PAST SALE,May-22-2023,Condo/Co-op,1900 N Bayshore Dr #908,Miami,FL,33132,435000,1,1.0,QUANTUM ON THE BAY CONDO,829,,2008,,525,676,Sold,,,https://www.redfin.com/FL/Miami/1900-N-Bayshore-Dr-33132/unit-908/home/43404055,MARMLS,A11367258,N,Y,25.7950425,-80.1871288
PAST SALE,April-28-2023,Condo/Co-op,11320 SW 169th St Unit V3941,Miami,FL,33157,266000,2,2.0,GREEN HILLS PARK WEST NO,1240,,1970,,215,748,Sold,,,https://www.redfin.com/FL/Miami/11320-SW-169th-St-33157/unit-V3941/home/43174220,MARMLS,A11356076,N,Y,25.6111135,-80.3759971
PAST SALE,May-31-2023,Condo/Co-op,888 S Douglas Rd #1113,Coral Gables,FL,33134,355000,1,1.0,PUERTA DE PALMAS CONDO,728,,2007,,488,701,Sold,,,https://www.redfin.com/FL/Coral-Gables/888-S-Douglas-Rd-33134/unit-1113/home/43389773,MARMLS,A11361726,N,Y,25.7632573,-80.2557039
PAST SALE,April-17-2023,Condo/Co-op,10863 NW 7th St Unit 14-20,Miami,FL,33172,310000,3,2.0,TERRANOVA 9 CONDO,1215,,1989,,255,220,Sold,,,https://www.redfin.com/FL/Miami/10863-NW-7th-St-33172/unit-14-20/home/43029468,MARMLS,A11347841,N,Y,25.7781867,-80.373743
PAST SALE,May-4-2023,Condo/Co-op,6841 SW 44th St #302,Miami,FL,33155,395000,3,2.0,GABLES COURT CONDO,1185,,2005,,333,657,Sold,,,https://www.redfin.com/FL/Miami/6841-SW-44th-St-33155/unit-302/home/43328445,MARMLS,A11360299,N,Y,25.730809,-80.305271
PAST SALE,April-11-2023,Condo/Co-op,10801 SW 109th Ct Unit D403,Miami,FL,33176,255000,2,1.5,THE TERRACES CONDO PH II,930,,1971,,274,313,Sold,,,https://www.redfin.com/FL/Miami/10801-SW-109th-Ct-33176/unit-D403/home/43149989,MARMLS,A11351298,N,Y,25.6699996,-80.3713021
PAST SALE,June-7-2023,Condo/Co-op,121 NE 204th St #11,Miami Gardens,FL,33179,175000,2,2.0,RO-MONT GARDENS ANDOVER C,942,,1969,,186,225,Sold,,,https://www.redfin.com/FL/Miami-Gardens/121-NE-204th-St-33179/unit-11/home/43296080,MARMLS,A11377907,N,Y,25.9633119,-80.199
PAST SALE,June-29-2023,Condo/Co-op,7957 SW 104th St Unit B208,Miami,FL,33156,265000,1,1.0,VENETIAN PALMS CONDO,854,,1971,,310,465,Sold,,,https://www.redfin.com/FL/Miami/7957-SW-104th-St-33156/unit-B208/home/43326436,MARMLS,A11392453,N,Y,25.674772,-80.324025
PAST SALE,May-12-2023,Condo/Co-op,791 Crandon Blvd #808,Key Biscayne,FL,33149,8615000,4,5.5,The Ocean Club,5207,,2001,,1655,6809,Sold,,,https://www.redfin.com/FL/Key-Biscayne/791-Crandon-Blvd-33149/unit-808/home/43279916,MARMLS,A11350946,N,Y,25.6883371,-80.1579324
PAST SALE,April-26-2023,Condo/Co-op,9674 Fontainebleau Blvd #28,Miami,FL,33172,375000,3,3.0,9674 GOLFVIEW VILLAS COND,1463,,1980,,256,262,Sold,,,https://www.redfin.com/FL/Miami/9674-Fontainebleau-Blvd-33172/unit-28/home/43052044,MARMLS,A11359471,N,Y,25.7751892,-80.3529123
PAST SALE,May-26-2023,Condo/Co-op,9175 SW 77th Ave #107,Miami,FL,33156,248000,1,1.5,KEN-DADE CONDO,810,,1965,,306,374,Sold,,,https://www.redfin.com/FL/Miami/9175-SW-77th-Ave-33156/unit-107/home/43149179,MARMLS,A11370938,N,Y,25.6851939,-80.3187533
PAST SALE,,Condo/Co-op,600 Biltmore Way #1219,Coral Gables,FL,33134,980000,3,2.0,,1775,,1973,,552,,,,,https://www.redfin.com/FL/Coral-Gables/600-Biltmore-Way-33134/unit-1219/home/42811452,,,N,Y,25.7475933,-80.2677277
PAST SALE,June-9-2023,Condo/Co-op,9403 SW 138th Pl #9403,Miami,FL,33186,340000,2,2.0,PARC VISTA CONDO,1224,,1987,,278,428,Sold,,,https://www.redfin.com/FL/Miami/9403-SW-138th-Pl-33186/unit-9403/home/43300193,MARMLS,A11383281,N,Y,25.681048,-80.419628
PAST SALE,May-2-2023,Condo/Co-op,929 Hamilton Dr Unit 929D,Homestead,FL,33034,218000,2,2.0,LAKESHORE CONDO 6,960,,1985,,227,298,Sold,,,https://www.redfin.com/FL/Homestead/929-Hamilton-Dr-33034/unit-929D/home/42899630,MARMLS,A11346505,N,Y,25.4556052,-80.4641438
PAST SALE,June-9-2023,Condo/Co-op,8475 SW 94th St Unit 105E,Miami,FL,33156,255000,2,1.0,GALLOWOOD CONDO,866,,1968,,294,398,Sold,,,https://www.redfin.com/FL/Miami/8475-SW-94th-St-33156/unit-105E/home/43438554,MARMLS,A11381758,N,Y,25.6831147,-80.3330171
PAST SALE,June-5-2023,Condo/Co-op,16 Island Ave Unit 5D,Miami Beach,FL,33139,1426000,2,2.5,BELLE TOWERS CONDO,,,1958,,,1997,Sold,,,https://www.redfin.com/FL/Miami-Beach/16-Island-Ave-33139/unit-5D/home/42789239,MARMLS,A11361822,N,Y,25.7903154,-80.147503
PAST SALE,May-19-2023,Condo/Co-op,20 Island Ave #806,Miami Beach,FL,33139,600000,1,1.5,BELLE PLAZA CONDO,897,,1962,,669,1040,Sold,,,https://www.redfin.com/FL/Miami-Beach/20-Island-Ave-33139/unit-806/home/42794130,MARMLS,A11372719,N,Y,25.7901852,-80.1465734
PAST SALE,June-22-2023,Condo/Co-op,1755 NE 116th Rd #18,North Miami,FL,33181,175000,1,1.0,HERITAGE OF SANS SOUCI,616,,1957,,284,342,Sold,,,https://www.redfin.com/FL/North-Miami/1755-NE-116th-Rd-33181/unit-18/home/42879977,MARMLS,A11396910,N,Y,25.8846793,-80.1636153
PAST SALE,May-18-2023,Condo/Co-op,836 SW 1st St #404,Miami,FL,33130,237500,2,1.0,EL RIO CONDO,721,,1973,,329,300,Sold,,,https://www.redfin.com/FL/Miami/836-SW-1st-St-33130/unit-404/home/42760741,MARMLS,A11373121,N,Y,25.7724831,-80.2083627
PAST SALE,April-6-2023,Condo/Co-op,440 E 23rd St #1116,Hialeah,FL,33013,184500,1,1.5,GOLDEN GATE CONDO PHASE I,725,,1979,,254,216,Sold,,,https://www.redfin.com/FL/Hialeah/440-E-23rd-St-33013/unit-1116/home/42858491,MARMLS,A11346730,N,Y,25.8422133,-80.2731813
PAST SALE,April-7-2023,Condo/Co-op,16751 NE 9th Ave #304,North Miami Beach,FL,33162,148000,1,1.5,WINDWOOD CONDO,719,,1973,,206,299,Sold,,,https://www.redfin.com/FL/Miami/16751-NE-9th-Ave-33162/unit-304/home/42868434,MARMLS,A11347691,N,Y,25.9296909,-80.1819507
PAST SALE,May-19-2023,Condo/Co-op,18348 NW 68th Ave Unit I,Hialeah,FL,33015,215000,1,1.0,LA HACIENDA COUNTRY CLUB,715,,1989,,301,289,Sold,,,https://www.redfin.com/FL/Hialeah/18348-NW-68th-Ave-33015/unit-I/home/43353535,MARMLS,A11366531,N,Y,25.9406866,-80.3128283
PAST SALE,April-12-2023,Condo/Co-op,2699 Tigertail Ave #32,Miami,FL,33133,770000,2,2.5,THE GROVE CLUB CONDO,1490,,2005,,517,1024,Sold,,,https://www.redfin.com/FL/Miami/2699-Tigertail-Ave-33133/unit-32/home/43345975,MARMLS,A11358780,N,Y,25.7321517,-80.2372068
PAST SALE,April-12-2023,Condo/Co-op,17620 Atlantic Blvd #417,Sunny Isles Beach,FL,33160,245000,1,1.0,AVILA CONDO,620,,1973,,395,434,Sold,,,https://www.redfin.com/FL/Sunny-Isles-Beach/17620-Atlantic-Blvd-33160/unit-417/home/43240701,MARMLS,A11346246,N,Y,25.9399414,-80.1228583
PAST SALE,April-14-2023,Condo/Co-op,15609 SW 73rd Cir Ter Unit 8-8,Miami,FL,33193,242500,2,2.0,LAKESIDE XI CONDO PH III,825,,1983,,294,315,Sold,,,https://www.redfin.com/FL/Miami/15609-SW-73rd-Circle-Ter-33193/unit-88/home/43139758,MARMLS,A11344950,N,Y,25.6975624,-80.4458505
PAST SALE,June-1-2023,Condo/Co-op,801 S Pointe Dr #302,Miami Beach,FL,33139,2075000,2,2.5,MAREA CONDO,1732,,2015,,1198,3430,Sold,,,https://www.redfin.com/FL/Miami-Beach/801-S-Pointe-Dr-33139/unit-302/home/110133370,MARMLS,A11377912,N,Y,25.7684937,-80.136642
PAST SALE,April-6-2023,Condo/Co-op,11790 SW 18th St Unit 328-3,Miami,FL,33175,282000,3,2.0,INTERNATIONAL PARK CONDO,1114,,1984,,253,312,Sold,,,https://www.redfin.com/FL/Miami/11790-SW-18th-St-33175/unit-328-3/home/43104616,MARMLS,A11341755,N,Y,25.74868,-80.3863068
PAST SALE,May-1-2023,Condo/Co-op,19501 W Country Club Dr #804,Aventura,FL,33180,549000,2,2.0,TURNBERRY ON THE GREEN CO,1245,,2002,,441,794,Sold,,,https://www.redfin.com/FL/Aventura/19501-W-Country-Club-Dr-33180/unit-804/home/43308441,MARMLS,A11361113,N,Y,25.9556063,-80.1382789
PAST SALE,June-22-2023,Condo/Co-op,3470 E Coast Ave Unit H1613,Miami,FL,33137,650000,2,2.5,TWO MIDTOWN MIAMI CONDO,1090,,2007,,596,1100,Sold,,,https://www.redfin.com/FL/Miami/3470-E-Coast-Ave-33137/unit-H1613/home/43380663,MARMLS,A11394798,N,Y,25.809553,-80.1915927
PAST SALE,June-29-2023,Condo/Co-op,8080 Tatum Waterway Dr #20,Miami Beach,FL,33141,248000,1,1.0,THE LOFTS AT TATUM CONDO,783,,1957,,317,346,Sold,,,https://www.redfin.com/FL/Miami-Beach/8080-Tatum-Waterway-Dr-33141/unit-20/home/43361080,MARMLS,A11383476,N,Y,25.8661702,-80.1243642
PAST SALE,June-21-2023,Condo/Co-op,11209 SW 88th St Unit 201B,Miami,FL,33176,300000,2,2.0,PINE GROVE CONDO,986,,1969,,304,363,Sold,,,https://www.redfin.com/FL/Miami/11209-N-Kendall-Dr-33176/unit-B201/home/43095124,MARMLS,A11385963,N,Y,25.689632,-80.3747823
PAST SALE,April-12-2023,Condo/Co-op,8401 SW 107th Ave Unit 372E,Miami,FL,33173,275000,1,1.5,KENDALL ACRES WEST CONDO,1067,,1974,,258,377,Sold,,,https://www.redfin.com/FL/Miami/8401-SW-107th-Ave-33173/unit-372E/home/43100299,MARMLS,A11349279,N,Y,25.689746,-80.36384
PAST SALE,April-11-2023,Condo/Co-op,719 Meridian Ave #6,Miami Beach,FL,33139,145000,1,1.0,VILLA VENETO CONDO,385,,1928,,377,550,Sold,,,https://www.redfin.com/FL/Miami-Beach/719-Meridian-Ave-33139/unit-6/home/43359046,MARMLS,A11346711,N,Y,25.7774938,-80.1358662
PAST SALE,May-8-2023,Condo/Co-op,10045 NW 46th St Unit 105-2,Doral,FL,33178,310000,1,1.0,VALENCIA AT DORAL CONDO N,811,,1992,,382,535,Sold,,,https://www.redfin.com/FL/Doral/10045-NW-46th-St-33178/unit-105-2/home/43378209,MARMLS,A11337246,N,Y,25.8154553,-80.3602535
PAST SALE,June-26-2023,Condo/Co-op,1351 NE Miami Gardens Dr Unit 1021E,Miami,FL,33179,151000,1,1.0,BUCKLEY TOWERS CONDO,801,,1969,,189,377,Sold,,,https://www.redfin.com/FL/Miami/1351-NE-Miami-Gardens-Dr-33179/unit-1021E/home/43437293,MARMLS,A11379176,N,Y,25.9458272,-80.1748099
PAST SALE,June-20-2023,Condo/Co-op,1351 NE Miami Gardens Dr Unit 325E,Miami,FL,33179,165500,2,2.0,BUCKLEY TOWERS CONDO - EA,1140,,1969,,145,569,Sold,,,https://www.redfin.com/FL/Miami/1351-NE-Miami-Gardens-Dr-33179/unit-325E/home/43002761,MARMLS,A11379200,N,Y,25.9458272,-80.1748099
PAST SALE,May-26-2023,Condo/Co-op,1340 W 41st St #102,Hialeah,FL,33012,260000,2,2.0,VILLAS DEL SOL CONDO,888,,1987,,293,123,Sold,,,https://www.redfin.com/FL/Hialeah/1340-W-41st-St-33012/unit-102/home/43276800,MARMLS,A11370636,N,Y,25.8585494,-80.3095155
PAST SALE,April-14-2023,Condo/Co-op,41 SE 5th St #506,Miami,FL,33131,460000,1,1.5,BRICKELL ON THE RIVER S T,1056,,2006,,436,804,Sold,,,https://www.redfin.com/FL/Miami/41-SE-5th-St-33131/unit-506/home/43471425,MARMLS,A11352200,N,Y,25.7690616,-80.1918153
PAST SALE,April-26-2023,Condo/Co-op,8360 SW 154th Ave #14,Miami,FL,33193,300000,3,2.5,CENTRE COURT CONDO,1522,,1978,,197,413,Sold,,,https://www.redfin.com/FL/Miami/8360-SW-154th-Ave-33193/unit-14/home/43137140,MARMLS,A11355805,N,Y,25.6889117,-80.4431729
PAST SALE,May-15-2023,Condo/Co-op,8800 NW 107th Ct #204,Doral,FL,33178,380000,2,2.5,CORONADO AT DORAL VII CON,1123,,2010,,338,362,Sold,,,https://www.redfin.com/FL/Doral/8800-NW-107th-Ct-33178/unit-204/home/43462049,MARMLS,A11359905,N,Y,25.8538477,-80.371998
PAST SALE,May-31-2023,Condo/Co-op,850 SW 129th Pl #201,Miami,FL,33184,250000,2,2.0,UNIVERSITY TRAIL CONDO,866,,1974,,289,259900,Sold,,,https://www.redfin.com/FL/Miami/850-SW-129th-Pl-33184/unit-201/home/43268109,MARMLS,A11364401,N,Y,25.7605606,-80.4074827
PAST SALE,April-21-2023,Condo/Co-op,4660 NW 79th Ave Unit 1A,Doral,FL,33166,291500,2,2.0,DORAL GARDENS CONDO,1060,,1970,,275,395,Sold,,,https://www.redfin.com/FL/Doral/4660-NW-79th-Ave-33166/unit-1A/home/43330005,MARMLS,A11350549,N,Y,25.8169258,-80.3256041
PAST SALE,May-26-2023,Condo/Co-op,9021 NE 4th Ave Rd #9021,Miami Shores,FL,33138,335000,2,1.5,SHORES VILLAS CONDO BLDG,954,,1974,,351,565,Sold,,,https://www.redfin.com/FL/Miami-Shores/9021-NE-4th-Avenue-Rd-33138/unit-9021/home/42903822,MARMLS,A11371033,N,Y,25.8584213,-80.1861641
PAST SALE,April-21-2023,Condo/Co-op,10135 NW 9th St Cir Unit 5-206,Miami,FL,33172,237000,2,1.0,LAS BRISAS VILLAGE CONDO,874,,1983,,271,301,Sold,,,https://www.redfin.com/FL/Miami/10135-NW-9th-Street-Cir-33172/unit-5-206/home/43419375,MARMLS,A11319775,N,Y,25.778571,-80.360735
PAST SALE,April-10-2023,Condo/Co-op,13280 Old Biscayne Dr #606,Homestead,FL,33033,265000,3,2.0,OLD BISCAYNE VILLAS CONDO,1245,,2006,,213,365,Sold,,,https://www.redfin.com/FL/Homestead/13280-Old-Biscayne-Dr-33033/unit-606/home/43385215,MARMLS,A11350304,N,Y,25.4972057,-80.4066208
PAST SALE,May-9-2023,Condo/Co-op,15689 SW 106th Ln #714,Miami,FL,33196,222000,1,1.0,VISTA LAGO AT THE HAMMOCK,651,,1988,,341,619,Sold,,,https://www.redfin.com/FL/Miami/15689-SW-106th-Ln-33196/unit-714/home/43404204,MARMLS,A11373000,N,Y,25.6675468,-80.4481947
PAST SALE,April-14-2023,Condo/Co-op,244 Biscayne Blvd #1003,Miami,FL,33132,740000,2,2.5,Vizcayne North,1590,,2008,,465,1223,Sold,,,https://www.redfin.com/FL/Miami/244-Biscayne-Blvd-33132/unit-1003/home/43404574,Beaches MLS,F10368419,N,Y,25.776438,-80.189609
PAST SALE,June-1-2023,Condo/Co-op,19975 NE 5th Ct Unit 3Q,Miami,FL,33179,335000,2,2.0,SANDPIPER AT CALIF CLUB C,1580,,1980,,212,695,Sold,,,https://www.redfin.com/FL/Miami/19975-NE-5th-Ct-33179/unit-3Q/home/43018155,MARMLS,A11378078,N,Y,25.9585519,-80.1893727
PAST SALE,April-25-2023,Condo/Co-op,2899 Collins Ave #1418,Miami Beach,FL,33140,376000,1,1.5,Triton Tower Condo,797,,1966,,472,579,Sold,,,https://www.redfin.com/FL/Miami-Beach/2899-Collins-Ave-33140/unit-1418/home/42778877,Beaches MLS,F10371423,N,Y,25.8041379,-80.1251496
PAST SALE,May-25-2023,Condo/Co-op,9210 Fontainebleau Blvd #505,Miami,FL,33172,293000,2,2.0,30-4004-019-0230,1113,,1973,,263,287,Sold,,,https://www.redfin.com/FL/Miami/9210-Fontainebleau-Blvd-33172/unit-505/home/43041788,MARMLS,A11356890,N,Y,25.771423,-80.345395
PAST SALE,June-7-2023,Condo/Co-op,6001 SW 70th St #624,South Miami,FL,33143,312000,1,1.0,VALENCIA CONDO,652,,2004,,479,390,Sold,,,https://www.redfin.com/FL/South-Miami/6001-SW-70th-St-33143/unit-624/home/43342506,MARMLS,A11377147,N,Y,25.7066498,-80.2912754
PAST SALE,May-24-2023,Condo/Co-op,8950 SW 69th Ct #204,Pinecrest,FL,33156,296000,1,1.0,PALMS OF PINECREST CONDO,800,,1967,,370,310,Sold,,,https://www.redfin.com/FL/Pinecrest/8950-SW-69th-Ct-33156/unit-204/home/43321145,MARMLS,A11372792,N,Y,25.6875868,-80.3084511
PAST SALE,April-6-2023,Condo/Co-op,1610 NW River Dr #109,Miami,FL,33125,176900,1,1.0,1610 River Place,460,,1964,,385,300,Sold,,,https://www.redfin.com/FL/Miami/1610-NW-North-River-Dr-33125/unit-109/home/43256050,Beaches MLS,F10369471,N,Y,25.7858452,-80.2218657
PAST SALE,May-31-2023,Condo/Co-op,10275 Collins Ave #823,Bal Harbour,FL,33154,1200000,2,2.0,HARBOUR HOUSE,1056,,1964,,1136,1069,Sold,,,https://www.redfin.com/FL/Bal-Harbour/10275-Collins-Ave-33154/unit-823/home/43385511,MARMLS,A11374492,N,Y,25.897903,-80.1234483
PAST SALE,,Condo/Co-op,5600 Collins Ave Unit 3D,Miami Beach,FL,33140,518000,2,2.0,,1190,,1967,,435,,,,,https://www.redfin.com/FL/Miami-Beach/5600-Collins-Ave-33140/unit-3D/home/43266923,,,N,Y,25.836034,-80.121313
PAST SALE,May-26-2023,Condo/Co-op,7850 Byron Ave #807,Miami Beach,FL,33141,440000,2,2.0,BYRON GARDENS CONDO,1077,,1970,,409,597,Sold,,,https://www.redfin.com/FL/Miami-Beach/7850-Byron-Ave-33141/unit-807/home/42760606,MARMLS,A11374933,N,Y,25.8636817,-80.1240787
PAST SALE,June-20-2023,Condo/Co-op,18683 Collins Ave #1809,Sunny Isles Beach,FL,33160,590000,1,1.0,M RESORT RESIDENCES CONDO,688,,2005,,858,921,Sold,,,https://www.redfin.com/FL/Sunny-Isles-Beach/18683-Collins-Ave-33160/unit-1809/home/43361973,MARMLS,A11384018,N,Y,25.9491487,-80.1198478
PAST SALE,May-24-2023,Condo/Co-op,2166 W 60th St #15207,Hialeah,FL,33016,195000,1,1.0,HIALEAH CLUB VILLAS CONDO,528,,1985,,369,290,Sold,,,https://www.redfin.com/FL/Hialeah/2166-W-60th-St-33016/unit-15207/home/43418618,MARMLS,A11375176,N,Y,25.8756925,-80.3265072
PAST SALE,May-19-2023,Condo/Co-op,3131 NE 7th Ave #3804,Miami,FL,33137,1435000,3,3.5,ONE PARAISO CONDO,1526,,2018,,940,1890,Sold,,,https://www.redfin.com/FL/Miami/3131-NE-7th-Ave-33137/unit-3804/home/79137199,MARMLS,A11368539,N,Y,25.8070469,-80.1855776
PAST SALE,May-2-2023,Condo/Co-op,1100 S Miami Ave #2301,Miami,FL,33130,675000,2,2.0,1100 MILLECENTO RESIDENCE,1167,,2015,,578,921,Sold,,,https://www.redfin.com/FL/Miami/1100-S-Miami-Ave-33130/unit-2301/home/55272552,MARMLS,A11349557,N,Y,25.7632808,-80.1935465
PAST SALE,June-29-2023,Condo/Co-op,1840 S James Ave #24,Miami Beach,FL,33139,295000,1,1.0,SHERITA CONDO,464,,1952,,636,450,Sold,,,https://www.redfin.com/FL/Miami-Beach/1840-James-Ave-33139/unit-24/home/43283586,MARMLS,A11390539,N,Y,25.794925,-80.1312347
PAST SALE,June-29-2023,Condo/Co-op,4854 NW 7th St #208,Miami,FL,33126,290000,2,2.0,VISTA LAKE CONDO,1023,,2000,,283,210,Sold,,,https://www.redfin.com/FL/Miami/4854-NW-7th-St-33126/unit-208/home/43273102,MARMLS,A11391284,N,Y,25.7781922,-80.2751216
PAST SALE,May-15-2023,Condo/Co-op,7915 NW 104th Ave #26,Doral,FL,33178,455000,3,2.0,APEX AT CENTRAL PARK CONDO,1236,,2021,,368,353,Sold,,,https://www.redfin.com/FL/Doral/7915-NW-104th-Ave-33178/unit-26/home/178640252,MARMLS,A11360835,N,Y,25.8456548,-80.3667087
PAST SALE,April-14-2023,Condo/Co-op,8601 SW 94th St Unit 222W,Miami,FL,33156,225000,1,1.0,GALLOWOOD CONDO,709,,1968,,317,314,Sold,,,https://www.redfin.com/FL/Miami/8601-SW-94th-St-33156/unit-222W/home/43386873,MARMLS,A11354421,N,Y,25.6830542,-80.3346745
PAST SALE,May-23-2023,Condo/Co-op,15051 Royal Oaks Ln #1801,North Miami,FL,33181,450000,2,2.0,THE OAKS I CONDO,1763,,2007,,255,1172,Sold,,,https://www.redfin.com/FL/North-Miami/15051-Royal-Oaks-Ln-33181/unit-1801/home/43470247,MARMLS,A11360633,N,Y,25.914407,-80.151864
PAST SALE,June-30-2023,Condo/Co-op,1614 West Ave #506,Miami Beach,FL,33139,308000,1,1.0,TWIN TOWERS CONDO,667,,1965,,462,395,Sold,,,https://www.redfin.com/FL/Miami-Beach/1614-West-Ave-33139/unit-506/home/42783468,MARMLS,A11378544,N,Y,25.7894703,-80.1428147
PAST SALE,April-26-2023,Condo/Co-op,1655 W 44th Pl #254,Hialeah,FL,33012,185000,1,1.0,EL SOL CONDO,625,,1972,,296,272,Sold,,,https://www.redfin.com/FL/Hialeah/1655-W-44th-Pl-33012/unit-254/home/43296567,MARMLS,A11360825,N,Y,25.8628152,-80.3168821
PAST SALE,April-18-2023,Condo/Co-op,4845 NW 7th St Unit 209-5,Miami,FL,33126,209000,2,2.0,SUNSET VILLAS PHASE II CO,782,,1973,,267,275,Sold,,,https://www.redfin.com/FL/Miami/4845-NW-7th-St-33126/unit-209-5/home/42714158,MARMLS,A11346689,N,Y,25.7790723,-80.274599
PAST SALE,April-21-2023,Condo/Co-op,18324 NW 68th Ave Unit P,Hialeah,FL,33015,210000,1,1.0,LA HACIENDA COUNTRY CLUB,782,,1989,,269,266,Sold,,,https://www.redfin.com/FL/Hialeah/18324-NW-68th-Ave-33015/unit-P/home/43339817,MARMLS,A11359528,N,Y,25.9393263,-80.3149998
PAST SALE,April-14-2023,Condo/Co-op,1030 9th St #604,Miami Beach,FL,33139,335000,1,1.0,LENOX TOWERS CONDO,743,,1965,,451,417,Sold,,,https://www.redfin.com/FL/Miami-Beach/1030-9th-St-33139/unit-604/home/42800629,MARMLS,A11348851,N,Y,25.7791453,-80.1393038
PAST SALE,June-16-2023,Condo/Co-op,3021 W 76th St Unit C-209,Hialeah,FL,33018,235000,1,1.0,VILLA VERANDA CONDO,757,,1991,,310,167,Sold,,,https://www.redfin.com/FL/Hialeah/3021-W-76th-St-33018/unit-C-209/home/43333936,MARMLS,A11376105,N,Y,25.8925384,-80.3441783
PAST SALE,May-26-2023,Condo/Co-op,253 NE 2nd St #429,Miami,FL,33132,515000,2,2.5,VIZCAYNE SOUTH CONDO,1379,,2008,,373,1402,Sold,,,https://www.redfin.com/FL/Miami/253-NE-2nd-St-33132/unit-429/home/43417024,MARMLS,A11351671,N,Y,25.7767819,-80.1883852
PAST SALE,June-9-2023,Condo/Co-op,1871 NW S River Dr #1507,Miami,FL,33125,400000,2,2.0,TERRAZAS RIVERPARK VILLAG,887,,2010,,451,800,Sold,,,https://www.redfin.com/FL/Miami/1871-NW-South-River-Dr-33125/unit-1507/home/43444583,MARMLS,A11386334,N,Y,25.784835,-80.2258377
PAST SALE,June-27-2023,Condo/Co-op,8005 SW 107th Ave #221,Miami,FL,33173,220000,1,1.5,THE HORIZONS CONDO #6,705,,1981,,312,433,Sold,,,https://www.redfin.com/FL/Miami/8005-SW-107th-Ave-33173/unit-221/home/43100191,MARMLS,A11392676,N,Y,25.6934796,-80.364573
PAST SALE,June-15-2023,Condo/Co-op,19201 Collins Ave #724,Sunny Isles Beach,FL,33160,196500,1,1.0,THE AVENTURA BEACH CLUB C,360,,1966,,546,796,Sold,,,https://www.redfin.com/FL/Sunny-Isles-Beach/19201-Collins-Ave-33160/unit-724/home/43240961,MARMLS,A11362862,N,Y,25.9543176,-80.1198998
PAST SALE,May-26-2023,Condo/Co-op,2101 Brickell Ave #1202,Miami,FL,33129,470000,1,1.0,SKYLINE ON BRICKELL CONDO,791,,2004,,594,804,Sold,,,https://www.redfin.com/FL/Miami/2101-Brickell-Ave-33129/unit-1202/home/43442166,MARMLS,A11370787,N,Y,25.752407,-80.198873
PAST SALE,June-21-2023,Condo/Co-op,9159 SW 77th Ave #307,Miami,FL,33156,260000,2,2.0,KEN-DADE NO 2 CONDOMINIUM,1148,,1966,,226,324,Sold,,,https://www.redfin.com/FL/Miami/9159-SW-77th-Ave-33156/unit-307/home/43431833,MARMLS,A11364220,N,Y,25.6852305,-80.3179622
PAST SALE,April-27-2023,Condo/Co-op,1690 NE 191 St Unit 414-1,Miami,FL,33179,176000,2,2.0,JADE WINDS GROUP BAMBOO,1674,,1967,,105,1380,Sold,,,https://www.redfin.com/FL/Miami/1690-NE-191st-St-33179/unit-414-1/home/43005722,MARMLS,A11309391,N,Y,25.9507026,-80.1687338
PAST SALE,May-16-2023,Condo/Co-op,3530 Mystic Pointe Dr Ph 14,Aventura,FL,33180,705000,2,2.5,MYSTIC POINTE TOWER 500 C,1365,,1991,,516,798,Sold,,,https://www.redfin.com/FL/Aventura/3530-Mystic-Pointe-Dr-33180/unit-14/home/42937632,MARMLS,A11373109,N,Y,25.9529117,-80.130938
PAST SALE,,Condo/Co-op,19080 NE 3rd Ct #319,Miami,FL,33179,63500,,1.0,,407,,1968,,156,,,,,https://www.redfin.com/FL/Miami/19080-NE-3rd-Ct-33179/unit-319/home/43011578,,,N,Y,25.949846,-80.1945609
