{
"type": "FeatureCollection",
"name": "data",
"crs": { "type": "name", "properties": { "name": "urn:ogc:def:crs:OGC:1.3:CRS84" } },
"features": [
{ "type": "Feature", "properties": { "NewName": "Austin", "OldName": "Austin", "AddressName": "Neuralink", "Description": "Office and manufacturing facility", "Street": "2200 Caldwell Lane", "City": "Del Valle", "State": "Texas", "full_address": "2200 Caldwell Lane Del Valle Texas", "latitude": 30.217206, "longitude": -97.5440147 }, "geometry": { "type": "Point", "coordinates": [ -97.5440147, 30.217206 ] } },
{ "type": "Feature", "properties": { "NewName": "Austin", "OldName": "Austin", "AddressName": "Tesla ", "Description": "HQ, gigafactory ", "Street": "1 Tesla Road", "City": "Austin", "State": "Texas", "full_address": "1 Tesla Road Austin Texas", "latitude": 30.2280739, "longitude": -97.6164766 }, "geometry": { "type": "Point", "coordinates": [ -97.616476600000013, 30.2280739 ] } },
{ "type": "Feature", "properties": { "NewName": "Snailbrook", "OldName": "Bastrop", "AddressName": "Starlink", "Description": "Internet kit producer for SpaceX", "Street": "858 FM1209", "City": "Bastrop", "State": "Texas", "full_address": "858 FM1209 Bastrop Texas", "latitude": 30.1543724, "longitude": -97.4062653 }, "geometry": { "type": "Point", "coordinates": [ -97.4062653, 30.1543724 ] } },
{ "type": "Feature", "properties": { "NewName": "Snailbrook", "OldName": "Bastrop", "AddressName": "The Boring Company ", "Description": "Factory", "Street": "130 Walker Watson Rd", "City": "Bastrop", "State": "Texas", "full_address": "130 Walker Watson Rd Bastrop Texas", "latitude": 30.1530438, "longitude": -97.4044375 }, "geometry": { "type": "Point", "coordinates": [ -97.4044375, 30.1530438 ] } },
{ "type": "Feature", "properties": { "NewName": "Snailbrook", "OldName": "Bastrop", "AddressName": "Hyperloop Plaza ", "Description": "Retail, office for X ", "Street": "865 FM1209", "City": "Bastrop", "State": "Texas", "full_address": "865 FM1209 Bastrop Texas", "latitude": 30.1552682, "longitude": -97.4033166 }, "geometry": { "type": "Point", "coordinates": [ -97.4033166, 30.1552682 ] } },
{ "type": "Feature", "properties": { "NewName": "Snailbrook", "OldName": "Bastrop", "AddressName": "Snailbrook", "Description": "Workforce housing ", "Street": "130 Walker Watson Rd", "City": "Bastrop", "State": "Texas", "full_address": "130 Walker Watson Rd Bastrop Texas", "latitude": 30.1530438, "longitude": -97.4044375 }, "geometry": { "type": "Point", "coordinates": [ -97.4044375, 30.1530438 ] } },
{ "type": "Feature", "properties": { "NewName": "Starbase", "OldName": "Boca Chica", "AddressName": "Starbase ", "Description": "SpaceX launch site  and workforce housing", "Street": "1 Rocket Road", "City": "Brownsville ", "State": "Texas", "full_address": "1 Rocket Road Brownsville  Texas", "latitude": 25.987613, "longitude": -97.186418 }, "geometry": { "type": "Point", "coordinates": [ -97.186418, 25.987613 ] } },
{ "type": "Feature", "properties": { "NewName": "Starbase", "OldName": "Boca Chica", "AddressName": "Starbase", "Description": "Restaurant", "Street": "50520 Rio Grande Drive", "City": "Brownsville ", "State": "Texas", "full_address": "50520 Rio Grande Drive Brownsville  Texas", "latitude": 25.9648205, "longitude": -97.208075 }, "geometry": { "type": "Point", "coordinates": [ -97.208075, 25.9648205 ] } },
{ "type": "Feature", "properties": { "NewName": "Starbase", "OldName": "Boca Chica", "AddressName": "Starbase", "Description": "Shopping Center", "Street": "40998 Quick Silver Ave", "City": "Brownsville ", "State": "Texas", "full_address": "40998 Quick Silver Ave Brownsville  Texas", "latitude": 25.9598151, "longitude": -97.2278273 }, "geometry": { "type": "Point", "coordinates": [ -97.2278273, 25.9598151 ] } }
]
}
