SALE TYPE,SOLD DATE,PROPERTY TYPE,ADDRESS,CITY,STATE OR PROVINCE,ZIP OR POSTAL CODE,PRICE,BEDS,BATHS,LOCATION,SQUARE FEET,LOT SIZE,YEAR BUILT,DAYS ON MARKET,$/SQUARE FEET,HOA/MONTH,STATUS,NEXT OPEN HOUSE START TIME,NEXT OPEN HOUSE END TIME,URL (SEE https://www.redfin.com/buy-a-home/comparative-market-analysis FOR INFO ON PRICING),SOURCE,MLS#,FAVORITE,INTERESTED,LATITUDE,LONGITUDE
PAST SALE,August-7-2023,Condo/Co-op,336 Golfview Rd #505,North Palm Beach,FL,33408,390000,2,2.0,Gemini Condo,1143,,1975,,341,967,Sold,,,https://www.redfin.com/FL/North-Palm-Beach/336-Golfview-Rd-33408/unit-505/home/42472859,Beaches MLS,RX-10899518,N,Y,26.8341091,-80.0617434
PAST SALE,August-23-2023,Condo/Co-op,21726 Arriba Real Unit C,Boca Raton,FL,33433,348900,2,2.0,Glades OF Boca Lago Condo,1216,,1979,,287,611,Sold,,,https://www.redfin.com/FL/Boca-Raton/21726-Arriba-Real-33433/unit-C/home/42253792,Beaches MLS,RX-10896286,N,Y,26.3503602,-80.1820576
PAST SALE,,Condo/Co-op,122 Legendary Cir,Palm Beach Gardens,FL,33418,700000,3,2.0,,1912,,1989,,366,,,,,https://www.redfin.com/FL/Palm-Beach-Gardens/122-Legendary-Cir-33418/home/42445886,,,N,Y,26.829084,-80.150676
PAST SALE,July-12-2023,Condo/Co-op,3040 Lake Shore Dr #302,Riviera Beach,FL,33404,385000,2,2.0,Lake Harbor Cove Condo,1440,,1978,,267,1108,Sold,,,https://www.redfin.com/FL/Riviera-Beach/3040-Lake-Shore-Dr-33404/unit-302/home/42462107,Beaches MLS,RX-10892897,N,Y,26.787431,-80.051028
PAST SALE,July-27-2023,Condo/Co-op,16 Via De Casas Sur #204,Boynton Beach,FL,33426,245000,2,2.0,South Lake Condo at Dos Lagos,1054,,1989,,232,661,Sold,,,https://www.redfin.com/FL/Boynton-Beach/16-Via-de-Casas-Sur-33426/unit-204/home/42343612,Beaches MLS,RX-10895726,N,Y,26.5504175,-80.0893284
PAST SALE,August-1-2023,Condo/Co-op,1205 Crystal Way Unit D,Delray Beach,FL,33444,230000,1,1.0,Bahia AT Delray Condo,560,,1989,,411,318,Sold,,,https://www.redfin.com/FL/Delray-Beach/1205-Crystal-Way-33444/unit-D/home/42606739,Beaches MLS,RX-10894437,N,Y,26.4305169,-80.0861863
PAST SALE,June-14-2023,Condo/Co-op,13213 Lucinda Palm Ct Unit F,Delray Beach,FL,33484,235000,2,2.0,Palm Greens AT Villa Del Ray Condo,1196,43560,1980,,196,470,Sold,,,https://www.redfin.com/FL/Delray-Beach/13213-Lucinda-Palm-Ct-33484/unit-F/home/42218981,Beaches MLS,RX-10865471,N,Y,26.4827311,-80.1341988
PAST SALE,June-9-2023,Condo/Co-op,200 Arkona Ct #1101,West Palm Beach,FL,33401,3741990,3,3.5,La Clara,3158,,2023,,1185,3245,Sold,,,https://www.redfin.com/FL/West-Palm-Beach/200-Arkona-Ct-33401/unit-1101/home/185753233,Beaches MLS,RX-10896873,N,Y,26.699821,-80.0513967
PAST SALE,June-9-2023,Condo/Co-op,200 Arkona Ct #804,West Palm Beach,FL,33401,3979920,3,3.5,La Clara,3094,,2023,,1286,3153,Sold,,,https://www.redfin.com/FL/West-Palm-Beach/200-Arkona-Ct-33401/unit-804/home/185752932,Beaches MLS,RX-10896872,N,Y,26.699821,-80.0513967
PAST SALE,August-30-2023,Condo/Co-op,3740 S Ocean Blvd #1808,Highland Beach,FL,33487,4000000,3,3.5,Toscana South,2842,,2004,,1407,2376,Sold,,,https://www.redfin.com/FL/Highland-Beach/3740-S-Ocean-Blvd-33487/unit-1808/home/42581538,Beaches MLS,RX-10915807,N,Y,26.4075528,-80.0656722
PAST SALE,,Condo/Co-op,14709 Canalview Dr Unit C,Delray Beach,FL,33484,110000,1,1.5,,1068,,1981,,103,,,,,https://www.redfin.com/FL/Delray-Beach/14709-Canalview-Dr-33484/unit-C/home/42216188,,,N,Y,26.4603619,-80.1295544
PAST SALE,,Condo/Co-op,3450 S Ocean Blvd #6200,Palm Beach,FL,33480,375000,1,1.5,,1008,,1971,,372,,,,,https://www.redfin.com/FL/Palm-Beach/3450-S-Ocean-Blvd-33480/unit-6200/home/42439624,,,N,Y,26.5948341,-80.037302
PAST SALE,,Condo/Co-op,242 Village Blvd #2304,Tequesta,FL,33469,329000,2,2.0,,1200,,1999,,274,,,,,https://www.redfin.com/FL/Tequesta/242-Village-Blvd-33469/unit-2304/home/42585106,,,N,Y,26.963778,-80.089329
PAST SALE,,Condo/Co-op,2014 S Federal Hwy #409,Boynton Beach,FL,33435,205000,2,2.0,,963,,1973,,213,,,,,https://www.redfin.com/FL/Boynton-Beach/2014-S-Federal-Hwy-33435/unit-409/home/42634405,,,N,Y,26.510099,-80.058048
PAST SALE,,Condo/Co-op,3200 Meridian Way S #7,Palm Beach Gardens,FL,33410,210000,2,2.0,,1095,,1970,,192,,,,,https://www.redfin.com/FL/Palm-Beach-Gardens/3200-Meridian-Way-S-33410/unit-7/home/42642565,,,N,Y,26.8249066,-80.084637
PAST SALE,,Condo/Co-op,350 High Point Ct Unit B,Boynton Beach,FL,33435,132000,1,1.5,,954,,1971,,138,,,,,https://www.redfin.com/FL/Boynton-Beach/350-High-Point-Ct-33435/unit-B/home/42349147,,,N,Y,26.5084773,-80.0707757
PAST SALE,July-6-2023,Condo/Co-op,3707 Quail Ridge Dr Unit Bobwhite B,Boynton Beach,FL,33436,340000,3,2.0,Quail Ridge,1958,,1978,,174,1332,Sold,,,https://www.redfin.com/FL/Boynton-Beach/3707-Quail-Ridge-Dr-33436/unit-Bobwhite-B/home/182302076,Beaches MLS,RX-10902274,N,Y,26.509504,-80.100843
PAST SALE,,Condo/Co-op,11259 Aspen Glen Dr,Boynton Beach,FL,33437,241000,3,2.0,,1669,,1985,,144,,,,,https://www.redfin.com/FL/Boynton-Beach/11259-Aspen-Glen-Dr-33437/home/42206199,,,N,Y,26.511396,-80.144239
PAST SALE,,Condo/Co-op,1801 N Flagler Dr #501,West Palm Beach,FL,33407,650000,2,2.0,,1334,,2001,,487,,,,,https://www.redfin.com/FL/West-Palm-Beach/1801-N-Flagler-Dr-33407/unit-501/home/42592330,,,N,Y,26.7293708,-80.0504798
PAST SALE,July-18-2023,Condo/Co-op,200 Arkona Ct #1804,West Palm Beach,FL,33401,4186250,3,3.5,La Clara,3094,,2023,,1353,3153,Sold,,,https://www.redfin.com/FL/West-Palm-Beach/200-Arkona-Ct-33401/unit-1804/home/186195913,Beaches MLS,RX-10906489,N,Y,26.699821,-80.0513967
PAST SALE,July-24-2023,Condo/Co-op,200 Arkona Ct #1802,West Palm Beach,FL,33401,2506000,2,2.5,La Clara,1516,,2023,,1653,1579,Sold,,,https://www.redfin.com/FL/West-Palm-Beach/200-Arkona-Ct-33401/unit-1802/home/186195898,Beaches MLS,RX-10906485,N,Y,26.699821,-80.0513967
PAST SALE,July-11-2023,Condo/Co-op,200 Arkona Ct #1601,West Palm Beach,FL,33401,4651480,3,3.5,La Clara,3158,,2023,,1473,3245,Sold,,,https://www.redfin.com/FL/West-Palm-Beach/200-Arkona-Ct-33401/unit-1601/home/176986474,Beaches MLS,RX-10903184,N,Y,26.699821,-80.0513967
PAST SALE,July-5-2023,Condo/Co-op,200 Arkona Ct #601,West Palm Beach,FL,33401,3291707,3,3.5,La Clara,3158,,2023,,1042,3245,Sold,,,https://www.redfin.com/FL/West-Palm-Beach/200-Arkona-Ct-33401/unit-601/home/186065113,Beaches MLS,RX-10896834,N,Y,26.699821,-80.0513967
PAST SALE,,Condo/Co-op,4804 N Flagler Dr #1,West Palm Beach,FL,33407,1800000,2,2.0,,1056,,1964,,1705,,,,,https://www.redfin.com/FL/West-Palm-Beach/4804-N-Flagler-Dr-33407/unit-1/home/42517616,,,N,Y,26.7543161,-80.0516158
PAST SALE,,Condo/Co-op,2600 N Flagler Dr #1003,West Palm Beach,FL,33407,550000,3,2.0,,1480,,1969,,372,,,,,https://www.redfin.com/FL/West-Palm-Beach/2600-N-Flagler-Dr-33407/unit-1003/home/42514550,,,N,Y,26.7369736,-80.0497815
PAST SALE,,Condo/Co-op,2406 Tuscany Way,Boynton Beach,FL,33435,265000,1,1.0,,726,,2002,,365,,,,,https://www.redfin.com/FL/Boynton-Beach/2406-Tuscany-Way-33435/home/42581217,,,N,Y,26.508021,-80.058289
PAST SALE,,Condo/Co-op,175 N High Point Blvd Unit D,Boynton Beach,FL,33435,192500,2,2.0,,1104,,1970,,174,,,,,https://www.redfin.com/FL/Boynton-Beach/175-N-High-Point-Blvd-33435/unit-D/home/42348549,,,N,Y,26.5105392,-80.0677453
PAST SALE,,Condo/Co-op,5283 Europa Dr Unit C,Boynton Beach,FL,33437,285000,3,2.0,,1282,,1991,,222,,,,,https://www.redfin.com/FL/Boynton-Beach/5283-Europa-Dr-33437/unit-C/home/42201099,,,N,Y,26.5331016,-80.1299835
PAST SALE,,Condo/Co-op,55 SE 14th St #2130,Boca Raton,FL,33432,315000,2,2.0,,1053,,1974,,299,,,,,https://www.redfin.com/FL/Boca-Raton/55-SE-14th-St-33432/unit-2130/home/42335234,,,N,Y,26.3376115,-80.0888105
PAST SALE,,Condo/Co-op,55 SW 2nd Ave Unit 511G,Boca Raton,FL,33432,225000,1,1.0,,594,,1975,,379,,,,,https://www.redfin.com/FL/Boca-Raton/55-SW-2nd-Ave-33432/unit-511G/home/42333550,,,N,Y,26.3492234,-80.0903852
PAST SALE,September-5-2023,Condo/Co-op,3706 Quail Ridge Dr Unit Green Heron S,Boynton Beach,FL,33436,600000,2,2.0,Quail Ridge,1687,,1979,,356,1123,Sold,,,https://www.redfin.com/FL/Boynton-Beach/3706-N-Quail-Ridge-Dr-33436/unit-Green-Heron-S/home/187353233,Beaches MLS,RX-10917268,N,Y,26.5114244,-80.0995082
PAST SALE,June-30-2023,Condo/Co-op,14111 Royal Vista Dr #302,Delray Beach,FL,33484,229000,2,2.0,Huntington Pointe,1392,,1993,,165,730,Sold,,,https://www.redfin.com/FL/Delray-Beach/14111-Royal-Vista-Dr-33484/unit-302/home/42224378,Beaches MLS,RX-10894604,N,Y,26.4666672,-80.1415936
PAST SALE,,Condo/Co-op,101 Normandy C #101,Delray Beach,FL,33484,170000,2,2.0,,907,,1980,,187,,,,,https://www.redfin.com/FL/Delray-Beach/101-Normandy-C-33484/unit-101/home/42235600,,,N,Y,26.4461452,-80.1422777
PAST SALE,,Condo/Co-op,620 NW 13th St #130,Boca Raton,FL,33486,260000,3,2.0,,1286,,1970,,202,,,,,https://www.redfin.com/FL/Boca-Raton/620-NW-13th-St-33486/unit-130/home/42319996,,,N,Y,26.3606749,-80.0991374
PAST SALE,,Condo/Co-op,1500 N Congress Ave Unit B18,West Palm Beach,FL,33401,115000,1,1.0,,625,,1980,,184,,,,,https://www.redfin.com/FL/West-Palm-Beach/1500-N-Congress-Ave-33401/unit-B18/home/42522149,,,N,Y,26.7273451,-80.08899
PAST SALE,July-14-2023,Condo/Co-op,34 Colonial Club Dr #100,Boynton Beach,FL,33435,200000,2,2.0,Colonial Club Condo Sec 1,1200,365,1974,,167,796,Sold,,,https://www.redfin.com/FL/Boynton-Beach/34-Colonial-Club-Dr-33435/unit-100/home/42348245,Beaches MLS,RX-10902435,N,Y,26.5008248,-80.0599754
PAST SALE,July-27-2023,Condo/Co-op,1000 Lowry St Unit 1g,Delray Beach,FL,33483,550000,1,1.5,Delray Summit Condo,1015,,1966,,542,932,Sold,,,https://www.redfin.com/FL/Delray-Beach/1000-Lowry-St-33483/unit-1G/home/42361910,Beaches MLS,RX-10889514,N,Y,26.4632533,-80.0628463
PAST SALE,,Condo/Co-op,2650 Lake Shore Dr #103,Riviera Beach,FL,33404,371827,2,3.0,,1692,,2006,,220,,,,,https://www.redfin.com/FL/Riviera-Beach/2650-Lake-Shore-Dr-33404/unit-103/home/42652303,,,N,Y,26.7840912,-80.0487569
PAST SALE,,Condo/Co-op,5380 N Ocean Dr Unit 2G,Riviera Beach,FL,33404,395000,2,2.0,,1295,,1974,,305,,,,,https://www.redfin.com/FL/Riviera-Beach/5380-N-Ocean-Dr-33404/unit-2G/home/42457212,,,N,Y,26.8077208,-80.0345886
PAST SALE,,Condo/Co-op,17 Crossings Cir Unit H,Boynton Beach,FL,33435,145000,2,2.0,,953,,1984,,152,,,,,https://www.redfin.com/FL/Boynton-Beach/17-Crossings-Cir-33435/unit-H/home/42335194,,,N,Y,26.5516227,-80.057356
PAST SALE,,Condo/Co-op,159 Preston D Unit D,Boca Raton,FL,33434,140000,2,1.5,,840,,1981,,167,,,,,https://www.redfin.com/FL/Boca-Raton/159-Preston-D-33434/unit-D/home/42251990,,,N,Y,26.393597,-80.178271
PAST SALE,,Condo/Co-op,2800 S Ocean Blvd Unit 22C,Boca Raton,FL,33432,1355000,2,2.0,,1425,,1973,,951,,,,,https://www.redfin.com/FL/Boca-Raton/2800-S-Ocean-Blvd-33432/unit-22C/home/42327988,,,N,Y,26.3234895,-80.0750378
PAST SALE,,Condo/Co-op,817 Normandy R,Delray Beach,FL,33484,90000,2,2.0,,907,,1979,,99,,,,,https://www.redfin.com/FL/Delray-Beach/817-Normandy-R-33484/home/42230974,,,N,Y,26.4461452,-80.1422777
PAST SALE,,Condo/Co-op,945 Normandy T,Delray Beach,FL,33484,95300,1,1.5,,760,,1979,,125,,,,,https://www.redfin.com/FL/Delray-Beach/945-Normandy-T-33484/home/42229019,,,N,Y,26.446145,-80.14227
PAST SALE,,Condo/Co-op,258 Brittany F,Delray Beach,FL,33446,79000,1,1.5,,726,,1973,,109,,,,,https://www.redfin.com/FL/Delray-Beach/258-Brittany-F-33446/home/42223020,,,N,Y,26.444317,-80.153314
PAST SALE,,Condo/Co-op,526 Saxony K,Delray Beach,FL,33446,120000,1,1.5,,760,,1974,,158,,,,,https://www.redfin.com/FL/Delray-Beach/526-Saxony-K-33446/home/42223612,,,N,Y,26.4407062,-80.1520166
PAST SALE,July-17-2023,Condo/Co-op,446 Pine Glen Ln Unit D-2,Greenacres,FL,33463,103000,1,1.0,Pine Ridge South IV Condo,632,,1981,,163,260,Sold,,,https://www.redfin.com/FL/Greenacres/446-Pine-Glen-Ln-33463/unit-D2/home/42391010,Beaches MLS,RX-10904988,N,Y,26.6077427,-80.1447555
PAST SALE,,Condo/Co-op,15075 Witney Rd #101,Delray Beach,FL,33484,197500,2,2.0,,1400,,1986,,141,,,,,https://www.redfin.com/FL/Delray-Beach/15075-Witney-Rd-33484/unit-101/home/42231277,,,N,Y,26.4526337,-80.1336736
PAST SALE,August-9-2023,Condo/Co-op,200 Arkona Ct #2104,West Palm Beach,FL,33401,5122650,3,3.5,La Clara,3094,,2023,,1656,3153,Sold,,,https://www.redfin.com/FL/West-Palm-Beach/200-Arkona-Ct-33401/unit-2104/home/186497610,Beaches MLS,RX-10911529,N,Y,26.699821,-80.0513967
PAST SALE,,Condo/Co-op,616 Clearwater Park Rd #1412,West Palm Beach,FL,33401,341100,2,2.0,,1130,,2003,,302,,,,,https://www.redfin.com/FL/West-Palm-Beach/616-Clearwater-Park-Rd-33401/unit-1412/home/42595399,,,N,Y,26.7085123,-80.0628662
PAST SALE,,Condo/Co-op,121 Coventry F,West Palm Beach,FL,33417,120000,2,1.5,,858,,1969,,140,,,,,https://www.redfin.com/FL/West-Palm-Beach/121-Coventry-F-33417/home/42140911,,,N,Y,26.7212428,-80.1229249
PAST SALE,August-4-2023,Condo/Co-op,701 S Olive Ave #318,West Palm Beach,FL,33401,580000,1,1.5,Two City Plaza Condo,959,,2008,,605,805,Sold,,,https://www.redfin.com/FL/West-Palm-Beach/701-S-Olive-Ave-33401/unit-318/home/42660869,Beaches MLS,RX-10910146,N,Y,26.7066463,-80.0525755
PAST SALE,August-24-2023,Condo/Co-op,5886 NW 24th Ave #104,Boca Raton,FL,33496,998000,3,3.0,Nassau Bay,2343,,1988,,426,1125,Sold,,,https://www.redfin.com/FL/Boca-Raton/5886-NW-24th-Ave-33496/unit-104/home/42300461,Beaches MLS,RX-10894901,N,Y,26.4017004,-80.1352802
PAST SALE,,Condo/Co-op,2950 Olivewood Ter #2090,Boca Raton,FL,33431,305000,2,2.0,,935,,1986,,326,,,,,https://www.redfin.com/FL/Boca-Raton/2950-Olivewood-Ter-33431/unit-2090/home/42319001,,,N,Y,26.3794277,-80.0894687
PAST SALE,September-1-2023,Condo/Co-op,2661 Barkley Dr W Unit C,West Palm Beach,FL,33415,110000,1,1.0,Cresthaven/barkley,761,,1969,,145,340,Sold,,,https://www.redfin.com/FL/West-Palm-Beach/2661-Barkley-Dr-W-33415/unit-C/home/42169898,Beaches MLS,RX-10907518,N,Y,26.638411,-80.124563
PAST SALE,,Condo/Co-op,2850 Palmwood Ter #2290,Boca Raton,FL,33431,335000,2,2.0,,935,,1984,,358,,,,,https://www.redfin.com/FL/Boca-Raton/2850-Palmwood-Ter-33431/unit-2290/home/42666510,,,N,Y,26.3771445,-80.0863208
PAST SALE,August-1-2023,Condo/Co-op,900 Dogwood Dr #535,Delray Beach,FL,33483,335000,2,2.0,Tropic Bay Condo,1200,,1974,,279,778,Sold,,,https://www.redfin.com/FL/Delray-Beach/900-Dogwood-Dr-33483/unit-535/home/42368759,Beaches MLS,RX-10908534,N,Y,26.4303959,-80.069416
PAST SALE,,Condo/Co-op,2121 N Ocean Blvd Unit 1409W,Boca Raton,FL,33431,775000,2,2.0,,1078,,1972,,719,,,,,https://www.redfin.com/FL/Boca-Raton/2121-N-Ocean-Blvd-33431/unit-1409W/home/42322625,,,N,Y,26.3700983,-80.0695732
PAST SALE,July-23-2023,Condo/Co-op,955 Egret Cir #501,Delray Beach,FL,33444,262500,1,1.0,Lavers Resort & Racquet Club,724,,1985,,363,346,Sold,,,https://www.redfin.com/FL/Delray-Beach/955-Egret-Cir-33444/unit-501/home/42375315,Beaches MLS,RX-10906372,N,Y,26.4359928,-80.0805356
PAST SALE,,Condo/Co-op,3215 S Ocean Blvd #703,Highland Beach,FL,33487,455000,1,1.5,,900,,1975,,506,,,,,https://www.redfin.com/FL/Highland-Beach/3215-S-Ocean-Blvd-33487/unit-703/home/42392779,,,N,Y,26.416874,-80.064064
PAST SALE,,Condo/Co-op,2687 N Ocean Blvd #6010,Boca Raton,FL,33431,760000,2,2.0,,1020,,1979,,745,,,,,https://www.redfin.com/FL/Boca-Raton/2687-N-Ocean-Blvd-33431/unit-6010/home/42322472,,,N,Y,26.3759045,-80.0703319
PAST SALE,,Condo/Co-op,629 Brittany N,Delray Beach,FL,33446,158000,2,2.0,,883,,1974,,179,,,,,https://www.redfin.com/FL/Delray-Beach/629-Brittany-N-33446/home/42223422,,,N,Y,26.450034,-80.150653
PAST SALE,August-4-2023,Condo/Co-op,6845 Willow Wood Dr #3031,Boca Raton,FL,33434,349000,2,2.0,Willow Wood Midrise Condo,1255,,1981,,278,598,Sold,,,https://www.redfin.com/FL/Boca-Raton/6845-Willow-Wood-Dr-33434/unit-3031/home/42254394,Beaches MLS,RX-10909464,N,Y,26.375667,-80.150429
PAST SALE,,Condo/Co-op,3301 S Ocean Blvd #1009,Highland Beach,FL,33487,760000,2,2.0,,1050,,1975,,724,,,,,https://www.redfin.com/FL/Highland-Beach/3301-S-Ocean-Blvd-33487/unit-1009/home/42397953,,,N,Y,26.4161115,-80.0641007
PAST SALE,,Condo/Co-op,475 Tequesta Dr #10,Tequesta,FL,33469,318000,2,2.0,,730,,1964,,436,,,,,https://www.redfin.com/FL/Tequesta/475-Tequesta-Dr-33469/unit-10/home/42465599,,,N,Y,26.9584261,-80.1046884
PAST SALE,,Condo/Co-op,700 S US Highway 1 #501,Jupiter,FL,33477,3500000,4,4.5,,3135,,2005,,1116,,,,,https://www.redfin.com/FL/Jupiter/700-S-US-Highway-1-33477/unit-501/home/42607711,,,N,Y,26.927761,-80.078329
PAST SALE,August-1-2023,Condo/Co-op,200 Waterway Rd #308,Tequesta,FL,33469,677500,2,2.0,TEQUESTA COVE CONDO,1283,,1985,,528,633,Sold,,,https://www.redfin.com/FL/Tequesta/200-Waterway-Rd-33469/unit-308/home/42470399,Stellar MLS,J964648,N,Y,26.9606723,-80.0820184
PAST SALE,,Condo/Co-op,1103 Glenmoor Dr,West Palm Beach,FL,33409,194000,1,1.0,,850,,1989,,228,,,,,https://www.redfin.com/FL/West-Palm-Beach/1103-Glenmoor-Dr-33409/home/42609449,,,N,Y,26.718922,-80.101012
PAST SALE,,Condo/Co-op,4101 N Ocean Blvd #608,Boca Raton,FL,33431,770000,2,2.0,,1438,,1990,,535,,,,,https://www.redfin.com/FL/Boca-Raton/4101-N-Ocean-Blvd-33431/unit-608/home/42313940,,,N,Y,26.3880154,-80.0695641
PAST SALE,,Condo/Co-op,1 Harbourside Dr #1303,Delray Beach,FL,33483,412000,2,2.0,,1085,,1975,,380,,,,,https://www.redfin.com/FL/Delray-Beach/1-Harbourside-Dr-33483/unit-1303/home/42369179,,,N,Y,26.4433135,-80.0668944
PAST SALE,,Condo/Co-op,111 Cleveland St Unit B2,Lake Worth Beach,FL,33461,70000,1,1.5,,699,,1971,,100,,,,,https://www.redfin.com/FL/Lake-Worth-Beach/111-Cleveland-St-33461/unit-B2/home/42424287,,,N,Y,26.6164039,-80.0722852
PAST SALE,,Condo/Co-op,3580 S Ocean Blvd Unit 9B,South Palm Beach,FL,33480,424000,1,1.5,,1013,,1973,,419,,,,,https://www.redfin.com/FL/South-Palm-Beach/3580-S-Ocean-Blvd-33480/unit-9B/home/42469216,,,N,Y,26.5890078,-80.0375556
PAST SALE,,Condo/Co-op,114 Cambridge E,West Palm Beach,FL,33417,77500,1,1.0,,570,,1972,,136,,,,,https://www.redfin.com/FL/West-Palm-Beach/114-Cambridge-E-33417/home/42143116,,,N,Y,26.7203529,-80.1307635
PAST SALE,,Condo/Co-op,7832 Sonoma Springs Cir #104,Lake Worth,FL,33463,210000,2,2.0,,1076,,1999,,195,,,,,https://www.redfin.com/FL/Lake-Worth/7832-Sonoma-Springs-Cir-33463/unit-104/home/42609823,,,N,Y,26.5632942,-80.1458676
PAST SALE,August-17-2023,Condo/Co-op,11560 Villa Vasari Dr,Palm Beach Gardens,FL,33418,1850000,3,2.5,Villa Vasari AT Mirasol Condo,2842,43560,2004,,651,1841,Sold,,,https://www.redfin.com/FL/Palm-Beach-Gardens/11560-Villa-Vasari-Dr-33418/home/186866202,Beaches MLS,RX-10912709,N,Y,26.8473786,-80.1565532
PAST SALE,,Condo/Co-op,5961 NW 2nd Ave Ph -J,Boca Raton,FL,33487,347000,4,4.0,,2400,,1971,,145,,,,,https://www.redfin.com/FL/Boca-Raton/5961-NW-2nd-Ave-33487/unit-J/home/42312631,,,N,Y,26.4031163,-80.0835848
PAST SALE,,Condo/Co-op,3040 Lake Shore Dr #5,Riviera Beach,FL,33404,410967,2,2.0,,1440,,1978,,285,,,,,https://www.redfin.com/FL/Riviera-Beach/3040-Lake-Shore-Dr-33404/unit-5/home/42460585,,,N,Y,26.787431,-80.051028
PAST SALE,,Condo/Co-op,2601 NE 3rd Ct #2070,Boynton Beach,FL,33435,85000,1,1.5,,758,,1974,,112,,,,,https://www.redfin.com/FL/Boynton-Beach/2601-NE-3rd-Ct-33435/unit-2070/home/42337069,,,N,Y,26.5522741,-80.0618414
PAST SALE,,Condo/Co-op,5463 Verona Dr Unit H,Boynton Beach,FL,33437,302000,3,2.0,,1282,,1990,,236,,,,,https://www.redfin.com/FL/Boynton-Beach/5463-Verona-Dr-33437/unit-H/home/42201377,,,N,Y,26.530901,-80.1303829
PAST SALE,,Condo/Co-op,711 NE Harbour Ter #412,Boca Raton,FL,33431,430000,1,1.0,,899,,1964,,478,,,,,https://www.redfin.com/FL/Boca-Raton/711-NE-Harbour-Ter-33431/unit-412/home/42326796,,,N,Y,26.3728899,-80.0741984
PAST SALE,,Condo/Co-op,632 Marlboro Oval,Lake Worth,FL,33467,50000,1,1.0,,642,,1983,,78,,,,,https://www.redfin.com/FL/Lake-Worth/632-Marlboro-Oval-33467/home/42087347,,,N,Y,26.6240107,-80.1622003
PAST SALE,,Condo/Co-op,8831 Okeechobee Blvd #207,West Palm Beach,FL,33411,200000,2,2.0,,1078,,1999,,186,,,,,https://www.redfin.com/FL/West-Palm-Beach/8831-Okeechobee-Blvd-33411/unit-207/home/42616264,,,N,Y,26.7104416,-80.1810985
PAST SALE,,Condo/Co-op,764 Nantucket Cir,Lake Worth,FL,33467,160000,1,1.0,,642,,1983,,249,,,,,https://www.redfin.com/FL/Lake-Worth/764-Nantucket-Cir-33467/home/42170039,,,N,Y,26.6202771,-80.1615505
PAST SALE,July-17-2023,Condo/Co-op,200 SE Mizner Blvd #417,Boca Raton,FL,33432,6000000,3,3.5,Alina Boca Raton Condo,3503,381815,2021,,1713,3258,Sold,,,https://www.redfin.com/FL/Boca-Raton/200-SE-Mizner-Blvd-33432/unit-417/home/171564499,Beaches MLS,RX-10889699,N,Y,26.3476361,-80.0832302
PAST SALE,June-9-2023,Condo/Co-op,99 SE Mizner Blvd #724,Boca Raton,FL,33432,532500,1,1.0,Palmetto Place Condo,890,,2003,,598,751,Sold,,,https://www.redfin.com/FL/Boca-Raton/99-SE-Mizner-Blvd-33432/unit-724/home/42571118,Beaches MLS,RX-10895728,N,Y,26.3489491,-80.0839454
PAST SALE,,Condo/Co-op,735 Ridge Rd #5,Lantana,FL,33462,75000,2,2.0,,728,,1964,,103,,,,,https://www.redfin.com/FL/Lantana/735-Ridge-Rd-33462/unit-5/home/42429672,,,N,Y,26.5907471,-80.0682196
PAST SALE,,Condo/Co-op,3475 S Ocean Blvd #3050,Palm Beach,FL,33480,495000,2,2.0,,1395,,1967,,355,,,,,https://www.redfin.com/FL/Palm-Beach/3475-S-Ocean-Blvd-33480/unit-3050/home/42440938,,,N,Y,26.5940453,-80.0378508
PAST SALE,June-27-2023,Condo/Co-op,200 Arkona Ct #1503,West Palm Beach,FL,33401,2582600,2,2.5,Tmi 3 Subdivision,2044,107815,2023,,1264,2150,Sold,,,https://www.redfin.com/FL/West-Palm-Beach/200-Arkona-Ct-33401/unit-1503/home/185966159,Beaches MLS,RX-10900976,N,Y,26.699821,-80.0513967
PAST SALE,,Condo/Co-op,22 Andover a,West Palm Beach,FL,33417,102000,1,1.5,,774,,1971,,132,,,,,https://www.redfin.com/FL/West-Palm-Beach/22-Andover-a-33417/home/42137579,,,N,Y,26.7118858,-80.1292261
PAST SALE,,Condo/Co-op,143 Cambridge F,West Palm Beach,FL,33417,240000,1,1.5,,774,,1972,,310,,,,,https://www.redfin.com/FL/West-Palm-Beach/143-Cambridge-F-33417/home/42148622,,,N,Y,26.7203529,-80.1307635
PAST SALE,July-6-2023,Condo/Co-op,200 Arkona Ct #1504,West Palm Beach,FL,33401,3792250,3,3.5,La Clara,3094,,2023,,1226,3153,Sold,,,https://www.redfin.com/FL/West-Palm-Beach/200-Arkona-Ct-33401/unit-1504/home/186065117,Beaches MLS,RX-10903183,N,Y,26.699821,-80.0513967
PAST SALE,July-18-2023,Condo/Co-op,200 Arkona Ct #1701,West Palm Beach,FL,33401,4089100,3,3.5,La Clara,3158,,2023,,1295,3245,Sold,,,https://www.redfin.com/FL/West-Palm-Beach/200-Arkona-Ct-33401/unit-1701/home/186195867,Beaches MLS,RX-10906483,N,Y,26.699821,-80.0513967
PAST SALE,June-9-2023,Condo/Co-op,2707 N Ocean Blvd Unit 502-D,Boca Raton,FL,33431,760000,2,2.0,Yacht & Racquet Club OF Boca Raton Condo,1020,,1978,,745,1790,Sold,,,https://www.redfin.com/FL/Boca-Raton/2707-N-Ocean-Blvd-33431/unit-502-D/home/185461491,Beaches MLS,RX-10890987,N,Y,26.3759007,-80.0710242
PAST SALE,,Condo/Co-op,66 Burgundy B,Delray Beach,FL,33484,159000,2,2.0,,907,,1978,,175,,,,,https://www.redfin.com/FL/Delray-Beach/66-Burgundy-B-33484/home/42233174,,,N,Y,26.4402222,-80.1327565
PAST SALE,,Condo/Co-op,2200 S Ocean Blvd #1104,Delray Beach,FL,33483,740000,2,2.0,,1482,,1970,,499,,,,,https://www.redfin.com/FL/Delray-Beach/2200-S-Ocean-Blvd-33483/unit-1104/home/42370098,,,N,Y,26.4335325,-80.0640134
PAST SALE,,Condo/Co-op,100 Village Green Cir E #317,Palm Springs,FL,33461,104000,1,1.0,,642,,1974,,162,,,,,https://www.redfin.com/FL/Palm-Springs/100-Village-Green-Cir-E-33461/unit-317/home/42480365,,,N,Y,26.6429822,-80.105212
PAST SALE,July-18-2023,Condo/Co-op,200 Arkona Ct #1001,West Palm Beach,FL,33401,4100000,3,3.5,Tmi 3 Subdivision,3158,107815,2023,,1298,3245,Sold,,,https://www.redfin.com/FL/West-Palm-Beach/200-Arkona-Ct-33401/unit-1001/home/186195869,Beaches MLS,RX-10906479,N,Y,26.699821,-80.0513967
PAST SALE,July-25-2023,Condo/Co-op,200 Arkona Ct #1902,West Palm Beach,FL,33401,2519382,2,2.5,La Clara,1516,,2023,,1662,1579,Sold,,,https://www.redfin.com/FL/West-Palm-Beach/200-Arkona-Ct-33401/unit-1902/home/186263378,Beaches MLS,RX-10908096,N,Y,26.699821,-80.0513967
PAST SALE,July-8-2023,Condo/Co-op,1180 S Ocean Blvd Unit 14a,Boca Raton,FL,33432,1700000,3,2.5,Cloister Del Mar Condo,1916,,1969,,887,1200,Sold,,,https://www.redfin.com/FL/Boca-Raton/1180-S-Ocean-Blvd-33432/unit-14-A/home/104348462,Beaches MLS,RX-10902744,N,Y,26.3330689,-80.0731654
PAST SALE,,Condo/Co-op,1012 Villa Ln,Boynton Beach,FL,33435,210000,1,1.0,,793,,2002,,265,,,,,https://www.redfin.com/FL/Boynton-Beach/1012-Villa-Ln-33435/home/42576330,,,N,Y,26.5018429,-80.0631131
PAST SALE,June-30-2023,Condo/Co-op,3101 S Ocean Blvd #612,Highland Beach,FL,33487,875000,2,2.0,Penthouse Towers,988,,1972,,886,850,Sold,,,https://www.redfin.com/FL/Highland-Beach/3101-S-Ocean-Blvd-33487/unit-612/home/42391676,Beaches MLS,RX-10900968,N,Y,26.4195605,-80.0638387
PAST SALE,July-25-2023,Condo/Co-op,200 Arkona Ct #1603,West Palm Beach,FL,33401,3489855,2,2.5,Tmi 3 Subdivision,2044,107815,2023,,1707,2150,Sold,,,https://www.redfin.com/FL/West-Palm-Beach/200-Arkona-Ct-33401/unit-1603/home/186263246,Beaches MLS,RX-10899342,N,Y,26.699821,-80.0513967
PAST SALE,,Condo/Co-op,6600 S Oriole Blvd #1060,Delray Beach,FL,33446,220000,2,2.0,,1005,,1980,,219,,,,,https://www.redfin.com/FL/Delray-Beach/6600-S-Oriole-Blvd-33446/unit-1060/home/42224825,,,N,Y,26.4562097,-80.1565954
PAST SALE,July-6-2023,Condo/Co-op,20241 Boca West Dr #2702,Boca Raton,FL,33434,320000,3,2.5,Courtside,1229,120,1979,,260,865,Sold,,,https://www.redfin.com/FL/Boca-Raton/20241-Boca-West-Dr-33434/unit-2702/home/42255031,Beaches MLS,RX-10902309,N,Y,26.37684,-80.161509
PAST SALE,,Condo/Co-op,7616 Elmridge Dr,Boca Raton,FL,33433,380000,2,2.0,,1629,,1985,,233,,,,,https://www.redfin.com/FL/Boca-Raton/7616-Elmridge-Dr-33433/home/42270850,,,N,Y,26.3346192,-80.1644617
PAST SALE,June-28-2023,Condo/Co-op,200 Arkona Ct #1501,West Palm Beach,FL,33401,3092900,3,3.5,La Clara,3158,,2023,,979,3245,Sold,,,https://www.redfin.com/FL/West-Palm-Beach/200-Arkona-Ct-33401/unit-1501/home/185966115,Beaches MLS,RX-10900974,N,Y,26.699821,-80.0513967
PAST SALE,July-6-2023,Condo/Co-op,200 Arkona Ct #1604,West Palm Beach,FL,33401,3944150,3,3.5,La Clara,3094,,2023,,1275,3153,Sold,,,https://www.redfin.com/FL/West-Palm-Beach/200-Arkona-Ct-33401/unit-1604/home/186065150,Beaches MLS,RX-10903333,N,Y,26.699821,-80.0513967
PAST SALE,August-14-2023,Condo/Co-op,651 Okeechobee Blvd #311,West Palm Beach,FL,33401,445000,2,2.0,Tower Condo AT Cityplace,1075,,2001,,414,992,Sold,,,https://www.redfin.com/FL/West-Palm-Beach/651-Okeechobee-Blvd-33401/unit-311/home/42589618,Beaches MLS,RX-10911188,N,Y,26.7065665,-80.0579309
PAST SALE,July-11-2023,Condo/Co-op,200 Arkona Ct #1702,West Palm Beach,FL,33401,2418234,2,2.5,La Clara,1516,,2023,,1595,1579,Sold,,,https://www.redfin.com/FL/West-Palm-Beach/200-Arkona-Ct-33401/unit-1702/home/186145249,Beaches MLS,RX-10905170,N,Y,26.699821,-80.0513967
PAST SALE,September-1-2023,Condo/Co-op,400 N Flagler Dr Ph -D6,West Palm Beach,FL,33401,4750000,3,2.5,Waterview Towers,2800,,1981,,1696,2136,Sold,,,https://www.redfin.com/FL/West-Palm-Beach/400-N-Flagler-Dr-33401/unit-D6/home/42654293,Beaches MLS,RX-10917396,N,Y,26.7164069,-80.0501306
PAST SALE,August-9-2023,Condo/Co-op,200 Arkona Ct #1901,West Palm Beach,FL,33401,4186250,3,3.5,La Clara,3158,,2023,,1326,3245,Sold,,,https://www.redfin.com/FL/West-Palm-Beach/200-Arkona-Ct-33401/unit-1901/home/186497652,Beaches MLS,RX-10911535,N,Y,26.699821,-80.0513967
PAST SALE,August-9-2023,Condo/Co-op,200 Arkona Ct #2102,West Palm Beach,FL,33401,2676713,2,2.5,La Clara,1516,,2023,,1766,1579,Sold,,,https://www.redfin.com/FL/West-Palm-Beach/200-Arkona-Ct-33401/unit-2102/home/186497642,Beaches MLS,RX-10911531,N,Y,26.699821,-80.0513967
PAST SALE,August-15-2023,Condo/Co-op,200 Arkona Ct #2004,West Palm Beach,FL,33401,4783807,3,3.5,La Clara,3094,,2023,,1546,3153,Sold,,,https://www.redfin.com/FL/West-Palm-Beach/200-Arkona-Ct-33401/unit-2004/home/187218083,Beaches MLS,RX-10915229,N,Y,26.699821,-80.0513967
PAST SALE,August-29-2023,Condo/Co-op,200 Arkona Ct #2201,West Palm Beach,FL,33401,5500000,3,3.5,La Clara,3158,,2023,,1742,3245,Sold,,,https://www.redfin.com/FL/West-Palm-Beach/200-Arkona-Ct-33401/unit-2201/home/187292011,Beaches MLS,RX-10916002,N,Y,26.699821,-80.0513967
PAST SALE,,Condo/Co-op,1018 Cornwall a,Boca Raton,FL,33434,108000,2,1.5,,861,,1979,,125,,,,,https://www.redfin.com/FL/Boca-Raton/1018-Cornwall-a-33434/home/42249205,,,N,Y,26.385335,-80.180605
PAST SALE,,Condo/Co-op,1067 Guildford D,Boca Raton,FL,33434,185155,2,1.5,,880,,1980,,210,,,,,https://www.redfin.com/FL/Boca-Raton/1067-Guildford-D-33434/home/42249527,,,N,Y,26.386802,-80.175392
PAST SALE,July-17-2023,Condo/Co-op,524 Fanshaw M,Boca Raton,FL,33434,110000,1,1.5,Century Village,715,,1980,,154,273,Sold,,,https://www.redfin.com/FL/Boca-Raton/524-Fanshaw-M-33434/home/42631632,Beaches MLS,RX-10895106,N,Y,26.3845989,-80.1747395
PAST SALE,,Condo/Co-op,441 Mansfield K,Boca Raton,FL,33434,130000,1,1.0,,600,,1980,,217,,,,,https://www.redfin.com/FL/Boca-Raton/441-Mansfield-K-33434/home/42630839,,,N,Y,26.3912209,-80.1747361
PAST SALE,,Condo/Co-op,1029 Rexford B,Boca Raton,FL,33434,270000,2,2.0,,896,,1981,,301,,,,,https://www.redfin.com/FL/Boca-Raton/1029-Rexford-B-33434/home/42247955,,,N,Y,26.389519,-80.178621
PAST SALE,,Condo/Co-op,297 Preston H,Boca Raton,FL,33434,152000,1,1.5,,720,,1981,,211,,,,,https://www.redfin.com/FL/Boca-Raton/297-Preston-H-33434/home/42242904,,,N,Y,26.3931991,-80.1776136
PAST SALE,,Condo/Co-op,1012 Shoma Dr,Royal Palm Beach,FL,33414,290000,3,2.0,,1457,,2003,,199,,,,,https://www.redfin.com/FL/Royal-Palm-Beach/1012-Shoma-Dr-33414/home/42586216,,,N,Y,26.671075,-80.2062517
PAST SALE,,Condo/Co-op,4750 S Ocean Blvd #612,Highland Beach,FL,33487,365000,1,1.5,,1053,,1971,,347,,,,,https://www.redfin.com/FL/Highland-Beach/4750-S-Ocean-Blvd-33487/unit-612/home/42389335,,,N,Y,26.3914381,-80.0694698
PAST SALE,,Condo/Co-op,662 Forsyth St #5,Boca Raton,FL,33487,200000,2,2.0,,1500,,1985,,133,,,,,https://www.redfin.com/FL/Boca-Raton/662-Forsyth-St-33487/unit-5/home/42319561,,,N,Y,26.4053289,-80.074919
PAST SALE,,Condo/Co-op,2700 Fiore Way #2100,Delray Beach,FL,33445,245000,2,2.0,,1023,,1978,,239,,,,,https://www.redfin.com/FL/Delray-Beach/2700-Fiore-Way-33445/unit-2100/home/42366138,,,N,Y,26.4476555,-80.1033984
PAST SALE,,Condo/Co-op,9 Royal Palm Way #4050,Boca Raton,FL,33432,302000,2,2.0,,1095,,1978,,276,,,,,https://www.redfin.com/FL/Boca-Raton/9-Royal-Palm-Way-33432/unit-4050/home/42329245,,,N,Y,26.326959,-80.093642
PAST SALE,,Condo/Co-op,9 Royal Palm Way #4040,Boca Raton,FL,33432,259999,1,1.0,,795,,1978,,327,,,,,https://www.redfin.com/FL/Boca-Raton/9-Royal-Palm-Way-33432/unit-4040/home/42328727,,,N,Y,26.326959,-80.093642
PAST SALE,,Condo/Co-op,331 S J St #23,Lake Worth,FL,33460,175000,2,2.0,,957,,1978,,183,,,,,https://www.redfin.com/FL/Lake-Worth/331-S-J-St-33460/unit-23/home/42424402,,,N,Y,26.6112233,-80.0569194
PAST SALE,,Condo/Co-op,10 Royal Palm Way #1020,Boca Raton,FL,33432,450100,2,2.0,,1095,,1978,,411,,,,,https://www.redfin.com/FL/Boca-Raton/10-Royal-Palm-Way-33432/unit-1020/home/42329739,,,N,Y,26.3270597,-80.0936697
PAST SALE,,Condo/Co-op,2615 NE 1st Ct #207,Boynton Beach,FL,33435,36000,1,1.5,,758,,1976,,47,,,,,https://www.redfin.com/FL/Boynton-Beach/2615-NE-1st-Ct-33435/unit-207/home/42338983,,,N,Y,26.552939,-80.0644281
PAST SALE,August-3-2023,Condo/Co-op,5200 N Ocean Dr #1606,Riviera Beach,FL,33404,1550000,3,3.0,Corniche Condo,2147,,1982,,722,1499,Sold,,,https://www.redfin.com/FL/Riviera-Beach/5200-N-Ocean-Dr-33404/unit-1606/home/42456548,Beaches MLS,RX-10898029,N,Y,26.8043486,-80.0337128
PAST SALE,,Condo/Co-op,2310 Myrtlewood Cir E,Palm Beach Gardens,FL,33418,265000,1,1.0,,636,,2004,,417,,,,,https://www.redfin.com/FL/Palm-Beach-Gardens/2310-Myrtlewood-Cir-E-33418/home/42599708,,,N,Y,26.87368,-80.106316
PAST SALE,,Condo/Co-op,711 NE Harbour Ter #414,Boca Raton,FL,33431,457000,1,1.0,,899,,1964,,508,,,,,https://www.redfin.com/FL/Boca-Raton/711-NE-Harbour-Ter-33431/unit-414/home/42327778,,,N,Y,26.3728899,-80.0741984
PAST SALE,,Condo/Co-op,2851 S Ocean Blvd #27,Boca Raton,FL,33432,585000,2,2.0,,1497,,1980,,391,,,,,https://www.redfin.com/FL/Boca-Raton/2851-S-Ocean-Blvd-33432/unit-27/home/42328178,,,N,Y,26.323315,-80.0761481
PAST SALE,,Condo/Co-op,860 Worcester Ln #1,Lake Worth,FL,33467,140000,1,1.0,,642,,1983,,218,,,,,https://www.redfin.com/FL/Lake-Worth/860-Worcester-Ln-33467/unit-1/home/42165133,,,N,Y,26.6247361,-80.1600753
PAST SALE,,Condo/Co-op,1621 Ilene Ct #2,Delray Beach,FL,33445,125000,2,1.0,,876,,1974,,143,,,,,https://www.redfin.com/FL/Delray-Beach/1621-Ilene-Ct-33445/unit-2/home/42367008,,,N,Y,26.440681,-80.093256
PAST SALE,August-2-2023,Condo/Co-op,3741 Quail Ridge Dr Unit Bobwhite,Boynton Beach,FL,33436,510000,2,2.0,Quail Ridge,1737,,1978,,294,1332,Sold,,,https://www.redfin.com/FL/Boynton-Beach/3741-N-Quail-Ridge-Dr-33436/unit-Bobwhite/home/186299287,Beaches MLS,RX-10908750,N,Y,26.509504,-80.100843
PAST SALE,,Condo/Co-op,3741 Quail Ridge Dr N,Boynton Beach,FL,33436,510000,2,2.0,,1300,,1978,,392,,,,,https://www.redfin.com/FL/Boynton-Beach/3741-Quail-Ridge-Dr-N-33436/home/42300519,,,N,Y,26.509504,-80.100843
PAST SALE,,Condo/Co-op,5203 Europa Dr Unit G,Boynton Beach,FL,33437,255000,3,2.0,,1578,,1993,,162,,,,,https://www.redfin.com/FL/Boynton-Beach/5203-Europa-Dr-33437/unit-G/home/42194961,,,N,Y,26.5348851,-80.1267643
PAST SALE,,Condo/Co-op,714 Executive Center Dr #25,West Palm Beach,FL,33401,165000,1,1.0,,502,,1986,,329,,,,,https://www.redfin.com/FL/West-Palm-Beach/714-Executive-Center-Dr-33401/unit-25/home/42616175,,,N,Y,26.7119783,-80.0739657
PAST SALE,,Townhouse,4071 Palm Bay Cir Unit D,West Palm Beach,FL,33406,280000,2,2.5,,1468,1561,1981,,191,,,,,https://www.redfin.com/FL/West-Palm-Beach/4071-Palm-Bay-Cir-33406/unit-D/home/42159885,,,N,Y,26.6691983,-80.1067875
PAST SALE,,Condo/Co-op,1638 Embassy Dr #405,West Palm Beach,FL,33401,128750,2,2.0,,835,,1973,,154,,,,,https://www.redfin.com/FL/West-Palm-Beach/1638-Embassy-Dr-33401/unit-405/home/42516225,,,N,Y,26.7280183,-80.0816682
PAST SALE,,Condo/Co-op,371 SW 8th St #11,Boca Raton,FL,33432,225000,2,1.0,,863,,1978,,261,,,,,https://www.redfin.com/FL/Boca-Raton/371-SW-8th-St-33432/unit-11/home/42327137,,,N,Y,26.3429978,-80.0928331
PAST SALE,,Condo/Co-op,8855 Okeechobee Blvd #205,West Palm Beach,FL,33411,175000,2,2.0,,1078,,1999,,162,,,,,https://www.redfin.com/FL/West-Palm-Beach/8855-Okeechobee-Blvd-33411/unit-205/home/42659885,,,N,Y,26.7120399,-80.1804882
PAST SALE,August-16-2023,Condo/Co-op,8410 Casa Del Lago Unit L,Boca Raton,FL,33433,300000,3,2.0,Fairways OF Boca Lago,1411,,1979,,213,680,Sold,,,https://www.redfin.com/FL/Boca-Raton/8410-Casa-del-Lago-33433/unit-L/home/42252599,Beaches MLS,RX-10880630,N,Y,26.3579389,-80.177547
PAST SALE,September-5-2023,Condo/Co-op,6832 Palmetto Cir #102,Boca Raton,FL,33433,200000,2,2.0,Casa Nueva Condo,857,,1984,,233,387,Sold,,,https://www.redfin.com/FL/Boca-Raton/6832-Palmetto-Cir-S-33433/unit-102/home/42258576,Beaches MLS,RX-10917006,N,Y,26.3512501,-80.1507472
PAST SALE,,Condo/Co-op,2011 Ainslie a,Boca Raton,FL,33434,280000,2,2.0,,1032,,1979,,271,,,,,https://www.redfin.com/FL/Boca-Raton/2011-Ainslie-a-33434/home/42246053,,,N,Y,26.3858047,-80.1841416
PAST SALE,,Condo/Co-op,19811 Boca West Dr,Boca Raton,FL,33434,250000,2,2.0,,1400,,1981,,179,,,,,https://www.redfin.com/FL/Boca-Raton/19811-Boca-West-Dr-33434/home/42250390,,,N,Y,26.383315,-80.1639345
PAST SALE,,Condo/Co-op,6538 Via Regina #6538,Boca Raton,FL,33433,370000,2,2.0,,1090,,1986,,339,,,,,https://www.redfin.com/FL/Boca-Raton/6538-Via-Regina-33433/unit-6538/home/42273484,,,N,Y,26.33435,-80.146706
PAST SALE,,Condo/Co-op,137 Canterbury F,West Palm Beach,FL,33417,79000,1,1.0,,570,,1973,,139,,,,,https://www.redfin.com/FL/West-Palm-Beach/137-Canterbury-F-33417/home/42141940,,,N,Y,26.720227,-80.132277
PAST SALE,,Condo/Co-op,315 Tuscany F,Delray Beach,FL,33446,113000,1,1.5,,726,,1973,,156,,,,,https://www.redfin.com/FL/Delray-Beach/315-Tuscany-F-33446/home/42231757,,,N,Y,26.448051,-80.153636
PAST SALE,,Condo/Co-op,1500 N Congress Ave Unit C7,West Palm Beach,FL,33401,190000,1,1.0,,625,,1980,,304,,,,,https://www.redfin.com/FL/West-Palm-Beach/1500-N-Congress-Ave-33401/unit-C7/home/42525626,,,N,Y,26.7273451,-80.08899
PAST SALE,August-15-2023,Condo/Co-op,1042 Bay Colony Dr S #1042,Juno Beach,FL,33408,1300000,3,3.0,Juno Bay Colony Condo,1792,43560,2016,,725,926,Sold,,,https://www.redfin.com/FL/Juno-Beach/1042-Bay-Colony-Dr-S-33408/unit-1042/home/146607682,Beaches MLS,RX-10905065,N,Y,26.8605102,-80.0642842
PAST SALE,,Condo/Co-op,640 Flanders N,Delray Beach,FL,33484,148000,2,2.0,,883,,1974,,168,,,,,https://www.redfin.com/FL/Delray-Beach/640-Flanders-N-33484/home/42229940,,,N,Y,26.440063,-80.1447359
PAST SALE,,Condo/Co-op,400 Crestwood Ct N #405,Royal Palm Beach,FL,33411,311500,3,2.0,,1290,,2000,,241,,,,,https://www.redfin.com/FL/Royal-Palm-Beach/400-Crestwood-Ct-N-33411/unit-405/home/42588432,,,N,Y,26.6848482,-80.2441287
PAST SALE,,Condo/Co-op,1116 Green Pine Blvd Unit F1,West Palm Beach,FL,33409,199500,2,2.0,,1111,,1984,,180,,,,,https://www.redfin.com/FL/West-Palm-Beach/1116-Green-Pine-Blvd-33409/unit-F1/home/42507979,,,N,Y,26.7253355,-80.1034832
PAST SALE,,Condo/Co-op,300 N Highway A1A Unit 205F,Jupiter,FL,33477,450000,2,2.0,,1520,,1981,,296,,,,,https://www.redfin.com/FL/Jupiter/300-N-Highway-A1A-33477/unit-205F/home/42405434,,,N,Y,26.9374648,-80.0795306
PAST SALE,,Condo/Co-op,23385 Barwood Ln S #404,Boca Raton,FL,33428,224444,2,2.0,,1160,,1979,,193,,,,,https://www.redfin.com/FL/Boca-Raton/23385-Barwood-Ln-S-33428/unit-404/home/42269626,,,N,Y,26.3285061,-80.1968343
PAST SALE,,Condo/Co-op,722 Flanders P,Delray Beach,FL,33484,176500,1,1.5,,726,,1974,,243,,,,,https://www.redfin.com/FL/Delray-Beach/722-Flanders-P-33484/home/42226400,,,N,Y,26.440356,-80.141465
PAST SALE,July-1-2023,Condo/Co-op,1700 Windorah Way Unit E,West Palm Beach,FL,33417,200000,2,2.0,Palm Beach Place Condo,904,,1989,,221,315,Sold,,,https://www.redfin.com/FL/West-Palm-Beach/1700-Windorah-Way-33411/unit-E/home/42617653,Beaches MLS,RX-10898478,N,Y,26.7033338,-80.1725929
PAST SALE,,Condo/Co-op,745 Flanders P,Delray Beach,FL,33484,175000,2,2.0,,883,,1974,,198,,,,,https://www.redfin.com/FL/Delray-Beach/745-Flanders-P-33484/home/42224942,,,N,Y,26.440356,-80.141465
PAST SALE,June-20-2023,Condo/Co-op,223 Somerset L,West Palm Beach,FL,33417,295000,2,2.0,Somerset Condos,874,,1972,,338,550,Sold,,,https://www.redfin.com/FL/West-Palm-Beach/223-Somerset-L-33417/home/42146110,Beaches MLS,RX-10879429,N,Y,26.7130999,-80.1308809
PAST SALE,July-6-2023,Condo/Co-op,38 Southport Ln Unit A,Boynton Beach,FL,33436,195000,2,2.0,Southport AT Hunters Run Condo,1429,1294025,1980,,136,959,Sold,,,https://www.redfin.com/FL/Boynton-Beach/38-Southport-Ln-33436/unit-A/home/42355472,Beaches MLS,RX-10882700,N,Y,26.4856449,-80.101124
PAST SALE,July-11-2023,Condo/Co-op,300 N Highway A1a Unit F-205,Jupiter,FL,33477,450000,2,2.0,Ocean Parks Condo,1520,,1981,,296,858,Sold,,,https://www.redfin.com/FL/Jupiter/300-N-Hwy-A1A-33477/unit-F-205/home/181725525,Beaches MLS,RX-10902590,N,Y,26.9374648,-80.0795306
PAST SALE,,Condo/Co-op,1825 Bridgewood Dr,Boca Raton,FL,33434,235000,2,2.0,,1255,,1974,,187,,,,,https://www.redfin.com/FL/Boca-Raton/1825-Bridgewood-Dr-33434/home/42248953,,,N,Y,26.3738936,-80.1644199
PAST SALE,,Condo/Co-op,6875 Willow Wood Dr #2081,Boca Raton,FL,33434,225000,2,2.0,,1255,,1980,,179,,,,,https://www.redfin.com/FL/Boca-Raton/6875-Willow-Wood-Dr-33434/unit-2081/home/42254981,,,N,Y,26.3756673,-80.1504292
PAST SALE,,Condo/Co-op,120 Sparrow Dr #114,Royal Palm Beach,FL,33411,215000,2,2.0,,1146,,1975,,188,,,,,https://www.redfin.com/FL/Royal-Palm-Beach/120-Sparrow-Dr-33411/unit-114/home/42613660,,,N,Y,26.7002976,-80.2280795
PAST SALE,August-21-2023,Condo/Co-op,7161 Promenade Dr #601,Boca Raton,FL,33433,470000,3,2.5,"Promenade AT Boca Pointe Condos 1,2 And 3 IN Or413",1870,,1985,,251,1036,Sold,,,https://www.redfin.com/FL/Boca-Raton/7161-Promenade-Dr-33433/unit-601/home/42277499,Beaches MLS,RX-10913370,N,Y,26.3351786,-80.1565169
PAST SALE,August-18-2023,Condo/Co-op,7186 Promenade Dr #602,Boca Raton,FL,33433,529900,3,2.0,PROMENADE AT BOCA POINTE,1530,,1985,,346,1066,Sold,,,https://www.redfin.com/FL/Boca-Raton/7186-Promenade-Dr-33433/unit-602/home/42271048,MARMLS,A11431421,N,Y,26.3351786,-80.1565169
PAST SALE,,Condo/Co-op,5079 Heatherhill Ln #30,Boca Raton,FL,33486,252000,1,1.0,,895,,1986,,282,,,,,https://www.redfin.com/FL/Boca-Raton/5079-Heatherhill-Ln-33486/unit-30/home/42593599,,,N,Y,26.3298411,-80.1215289
PAST SALE,,Condo/Co-op,1002 Captains Way #1002,Jupiter,FL,33477,1850000,2,2.0,,1952,,1988,,948,,,,,https://www.redfin.com/FL/Jupiter/1002-Captains-Way-33477/unit-1002/home/42417488,,,N,Y,26.909835,-80.086178
PAST SALE,July-28-2023,Condo/Co-op,200 Arkona Ct #2002,West Palm Beach,FL,33401,2622638,2,2.5,La Clara,1516,,2023,,1730,1579,Sold,,,https://www.redfin.com/FL/West-Palm-Beach/200-Arkona-Ct-33401/unit-2002/home/186332684,Beaches MLS,RX-10909373,N,Y,26.699821,-80.0513967
PAST SALE,July-28-2023,Condo/Co-op,200 Arkona Ct #2001,West Palm Beach,FL,33401,4562900,3,3.5,La Clara,3158,,2023,,1445,3245,Sold,,,https://www.redfin.com/FL/West-Palm-Beach/200-Arkona-Ct-33401/unit-2001/home/186332643,Beaches MLS,RX-10909372,N,Y,26.699821,-80.0513967
PAST SALE,July-11-2023,Condo/Co-op,200 Arkona Ct #1703,West Palm Beach,FL,33401,3950000,2,2.5,Tmi 3 Subdivision,2044,107815,2023,,1932,2150,Sold,,,https://www.redfin.com/FL/West-Palm-Beach/200-Arkona-Ct-33401/unit-1703/home/186145231,Beaches MLS,RX-10905174,N,Y,26.699821,-80.0513967
PAST SALE,June-13-2023,Condo/Co-op,100 Worth Ave #421,Palm Beach,FL,33480,2340000,2,2.0,Winthrop House Condo,1580,84173,1970,,1481,1800,Sold,,,https://www.redfin.com/FL/Palm-Beach/100-Worth-Ave-33480/unit-421/home/42435289,Beaches MLS,RX-10864952,N,Y,26.7003852,-80.0337993
PAST SALE,June-27-2023,Condo/Co-op,200 Arkona Ct #1502,West Palm Beach,FL,33401,2511414,2,2.5,La Clara,1516,,2023,,1657,1579,Sold,,,https://www.redfin.com/FL/West-Palm-Beach/200-Arkona-Ct-33401/unit-1502/home/176986479,Beaches MLS,RX-10900975,N,Y,26.699821,-80.0513967
PAST SALE,June-12-2023,Condo/Co-op,200 Arkona Ct #501,West Palm Beach,FL,33401,1499000,1,1.5,La Clara,1202,,2023,,1247,1224,Sold,,,https://www.redfin.com/FL/West-Palm-Beach/200-Arkona-Ct-33401/unit-501/home/176986472,Beaches MLS,RX-10898918,N,Y,26.699821,-80.0513967
PAST SALE,June-13-2023,Condo/Co-op,200 Arkona Ct #404,West Palm Beach,FL,33401,2166961,2,2.5,La Clara,2044,,2023,,1060,2149,Sold,,,https://www.redfin.com/FL/West-Palm-Beach/200-Arkona-Ct-33401/unit-404/home/185753723,Beaches MLS,RX-10896928,N,Y,26.699821,-80.0513967
PAST SALE,,Condo/Co-op,1605 S US Highway 1 Unit V6-306,Jupiter,FL,33477,365000,2,2.0,,1200,,1979,,304,,,,,https://www.redfin.com/FL/Jupiter/1605-S-US-Highway-1-33477/unit-V6-306/home/42407074,,,N,Y,26.9208795,-80.0731259
PAST SALE,September-6-2023,Condo/Co-op,200 Arkona Ct #2204,West Palm Beach,FL,33401,8370000,3,3.5,La Clara,3094,,2023,,2705,3600,Sold,,,https://www.redfin.com/FL/West-Palm-Beach/200-Arkona-Ct-33401/unit-2204/home/187218090,Beaches MLS,RX-10917560,N,Y,26.699821,-80.0513967
PAST SALE,August-29-2023,Condo/Co-op,200 Arkona Ct #2101,West Palm Beach,FL,33401,4676200,3,3.5,La Clara,3158,,2023,,1481,3245,Sold,,,https://www.redfin.com/FL/West-Palm-Beach/200-Arkona-Ct-33401/unit-2101/home/187291881,Beaches MLS,RX-10916001,N,Y,26.699821,-80.0513967
PAST SALE,August-4-2023,Condo/Co-op,231 E Lantana Rd #304,Lantana,FL,33462,262500,2,3.0,South Sea Islanderc Condo,950,,1970,,276,695,Sold,,,https://www.redfin.com/FL/Lantana/231-E-Lantana-Rd-33462/unit-304/home/42432342,Beaches MLS,RX-10897894,N,Y,26.5869715,-80.0496176
PAST SALE,August-1-2023,Condo/Co-op,550 Okeechobee Blvd #1507,West Palm Beach,FL,33401,820000,2,2.0,Cityplace South Tower Condo,1192,,2008,,688,934,Sold,,,https://www.redfin.com/FL/West-Palm-Beach/550-Okeechobee-Blvd-33401/unit-1507/home/42663785,Beaches MLS,RX-10907842,N,Y,26.7051244,-80.0561991
PAST SALE,August-31-2023,Condo/Co-op,17661 Ashbourne Way Unit D,Boca Raton,FL,33496,950000,3,2.5,Ashbourne / Polo Club,2038,,1987,,466,825,Sold,,,https://www.redfin.com/FL/Boca-Raton/17661-Ashbourne-Way-33496/unit-D/home/42241129,Beaches MLS,RX-10916460,N,Y,26.4139015,-80.1278336
PAST SALE,August-11-2023,Condo/Co-op,200 Arkona Ct #803,West Palm Beach,FL,33401,2167488,2,2.5,Tmi 3 Subdivision,2044,107815,2023,,1060,2150,Sold,,,https://www.redfin.com/FL/West-Palm-Beach/200-Arkona-Ct-33401/unit-803/home/186497621,Beaches MLS,RX-10911530,N,Y,26.699821,-80.0513967
PAST SALE,July-25-2023,Condo/Co-op,200 Arkona Ct #1903,West Palm Beach,FL,33401,2912000,2,2.5,Tmi 3 Subdivision,2044,107815,2023,,1425,2150,Sold,,,https://www.redfin.com/FL/West-Palm-Beach/200-Arkona-Ct-33401/unit-1903/home/186263389,Beaches MLS,RX-10908097,N,Y,26.699821,-80.0513967
PAST SALE,July-24-2023,Condo/Co-op,200 Arkona Ct #1704,West Palm Beach,FL,33401,3910450,3,3.5,Tmi 3 Subdivision,3094,107815,2023,,1264,3153,Sold,,,https://www.redfin.com/FL/West-Palm-Beach/200-Arkona-Ct-33401/unit-1704/home/186263368,Beaches MLS,RX-10908095,N,Y,26.699821,-80.0513967
PAST SALE,,Condo/Co-op,4800 N Flagler Dr #4,West Palm Beach,FL,33407,1145000,1,1.0,,1088,,1964,,1052,,,,,https://www.redfin.com/FL/West-Palm-Beach/4800-N-Flagler-Dr-33407/unit-4/home/42510092,,,N,Y,26.754395,-80.052162
PAST SALE,,Condo/Co-op,4500 N Flagler Dr Unit C19,West Palm Beach,FL,33407,182000,2,1.5,,870,,1980,,209,,,,,https://www.redfin.com/FL/West-Palm-Beach/4500-N-Flagler-Dr-33407/unit-C19/home/42511284,,,N,Y,26.7522479,-80.051877
PAST SALE,,Condo/Co-op,103 Crosswinds Dr,Greenacres,FL,33413,365000,3,2.5,,1449,,2000,,252,,,,,https://www.redfin.com/FL/Greenacres/103-Crosswinds-Dr-33413/home/42551880,,,N,Y,26.6452434,-80.1489978
PAST SALE,,Condo/Co-op,3915 S Flagler Dr #309,West Palm Beach,FL,33405,268000,1,1.0,,602,,1981,,445,,,,,https://www.redfin.com/FL/West-Palm-Beach/3915-S-Flagler-Dr-33405/unit-309/home/42525773,,,N,Y,26.6758821,-80.0491076
PAST SALE,July-28-2023,Condo/Co-op,1638 Embassy Dr #104,West Palm Beach,FL,33401,183000,2,2.0,JAMESTOWN CONDO,835,,1973,,219,490,Sold,,,https://www.redfin.com/FL/West-Palm-Beach/1638-Embassy-Dr-33401/unit-104/home/42520804,MARMLS,A11401044,N,Y,26.7280183,-80.0816682
PAST SALE,June-22-2023,Condo/Co-op,1500 Presidential Way #703,West Palm Beach,FL,33401,233000,2,2.0,Yorktown Condo,1194,,1972,,195,628,Sold,,,https://www.redfin.com/FL/West-Palm-Beach/1500-Presidential-Way-33401/unit-703/home/42519905,Beaches MLS,RX-10896402,N,Y,26.7279501,-80.0833931
PAST SALE,August-23-2023,Condo/Co-op,2565 S Ocean Blvd #2050,Palm Beach,FL,33480,300000,1,1.0,PALM BEACH WHITEHOUSE,640,,1968,,469,827,Sold,,,https://www.redfin.com/FL/Palm-Beach/2565-S-Ocean-Blvd-33480/unit-2050/home/42436383,MARMLS,A11411430,N,Y,26.6271359,-80.0377618
PAST SALE,,Condo/Co-op,10173 Quail Covey Rd,Boynton Beach,FL,33436,601000,3,2.0,,1560,,1980,,385,,,,,https://www.redfin.com/FL/Boynton-Beach/10173-Quail-Covey-Rd-33436/home/42291802,,,N,Y,26.5248681,-80.1025049
PAST SALE,June-30-2023,Condo/Co-op,210 E Tiffany Dr #2,Mangonia Park,FL,33407,70000,2,1.0,Tiffany Lake Condo PH 2,980,,1974,,71,547,Sold,,,https://www.redfin.com/FL/Mangonia-Park/210-E-Tiffany-Dr-33407/unit-2/home/42426230,Beaches MLS,RX-10898498,N,Y,26.7560084,-80.0823239
PAST SALE,June-22-2023,Condo/Co-op,343 Seville O #343,Delray Beach,FL,33446,92000,1,1.5,Kings Point Seville Condos,726,,1973,,127,571,Sold,,,https://www.redfin.com/FL/Delray-Beach/343-Seville-Blvd-33446/unit-343/home/185512860,Beaches MLS,RX-10892244,N,Y,26.4476209,-80.1488707
PAST SALE,July-7-2023,Condo/Co-op,2806 Veronia Dr #304,Palm Beach Gardens,FL,33410,305000,2,2.0,San Matera,1057,,2003,,289,459,Sold,,,https://www.redfin.com/FL/Palm-Beach-Gardens/2806-Veronia-Dr-33410/unit-304/home/42615457,Beaches MLS,RX-10891413,N,Y,26.8522419,-80.0769091
PAST SALE,June-16-2023,Condo/Co-op,4010 Cornwall A,Boca Raton,FL,33434,138000,1,1.5,Century Village,738,,1979,,187,270,Sold,,,https://www.redfin.com/FL/Boca-Raton/4010-Cornwall-a-33434/home/42251270,Beaches MLS,RX-10888991,N,Y,26.3863616,-80.181069
PAST SALE,July-21-2023,Condo/Co-op,8204 Summerbreeze Ln,Boca Raton,FL,33496,230000,2,2.0,Whisper Walk,1310,,1988,,176,499,Sold,,,https://www.redfin.com/FL/Boca-Raton/8204-Summerbreeze-Ln-33496/home/42236472,Beaches MLS,RX-10893024,N,Y,26.3946777,-80.1759872
PAST SALE,August-28-2023,Condo/Co-op,4791 Via Palm Lks #1701,West Palm Beach,FL,33417,182000,2,2.0,PALM LAKE CONDO,906,,1991,,201,320,Sold,,,https://www.redfin.com/FL/West-Palm-Beach/4791-Via-Palm-Lks-33417/unit-1701/home/42600567,MARMLS,A11432235,N,Y,26.7236799,-80.1157485
PAST SALE,August-7-2023,Condo/Co-op,7260 Kinghurst Dr #705,Delray Beach,FL,33446,195700,2,2.0,Huntington Lakes Section Five,1230,,1988,,159,743,Sold,,,https://www.redfin.com/FL/Delray-Beach/7260-Kinghurst-Dr-33446/unit-705/home/42217681,Beaches MLS,RX-10899100,N,Y,26.4594019,-80.1592117
PAST SALE,July-11-2023,Condo/Co-op,604 NW 13th St #26,Boca Raton,FL,33486,237000,2,2.0,Spanish Oaks Condo,847,,1970,,280,390,Sold,,,https://www.redfin.com/FL/Boca-Raton/604-NW-13th-St-33486/unit-26/home/185776967,Beaches MLS,RX-10897375,N,Y,26.3606402,-80.0981825
PAST SALE,June-28-2023,Condo/Co-op,1715 Village Blvd #305,West Palm Beach,FL,33409,185000,2,1.0,Milano Condo,914,,1994,,202,389,Sold,,,https://www.redfin.com/FL/West-Palm-Beach/1715-Village-Blvd-33409/unit-305/home/42591137,Beaches MLS,RX-10885914,N,Y,26.7279044,-80.1011119
PAST SALE,July-11-2023,Condo/Co-op,3230 S Ocean Blvd Unit A302,Palm Beach,FL,33480,649000,2,2.0,LA Renaissance,1176,,1968,,552,1041,Sold,,,https://www.redfin.com/FL/Palm-Beach/3230-S-Ocean-Blvd-33480/unit-A302/home/42439656,Beaches MLS,RX-10893345,N,Y,26.6037292,-80.0377702
PAST SALE,July-14-2023,Condo/Co-op,6590 N Ocean Blvd #2,Ocean Ridge,FL,33435,850000,2,2.5,Ridge Homes Cond,1474,,1971,,577,1024,Sold,,,https://www.redfin.com/FL/Ocean-Ridge/6590-N-Ocean-Blvd-33435/unit-2/home/42430963,Beaches MLS,RX-10895085,N,Y,26.5328664,-80.0482008
PAST SALE,July-14-2023,Condo/Co-op,4500 N Flagler Dr Unit C8,West Palm Beach,FL,33407,160000,1,1.0,Regency Surf & Racquet Club Condo,600,,1980,,267,318,Sold,,,https://www.redfin.com/FL/West-Palm-Beach/4500-N-Flagler-Dr-33407/unit-C8/home/42511862,Beaches MLS,RX-10893961,N,Y,26.7522479,-80.051877
PAST SALE,June-30-2023,Condo/Co-op,350 N Federal Hwy #503,Boynton Beach,FL,33435,285000,1,1.0,CASA COSTA CONDO,805,,2010,,354,575,Sold,,,https://www.redfin.com/FL/Boynton-Beach/350-N-Federal-Hwy-33435/unit-503/home/42672519,MARMLS,A11369696,N,Y,26.529837,-80.057551
PAST SALE,June-30-2023,Condo/Co-op,2313 N Congress Ave #36,Boynton Beach,FL,33426,167000,2,1.0,Boynton Landings Condo,887,,1987,,188,429,Sold,,,https://www.redfin.com/FL/Boynton-Beach/2313-N-Congress-Ave-33426/unit-36/home/42581874,Beaches MLS,RX-10891811,N,Y,26.5492507,-80.0922086
PAST SALE,June-28-2023,Condo/Co-op,3800 N Ocean Dr #919,Singer Island,FL,33404,670000,1,1.0,Resort AT Singer Island Hotel Condo,719,,2007,,932,1611,Sold,,,https://www.redfin.com/FL/Riviera-Beach/3800-N-Ocean-Dr-33404/unit-919/home/42659677,Beaches MLS,RX-10889518,N,Y,26.7922887,-80.0338438
PAST SALE,July-24-2023,Condo/Co-op,600 Egret Cir #7505,Delray Beach,FL,33444,400000,2,2.0,Lavers Delray Racquet Club Condo,1290,,1981,,310,620,Sold,,,https://www.redfin.com/FL/Delray-Beach/600-Egret-Cir-33444/unit-7505/home/42371226,Beaches MLS,RX-10896145,N,Y,26.43524,-80.079628
PAST SALE,July-6-2023,Condo/Co-op,9 Colonial Club Dr #305,Boynton Beach,FL,33435,310000,2,2.0,Colonial Club,1200,,1973,,258,796,Sold,,,https://www.redfin.com/FL/Boynton-Beach/9-Colonial-Club-Dr-33435/unit-305/home/42349713,Beaches MLS,RX-10894781,N,Y,26.5004898,-80.0584474
PAST SALE,August-9-2023,Condo/Co-op,335 Northampton Q,West Palm Beach,FL,33417,67000,1,1.0,Northampton A Thru S Condos,570,,1972,,118,396,Sold,,,https://www.redfin.com/FL/West-Palm-Beach/335-Northampton-Q-33417/home/42146094,Beaches MLS,RX-10899911,N,Y,26.7174901,-80.1337606
PAST SALE,July-19-2023,Condo/Co-op,196 Seville I,Delray Beach,FL,33446,115000,2,2.0,Kings Point Seville Condos,883,,1973,,130,660,Sold,,,https://www.redfin.com/FL/Delray-Beach/196-Seville-I-33446/home/42225726,Beaches MLS,RX-10895953,N,Y,26.4484984,-80.1474026
PAST SALE,July-7-2023,Condo/Co-op,2413 Lowson Blvd Unit B,Delray Beach,FL,33445,188000,1,1.5,Fairway Condo,821,,1978,,229,398,Sold,,,https://www.redfin.com/FL/Delray-Beach/2413-Lowson-Blvd-33445/unit-B/home/42366457,Beaches MLS,RX-10895448,N,Y,26.4464602,-80.098337
PAST SALE,August-14-2023,Condo/Co-op,470 NW 20th St #3080,Boca Raton,FL,33431,215000,1,1.0,Casa Del Rio Condo,715,,1980,,301,295,Sold,,,https://www.redfin.com/FL/Boca-Raton/470-NW-20th-St-33431/unit-3080/home/182101275,Beaches MLS,RX-10882852,N,Y,26.3672756,-80.0940414
PAST SALE,August-1-2023,Condo/Co-op,9338 SW 3rd Street St #504,Boca Raton,FL,33428,245000,2,2.0,Sandallfoot Squire Condo,1050,,1979,,233,450,Sold,,,https://www.redfin.com/FL/Boca-Raton/9338-SW-3rd-St-33428/unit-504/home/42264090,Beaches MLS,RX-10891678,N,Y,26.3450941,-80.1920377
PAST SALE,,Condo/Co-op,1580 Windorah Way Unit E,West Palm Beach,FL,33411,207500,2,2.0,,904,,1989,,230,,,,,https://www.redfin.com/FL/West-Palm-Beach/1580-Windorah-Way-33411/unit-E/home/42614209,,,N,Y,26.7021884,-80.1733659
PAST SALE,,Condo/Co-op,536 Saxony L,Delray Beach,FL,33446,190000,2,2.0,,907,,1974,,209,,,,,https://www.redfin.com/FL/Delray-Beach/536-Saxony-L-33446/home/42224611,,,N,Y,26.440263,-80.150386
PAST SALE,August-1-2023,Condo/Co-op,7786 Lakeside Blvd #633,Boca Raton,FL,33434,175000,2,2.0,Lakewood Midrise Condo,1050,,1976,,167,622,Sold,,,https://www.redfin.com/FL/Boca-Raton/7786-Lakeside-Blvd-33434/unit-633/home/42249375,Beaches MLS,RX-10892507,N,Y,26.3786714,-80.1676706
PAST SALE,July-26-2023,Condo/Co-op,14360 Strathmore Ln #201,Delray Beach,FL,33446,188501,2,2.0,Huntington Lakes,1070,,1981,,176,743,Sold,,,https://www.redfin.com/FL/Delray-Beach/14360-Strathmore-Ln-33446/unit-201/home/42626059,Beaches MLS,RX-10900515,N,Y,26.4631483,-80.1487459
PAST SALE,,Condo/Co-op,7290 Kinghurst Dr #807,Delray Beach,FL,33446,324000,2,2.0,,1230,,1989,,263,,,,,https://www.redfin.com/FL/Delray-Beach/7290-Kinghurst-Dr-33446/unit-807/home/42220292,,,N,Y,26.4592247,-80.160607
PAST SALE,July-21-2023,Condo/Co-op,531 N J St #7,Lake Worth Beach,FL,33460,170000,1,1.0,Rita Apts IV Cond Decl Filed 12-28-79,663,,1979,,256,231,Sold,,,https://www.redfin.com/FL/Lake-Worth/531-N-J-St-33460/unit-7/home/42417965,Beaches MLS,RX-10898074,N,Y,26.6225383,-80.0563507
PAST SALE,July-19-2023,Condo/Co-op,531 N J St #5,Lake Worth Beach,FL,33460,190000,2,2.0,Rita Apts IV Cond Decl Filed 12-28-79,1000,,1979,,190,302,Sold,,,https://www.redfin.com/FL/Lake-Worth/531-N-J-St-33460/unit-5/home/42417963,Beaches MLS,RX-10898072,N,Y,26.6225383,-80.0563507
PAST SALE,August-21-2023,Condo/Co-op,16940 Bay St Unit N 202,Jupiter,FL,33477,950000,3,2.5,Anchorage,1895,,1985,,501,1549,Sold,,,https://www.redfin.com/FL/Jupiter/16940-Bay-St-33477/unit-N202/home/42273666,Beaches MLS,RX-10899517,N,Y,26.9258773,-80.0843315
PAST SALE,August-16-2023,Condo/Co-op,5701 NW 2nd Ave #109,Boca Raton,FL,33487,244000,2,2.0,Boca Teeca Condo 1,850,,1968,,287,440,Sold,,,https://www.redfin.com/FL/Boca-Raton/5701-NW-2nd-Ave-33487/unit-109/home/186156516,Beaches MLS,RX-10905628,N,Y,26.4001495,-80.0838296
PAST SALE,August-18-2023,Condo/Co-op,720 N Dixie Hwy #205,Lantana,FL,33462,219000,2,2.5,SHORE SIDE CONDO,1125,,1980,,195,348,Sold,,,https://www.redfin.com/FL/Lantana/720-N-Dixie-Hwy-33462/unit-205/home/42430768,MARMLS,A11411115,N,Y,26.5896389,-80.049945
PAST SALE,June-9-2023,Condo/Co-op,419 Us Highway 1 #215,North Palm Beach,FL,33408,219000,2,2.0,Village Garden Condo Apts,886,,1969,,247,454,Sold,,,https://www.redfin.com/FL/North-Palm-Beach/419-US-Highway-1-33408/unit-215/home/42478778,Beaches MLS,RX-10885814,N,Y,26.809655,-80.0571102
PAST SALE,August-25-2023,Condo/Co-op,6 Via De Casas Norte #6,Boynton Beach,FL,33426,201000,1,1.0,Tradewinds At Dos Lagos,750,,1985,,268,368,Sold,,,https://www.redfin.com/FL/Boynton-Beach/6-Via-De-Casas-Norte-33426/unit-6/home/104418281,Beaches MLS,F10392396,N,Y,26.5541597,-80.0896994
PAST SALE,August-1-2023,Condo/Co-op,14623 Bonaire Blvd #101,Delray Beach,FL,33446,210000,2,2.0,Bonaire,1145,,1979,,183,502,Sold,,,https://www.redfin.com/FL/Delray-Beach/14623-Bonaire-Blvd-33446/unit-101/home/42217977,Beaches MLS,RX-10898227,N,Y,26.4597838,-80.1498626
PAST SALE,August-3-2023,Condo/Co-op,1805 Palm Beach Trace Dr,Royal Palm Beach,FL,33411,252500,2,2.0,Palm Beach Trace Condo,1201,,1990,,210,215,Sold,,,https://www.redfin.com/FL/Royal-Palm-Beach/1805-Palm-Beach-Trace-Dr-33411/home/42488646,Beaches MLS,RX-10903295,N,Y,26.7119576,-80.2254805
PAST SALE,July-14-2023,Condo/Co-op,484 Capri K #484,Delray Beach,FL,33484,160000,2,2.0,Kings Point Capri K Condo 484,907,,1978,,176,560,Sold,,,https://www.redfin.com/FL/Delray-Beach/484-Capri-K-33484/unit-484/home/129851981,Beaches MLS,RX-10891787,N,Y,26.4394069,-80.1345447
PAST SALE,July-14-2023,Condo/Co-op,6511 Emerald Dunes Dr #106,Royal Palm Beach,FL,33411,275000,2,2.0,Villas At Emerald Dunes,1141,,2006,,241,435,Sold,,,https://www.redfin.com/FL/Royal-Palm-Beach/6511-Emerald-Dunes-Dr-33411/unit-106/home/42613531,Beaches MLS,F10383242,N,Y,26.7103109,-80.143699
PAST SALE,August-2-2023,Condo/Co-op,1782 Abbey Rd #201,West Palm Beach,FL,33415,190000,2,2.0,Abbey Park Gardens I Condo,798,,1984,,238,306,Sold,,,https://www.redfin.com/FL/West-Palm-Beach/1782-Abbey-Rd-33415/unit-201/home/42156167,Beaches MLS,RX-10902084,N,Y,26.6504161,-80.1256995
PAST SALE,September-1-2023,Condo/Co-op,9807 Pavarotti Ter #104,Boynton Beach,FL,33437,210000,2,2.0,SUN VALLEY EAST CONDO,1498,,1990,,140,458,Sold,,,https://www.redfin.com/FL/Boynton-Beach/9807-Pavarotti-Ter-33437/unit-104/home/42194302,MARMLS,A11421750,N,Y,26.5309662,-80.1347896
PAST SALE,,Condo/Co-op,2945 SW 22nd Ave #2070,Delray Beach,FL,33445,350000,2,2.0,,1109,,1984,,316,,,,,https://www.redfin.com/FL/Delray-Beach/2945-SW-22nd-Ave-33445/unit-2070/home/42373004,,,N,Y,26.429677,-80.0955804
PAST SALE,August-25-2023,Condo/Co-op,1401 Village Blvd,West Palm Beach,FL,33409,162000,1,1.0,Ponte Verde AT Palm Beach Lakes Condo,731,,1990,,222,390,Sold,,,https://www.redfin.com/FL/West-Palm-Beach/1401-Village-Blvd-33409/home/45092001,Beaches MLS,RX-10910342,N,Y,26.7242874,-80.1096718
PAST SALE,June-30-2023,Condo/Co-op,5187 Europa Dr Unit C,Boynton Beach,FL,33437,299000,2,2.0,Platina / Diamante Village,1578,,1993,,189,688,Sold,,,https://www.redfin.com/FL/Boynton-Beach/5187-Europa-Dr-33437/unit-C/home/42203480,Beaches MLS,RX-10883803,N,Y,26.5348973,-80.1255556
PAST SALE,August-8-2023,Condo/Co-op,113 Wellington L,West Palm Beach,FL,33417,165000,2,2.0,Century Vllage,1100,,1973,,150,492,Sold,,,https://www.redfin.com/FL/West-Palm-Beach/113-Wellington-L-33417/home/42139669,Beaches MLS,RX-10901632,N,Y,26.7094472,-80.1323031
PAST SALE,August-14-2023,Condo/Co-op,170 Horizons E #108,Boynton Beach,FL,33435,275000,1,1.5,Sterling Village,75,,1966,,3667,562,Sold,,,https://www.redfin.com/FL/Boynton-Beach/170-Horizons-E-33435/unit-108/home/42339499,Beaches MLS,RX-10911220,N,Y,26.5259287,-80.0547584
PAST SALE,July-11-2023,Condo/Co-op,170 Mansfield Unit E,Boca Raton,FL,33434,101000,1,1.5,MANSFIELD AT CENTURY VILL,720,,1980,,140,289,Sold,,,https://www.redfin.com/FL/Boca-Raton/170-Mansfield-F-33434/unit-E/home/185495480,MARMLS,A11391769,N,Y,26.3912209,-80.1747361
PAST SALE,June-9-2023,Condo/Co-op,9355 SW 8th St #315,Boca Raton,FL,33428,187000,1,1.5,Isle Of Sandalfoot Condo,688,,1975,,272,340,Sold,,,https://www.redfin.com/FL/Boca-Raton/9355-SW-8th-St-33428/unit-315/home/42263323,Beaches MLS,F10377772,N,Y,26.3380844,-80.193391
PAST SALE,August-21-2023,Condo/Co-op,4236 D'este Ct #208,Lake Worth,FL,33467,125000,1,1.0,FOUNTAINS,,,1973,,,337,Sold,,,https://www.redfin.com/FL/Lake-Worth/4236-Deste-Ct-33467/unit-208/home/42088944,MARMLS,A11241714,N,Y,26.6127248,-80.1501521
PAST SALE,August-7-2023,Condo/Co-op,1110 11th Ter,Palm Beach Gardens,FL,33418,440000,3,2.5,Glenwood Townhomes Hoa,1488,,1980,,296,275,Sold,,,https://www.redfin.com/FL/Palm-Beach-Gardens/1110-11th-Ter-33418/home/42450285,Beaches MLS,RX-10900775,N,Y,26.830616,-80.1348114
PAST SALE,August-15-2023,Condo/Co-op,1904 Palmland Dr Unit A,Boynton Beach,FL,33436,232000,3,2.0,Palmland Villas,1145,,1975,,203,537,Sold,,,https://www.redfin.com/FL/Boynton-Beach/1904-Palmland-Dr-33436/unit-A/home/181779173,Beaches MLS,RX-10903317,N,Y,26.49853,-80.0977536
PAST SALE,June-26-2023,Condo/Co-op,4821 Sable Pine Cir Unit B1,West Palm Beach,FL,33417,180000,2,2.0,Pine Ridge AT Haverhill Condo,1115,,1984,,161,244,Sold,,,https://www.redfin.com/FL/West-Palm-Beach/4821-Sable-Pine-Cir-33417/unit-B1/home/42151263,Beaches MLS,RX-10890020,N,Y,26.7278202,-80.1153341
PAST SALE,June-28-2023,Condo/Co-op,1700 Dover Rd Unit 110-A,Delray Beach,FL,33445,205000,1,1.5,Lakeview Greens Condo 1,939,,1983,,218,332,Sold,,,https://www.redfin.com/FL/Delray-Beach/1700-Dover-Rd-33445/unit-110A/home/42640803,Beaches MLS,RX-10888208,N,Y,26.440065,-80.1066955
PAST SALE,July-12-2023,Condo/Co-op,9981 Harbour Lake Cir #101,Boynton Beach,FL,33437,274000,3,2.0,"Palm Isles I, II And Iii Condos",1616,,1994,,170,697,Sold,,,https://www.redfin.com/FL/Boynton-Beach/9981-Harbour-Lake-Cir-33437/unit-101/home/42193144,Beaches MLS,RX-10894069,N,Y,26.5286557,-80.1605263
PAST SALE,June-30-2023,Condo/Co-op,7783 Lakeside Blvd Unit G701,Boca Raton,FL,33434,339000,2,2.0,Gardens of Lakewood,1225,,1978,,277,972,Sold,,,https://www.redfin.com/FL/Boca-Raton/7783-Lakeside-Blvd-33434/unit-G701/home/42253249,Beaches MLS,RX-10889157,N,Y,26.3798832,-80.1665474
PAST SALE,August-11-2023,Condo/Co-op,4933 Sable Pine Cir Unit B2,West Palm Beach,FL,33417,210000,2,2.0,Pine Ridge AT Haverhill Condo,1115,,1982,,188,223,Sold,,,https://www.redfin.com/FL/West-Palm-Beach/4933-Sable-Pine-Cir-33417/unit-B2/home/42142485,Beaches MLS,RX-10901856,N,Y,26.7257491,-80.1169919
PAST SALE,July-27-2023,Condo/Co-op,5209 Lake Catalina Dr N Unit D,Boca Raton,FL,33496,679000,3,2.5,Catalina / Polo Club,2374,,1989,,286,516,Sold,,,https://www.redfin.com/FL/Boca-Raton/5209-Lake-Catalina-Dr-N-33496/unit-D/home/42236188,Beaches MLS,RX-10885306,N,Y,26.4135787,-80.1260657
PAST SALE,July-5-2023,Condo/Co-op,8310 Casa Del Lago Unit A,Boca Raton,FL,33433,369000,2,2.0,Fairways OF Boca Lago Condo,1216,,1978,,303,560,Sold,,,https://www.redfin.com/FL/Boca-Raton/8310-Casa-del-Lago-33433/unit-A/home/42252544,Beaches MLS,RX-10892865,N,Y,26.3563242,-80.1758671
PAST SALE,July-21-2023,Condo/Co-op,14500 Stirling Way #403,Delray Beach,FL,33446,212000,2,2.0,Huntington Lakes Sec Five Condos,1220,,1989,,174,743,Sold,,,https://www.redfin.com/FL/Delray-Beach/14500-Stirling-Way-33446/unit-403/home/42217810,Beaches MLS,RX-10898678,N,Y,26.4608354,-80.1627872
PAST SALE,June-30-2023,Condo/Co-op,20310 Fairway Oaks Dr #154,Boca Raton,FL,33434,1380000,2,3.0,FAIRWAY POINT CONDO,3348,,1988,,412,4133,Sold,,,https://www.redfin.com/FL/Boca-Raton/20310-Fairway-Oaks-Dr-33434/unit-154/home/42247998,MARMLS,A11375022,N,Y,26.380315,-80.159363
PAST SALE,July-28-2023,Condo/Co-op,491 Normandy Ln Unit K,Delray Beach,FL,33484,117334,2,2.0,Kings Point Normandy Condo,907,,1979,,129,477,Sold,,,https://www.redfin.com/FL/Delray-Beach/491-Normandy-Ln-33484/unit-K/home/180851699,Beaches MLS,RX-10897873,N,Y,26.4461452,-80.1422777
PAST SALE,August-9-2023,Condo/Co-op,1050 NW 13th St Unit 197D,Boca Raton,FL,33486,171000,2,2.0,BOCA LINDA CONDO,978,,1973,,175,1144,Sold,,,https://www.redfin.com/FL/Boca-Raton/1050-NW-13th-St-33486/unit-197D/home/42308141,MARMLS,A11402681,N,Y,26.360962,-80.1069573
PAST SALE,June-19-2023,Condo/Co-op,113 Wellington B,West Palm Beach,FL,33417,260500,2,2.0,Century Village,1062,,1971,,245,529,Sold,,,https://www.redfin.com/FL/West-Palm-Beach/113-Wellington-B-33417/home/42155878,Beaches MLS,RX-10889992,N,Y,26.7104805,-80.1322432
PAST SALE,July-30-2023,Condo/Co-op,604 NW 13th St #33,Boca Raton,FL,33486,319000,3,2.0,Spanish Oaks Condo,1286,,1970,,248,463,Sold,,,https://www.redfin.com/FL/Boca-Raton/604-NW-13th-St-33486/unit-33/home/104391922,Beaches MLS,RX-10907022,N,Y,26.3606402,-80.0981825
PAST SALE,September-5-2023,Condo/Co-op,526 Shady Pine Way Unit A1,Greenacres,FL,33415,220000,2,2.0,Pine Ridge North I Condo,1115,,1982,,197,254,Sold,,,https://www.redfin.com/FL/Greenacres/526-Shady-Pine-Way-33415/unit-A1/home/42378550,Beaches MLS,RX-10905837,N,Y,26.639894,-80.143475
PAST SALE,August-16-2023,Condo/Co-op,6315 La Costa Dr Unit D,Boca Raton,FL,33433,295000,2,2.0,Addison Pointe AT Boca Raton Condo,981,,1991,,301,520,Sold,,,https://www.redfin.com/FL/Boca-Raton/6315-La-Costa-Dr-33433/unit-D/home/42609290,Beaches MLS,RX-10904686,N,Y,26.3414628,-80.1407431
PAST SALE,July-17-2023,Condo/Co-op,6752 Heritage Grande #5305,Boynton Beach,FL,33437,250000,2,2.0,Green Cay Village Condo,939,,2007,,266,372,Sold,,,https://www.redfin.com/FL/Boynton-Beach/6752-Heritage-Grande-33437/unit-5305/home/42625112,Beaches MLS,RX-10887257,N,Y,26.49001,-80.15047
PAST SALE,June-14-2023,Condo/Co-op,5850 Camino Del Sol #106,Boca Raton,FL,33433,380000,2,2.0,Camino Real Village Condo,1230,,1992,,309,498,Sold,,,https://www.redfin.com/FL/Boca-Raton/5850-Camino-del-Sol-33433/unit-106/home/42262827,Beaches MLS,RX-10885616,N,Y,26.3416442,-80.1356811
PAST SALE,August-28-2023,Condo/Co-op,500 Crestwood Ct N #511,Royal Palm Beach,FL,33411,305000,2,2.0,Grand View at Crestwood Condo,1156,,2000,,264,317,Sold,,,https://www.redfin.com/FL/Royal-Palm-Beach/500-Crestwood-Ct-N-33411/unit-511/home/42594354,Beaches MLS,RX-10907785,N,Y,26.685906,-80.2441116
PAST SALE,August-4-2023,Condo/Co-op,300 Ocean Trail Way #310,Jupiter,FL,33477,510000,2,2.0,Ocean Trail Condo Iii,1270,,1983,,402,1356,Sold,,,https://www.redfin.com/FL/Jupiter/300-Ocean-Trail-Way-33477/unit-310/home/42403298,Beaches MLS,RX-10902224,N,Y,26.9369903,-80.0705611
PAST SALE,June-30-2023,Condo/Co-op,7 Greenway Vlg N #109,Royal Palm Beach,FL,33411,115000,2,2.0,Greenway Village North,1030,,1970,,112,483,Sold,,,https://www.redfin.com/FL/Royal-Palm-Beach/7-Greenway-Vlg-N-33411/unit-109/home/42486509,Beaches MLS,RX-10890863,N,Y,26.6964673,-80.231166
PAST SALE,August-4-2023,Condo/Co-op,371 SW 8th St Unit 1A,Boca Raton,FL,33432,225000,2,1.0,Gateway Apts Condo,863,,1978,,261,258,Sold,,,https://www.redfin.com/FL/Boca-Raton/371-SW-8th-St-33432/unit-1A/home/186004247,Beaches MLS,F10388037,N,Y,26.3429978,-80.0928331
PAST SALE,June-23-2023,Condo/Co-op,7370 S Oriole Blvd Unit 106c,Delray Beach,FL,33446,225000,3,2.0,Huntington Towers Condo,1500,,1989,,150,682,Sold,,,https://www.redfin.com/FL/Delray-Beach/7370-S-Oriole-Blvd-33446/unit-106c/home/185308531,Beaches MLS,RX-10886588,N,Y,26.4569921,-80.1606507
PAST SALE,July-18-2023,Condo/Co-op,7290 Kinghurst Dr Unit P7-807,Delray Beach,FL,33446,324000,2,2.0,Huntington Lakes,1230,,1989,,263,743,Sold,,,https://www.redfin.com/FL/Delray-Beach/7290-Kinghurst-Dr-33446/unit-P7-807/home/185933791,Beaches MLS,RX-10900384,N,Y,26.4592247,-80.160607
PAST SALE,June-30-2023,Condo/Co-op,16880 Isle Of Palms Dr Unit B,Delray Beach,FL,33484,879000,3,2.5,Cypress Isle / Polo Club,2438,,1989,,361,903,Sold,,,https://www.redfin.com/FL/Delray-Beach/16880-Isle-of-Palms-Dr-33484/unit-B/home/42230547,Beaches MLS,RX-10885828,N,Y,26.4259489,-80.1360108
PAST SALE,July-7-2023,Condo/Co-op,6021 10th Ave N #212,Greenacres,FL,33463,190000,2,2.0,Laurels AT Sherwood Condo,900,,1985,,211,263,Sold,,,https://www.redfin.com/FL/Greenacres/6021-10th-Ave-N-33463/unit-212/home/42614643,Beaches MLS,RX-10899443,N,Y,26.6326576,-80.1386852
PAST SALE,August-7-2023,Condo/Co-op,6100 NE 7th Ave #21,Boca Raton,FL,33487,269900,1,1.0,Sherwood House Apts Condo,588,,1967,,459,425,Sold,,,https://www.redfin.com/FL/Boca-Raton/6100-NE-7th-Ave-33487/unit-21/home/42310780,Beaches MLS,RX-10902481,N,Y,26.403961,-80.073936
PAST SALE,July-5-2023,Condo/Co-op,5250 Europa Dr Unit A,Boynton Beach,FL,33437,290000,3,2.0,Platina/carrara,1578,,1992,,184,658,Sold,,,https://www.redfin.com/FL/Boynton-Beach/5250-Europa-Dr-33437/unit-A/home/42197004,Beaches MLS,RX-10894405,N,Y,26.5343298,-80.1300352
PAST SALE,August-25-2023,Condo/Co-op,1727 Village Blvd #206,West Palm Beach,FL,33409,190000,2,1.0,MILANO CONDO,905,,1994,,210,500,Sold,,,https://www.redfin.com/FL/West-Palm-Beach/1727-Village-Blvd-33409/unit-206/home/42650100,MARMLS,A11425512,N,Y,26.7283638,-80.1006523
PAST SALE,August-15-2023,Condo/Co-op,578 Burgundy M #578,Delray Beach,FL,33484,100000,2,2.0,Kings Point Burgundy Condos,907,,1979,,110,510,Sold,,,https://www.redfin.com/FL/Delray-Beach/578-Burgundy-N-33484/unit-578/home/186108635,Beaches MLS,RX-10904284,N,Y,26.445271,-80.131475
PAST SALE,June-9-2023,Condo/Co-op,1605 S Us Highway 1 Unit 306v6,Jupiter,FL,33477,365000,2,2.0,"Jupiter Ocean And Racquet Club Tennis Villa 1,2,3,",1200,30,1979,,304,808,Sold,,,https://www.redfin.com/FL/Jupiter/1605-U-S-1-33477/unit-306v6/home/185325252,Beaches MLS,RX-10887192,N,Y,26.9208738,-80.0730924
PAST SALE,,Condo/Co-op,4955 Sable Pine Cir Unit D1,West Palm Beach,FL,33417,207500,2,2.0,,1115,,1982,,186,,,,,https://www.redfin.com/FL/West-Palm-Beach/4955-Sable-Pine-Cir-33417/unit-D1/home/42150962,,,N,Y,26.7257079,-80.1172616
PAST SALE,August-23-2023,Condo/Co-op,2608 Muirfield Ct,Wellington,FL,33414,649000,2,2.0,Muirfield 2,1735,6187,1985,,374,1250,Sold,,,https://www.redfin.com/FL/Wellington/2608-Muirfield-Ct-33414/home/42499601,Beaches MLS,RX-10905455,N,Y,26.6430356,-80.2343299
PAST SALE,,Condo/Co-op,208 Lake Frances Dr,West Palm Beach,FL,33411,210000,2,2.0,,888,,1978,,236,,,,,https://www.redfin.com/FL/West-Palm-Beach/208-Lake-Frances-Dr-33411/home/42146643,,,N,Y,26.7016668,-80.1630091
PAST SALE,June-30-2023,Condo/Co-op,20100 Boca West Dr #157,Boca Raton,FL,33434,750000,2,2.0,Laurel Oaks,1760,43560,1980,,426,1012,Sold,,,https://www.redfin.com/FL/Boca-Raton/20100-Boca-West-Dr-33434/unit-157/home/42257076,Beaches MLS,RX-10864930,N,Y,26.3823991,-80.1500828
PAST SALE,June-13-2023,Condo/Co-op,6875 Willow Wood Dr #2043,Boca Raton,FL,33434,225000,2,2.0,Willowwood Midrise Condo,1150,,1980,,196,634,Sold,,,https://www.redfin.com/FL/Boca-Raton/6875-Willow-Wood-Dr-33434/unit-2043/home/42251988,Beaches MLS,RX-10884806,N,Y,26.3756673,-80.1504292
PAST SALE,,Condo/Co-op,132 Andover F,West Palm Beach,FL,33417,85000,1,1.5,,774,,1971,,110,,,,,https://www.redfin.com/FL/West-Palm-Beach/132-Andover-F-33417/home/42146996,,,N,Y,26.7103356,-80.1285161
PAST SALE,June-12-2023,Condo/Co-op,714 Northlake Ct #108,North Palm Beach,FL,33408,355000,2,2.0,Northlake Villas Condo,935,,1977,,380,475,Sold,,,https://www.redfin.com/FL/North-Palm-Beach/714-Northlake-Ct-33408/unit-108/home/42646622,Beaches MLS,RX-10883505,N,Y,26.8098705,-80.0695037
PAST SALE,June-12-2023,Condo/Co-op,1750 N Congress Ave #403,West Palm Beach,FL,33401,169000,1,1.0,PRESIDENTIAL GOLFVIEW CON,775,,1981,,218,360,Sold,,,https://www.redfin.com/FL/West-Palm-Beach/1750-N-Congress-Ave-33401/unit-403/home/42520364,MARMLS,A11382242,N,Y,26.7304076,-80.0885429
PAST SALE,August-28-2023,Condo/Co-op,5700 NW 2nd Ave #710,Boca Raton,FL,33487,200000,2,2.0,Boca Teeca Condo 3,1200,,1970,,167,850,Sold,,,https://www.redfin.com/FL/Boca-Raton/5700-NW-2nd-Ave-33487/unit-710/home/42311463,Beaches MLS,RX-10907245,N,Y,26.3992035,-80.0830222
PAST SALE,June-30-2023,Condo/Co-op,71 East Ct,Royal Palm Beach,FL,33411,180000,2,1.0,Greenway Village North Condo 1,821,,1967,,219,325,Sold,,,https://www.redfin.com/FL/Royal-Palm-Beach/71-East-Ct-33411/home/42486166,Beaches MLS,RX-10894083,N,Y,26.695227,-80.231722
PAST SALE,June-20-2023,Condo/Co-op,516 Shady Pine Way Unit D1,Greenacres,FL,33415,265000,2,2.0,Pine Ridge North I Condo,1115,,1985,,238,373,Sold,,,https://www.redfin.com/FL/Greenacres/516-Shady-Pine-Way-33415/unit-D1/home/42378659,Beaches MLS,RX-10880344,N,Y,26.6406494,-80.1452789
PAST SALE,July-7-2023,Condo/Co-op,367 Northampton R,West Palm Beach,FL,33417,99000,1,1.0,Century Village,570,,1973,,174,408,Sold,,,https://www.redfin.com/FL/West-Palm-Beach/367-Northampton-R-33417/home/42151603,Beaches MLS,RX-10891095,N,Y,26.7170528,-80.1334525
PAST SALE,July-17-2023,Condo/Co-op,815 W Boynton Beach Blvd Unit 9-102,Boynton Beach,FL,33426,235000,2,2.0,Casablanca Isles,,,1991,,,403,Sold,,,https://www.redfin.com/FL/Boynton-Beach/815-W-Boynton-Beach-Blvd-33426/unit-9102/home/42604412,Beaches MLS,F10386134,N,Y,26.5285281,-80.0840914
PAST SALE,July-6-2023,Condo/Co-op,3056 Exeter D #3056,Boca Raton,FL,33434,214000,2,1.5,Exeter @ Century Village,1008,,1979,,212,292,Sold,,,https://www.redfin.com/FL/Boca-Raton/3056-Exeter-33434/unit-3056/home/131026670,Beaches MLS,RX-10892039,N,Y,26.386809,-80.178189
PAST SALE,August-15-2023,Condo/Co-op,1020 E Longport Cir Unit A1,Delray Beach,FL,33444,349000,2,3.0,Village AT Swinton Square Condo,1328,,2007,,263,462,Sold,,,https://www.redfin.com/FL/Delray-Beach/1020-E-Longport-Cir-33444/unit-A1/home/42618474,Beaches MLS,RX-10895614,N,Y,26.4461051,-80.0742277
PAST SALE,July-31-2023,Condo/Co-op,9355 SW 8th St #401,Boca Raton,FL,33428,250000,2,2.0,Boca Dunes,918,,1975,,272,472,Sold,,,https://www.redfin.com/FL/Boca-Raton/9355-SW-8th-St-33428/unit-401/home/42268305,Beaches MLS,F10382781,N,Y,26.3380844,-80.193391
PAST SALE,June-13-2023,Condo/Co-op,16922 Isle Of Palms Dr Unit A,Delray Beach,FL,33484,495000,3,2.5,Cypress Isle / Polo Club,2038,,1989,,243,903,Sold,,,https://www.redfin.com/FL/Delray-Beach/16922-Isle-of-Palms-Dr-33484/unit-A/home/42230541,Beaches MLS,RX-10890692,N,Y,26.4253711,-80.1355747
PAST SALE,June-9-2023,Condo/Co-op,9802 Marina Blvd #121,Boca Raton,FL,33428,164000,2,2.0,Sandalfoot South,955,,1972,,172,545,Sold,,,https://www.redfin.com/FL/Boca-Raton/9802-Marina-Blvd-33428/unit-121/home/42269428,Beaches MLS,RX-10876782,N,Y,26.3293042,-80.1994749
PAST SALE,August-14-2023,Condo/Co-op,241 Seville K,Delray Beach,FL,33446,105000,2,2.0,Kings Point Seville Condos,883,883,1973,,119,659,Sold,,,https://www.redfin.com/FL/Delray-Beach/241-Seville-K-33446/home/42224729,Beaches MLS,RX-10881201,N,Y,26.4478726,-80.1472003
PAST SALE,July-24-2023,Condo/Co-op,21179 Juego Cir Unit 15-B,Boca Raton,FL,33433,589900,3,2.0,Vistas OF Boca Lago Condo,2625,,1975,,225,819,Sold,,,https://www.redfin.com/FL/Boca-Raton/21179-Juego-Cir-33433/unit-15-B/home/185190233,Beaches MLS,RX-10883522,N,Y,26.356775,-80.18452
PAST SALE,August-30-2023,Condo/Co-op,19315 Sabal Lake Dr #5065,Boca Raton,FL,33434,490000,2,2.0,Sabal Lake,1575,,1989,,311,914,Sold,,,https://www.redfin.com/FL/Boca-Raton/19315-Sabal-Lake-Dr-33434/unit-5065/home/177272537,Beaches MLS,RX-10905522,N,Y,26.392111,-80.158405
PAST SALE,September-1-2023,Condo/Co-op,6392 Chasewood Dr Unit G,Jupiter,FL,33458,255000,2,2.0,Chasewood OF Jupiter Condo,860,,1984,,297,385,Sold,,,https://www.redfin.com/FL/Jupiter/6392-Chasewood-Dr-33458/unit-G/home/42143517,Beaches MLS,RX-10905857,N,Y,26.9284112,-80.1341228
PAST SALE,July-6-2023,Condo/Co-op,610 Clematis St #630,West Palm Beach,FL,33401,512000,2,2.0,610 Clematis Condo,1130,,2006,,453,872,Sold,,,https://www.redfin.com/FL/West-Palm-Beach/610-Clematis-St-33401/unit-630/home/42611578,Beaches MLS,RX-10889639,N,Y,26.7128739,-80.0576205
PAST SALE,June-29-2023,Condo/Co-op,16933 Isle Of Palms Dr Unit B,Delray Beach,FL,33484,900000,3,2.5,Cypress Isle / Polo Club,2612,43560,1996,,345,903,Sold,,,https://www.redfin.com/FL/Delray-Beach/16933-Isle-of-Palms-Dr-33484/unit-B/home/42231539,Beaches MLS,RX-10884065,N,Y,26.4249996,-80.1353042
PAST SALE,July-21-2023,Condo/Co-op,4693 E Lucerne Lakes Blvd E #204,,FL,33467,229000,2,2.0,Lucerne Greens Condo,1244,,1989,,184,554,Sold,,,https://www.redfin.com/FL/Lake-Worth/4693-Lucerne-Lakes-Blvd-E-33467/unit-204/home/42089297,Beaches MLS,F10382942,N,Y,26.6056306,-80.1580111
PAST SALE,August-21-2023,Condo/Co-op,1160 E Sugar Sands Blvd #601,Riviera Beach,FL,33404,445000,2,2.0,Sugar Sands,1143,30,1978,,389,748,Sold,,,https://www.redfin.com/FL/Riviera-Beach/1160-Sugar-Sands-Blvd-33404/unit-601/home/42467536,Beaches MLS,RX-10880040,N,Y,26.789447,-80.0393895
PAST SALE,August-7-2023,Condo/Co-op,1950 N Congress Ave #308,West Palm Beach,FL,33401,165000,1,1.0,Presidential Golfview Con,775,,1981,,213,360,Sold,,,https://www.redfin.com/FL/West-Palm-Beach/1950-N-Congress-Ave-33401/unit-308/home/42526977,Beaches MLS,F10388136,N,Y,26.7332754,-80.0891539
PAST SALE,,Condo/Co-op,634 Waterside Dr,Hypoluxo,FL,33462,231000,2,2.0,,850,,1989,,272,,,,,https://www.redfin.com/FL/Hypoluxo/634-Waterside-Dr-33462/home/42388054,,,N,Y,26.555796,-80.056969
PAST SALE,June-20-2023,Condo/Co-op,628 Sea Pine Way Unit E1,Greenacres,FL,33415,245000,2,2.0,Pine Ridge North II Condo,1005,,1984,,244,319,Sold,,,https://www.redfin.com/FL/Greenacres/628-Sea-Pine-Way-33415/unit-E1/home/42377333,Beaches MLS,RX-10879171,N,Y,26.6384341,-80.1380172
PAST SALE,August-18-2023,Condo/Co-op,955 Egret Cir #307,Delray Beach,FL,33444,371000,2,2.0,Lavers Resort & Racquet Club,1175,,1985,,316,516,Sold,,,https://www.redfin.com/FL/Delray-Beach/955-Egret-Cir-33444/unit-307/home/42380827,Beaches MLS,RX-10903213,N,Y,26.4359928,-80.0805356
PAST SALE,June-21-2023,Condo/Co-op,7101 Mrytlewood Cir W,Palm Beach Gardens,FL,33418,395000,3,2.0,Fiore AT The Gardens Condo,1338,,2004,,295,416,Sold,,,https://www.redfin.com/FL/Palm-Beach-Gardens/7101-Myrtlewood-Cir-W-33418/home/42606569,Beaches MLS,RX-10888758,N,Y,26.87368,-80.106316
PAST SALE,June-29-2023,Condo/Co-op,3338 Perimeter Dr #1423,Greenacres,FL,33467,224900,2,2.0,Park Pointe,1128,,1986,,199,577,Sold,,,https://www.redfin.com/FL/Greenacres/3338-Perimeter-Dr-33467/unit-1423/home/185044675,Beaches MLS,RX-10880750,N,Y,26.6271498,-80.1485593
PAST SALE,June-20-2023,Condo/Co-op,6121 Pointe Regal Cir #205,Delray Beach,FL,33484,305000,2,2.0,Huntington Pointe,1392,,1992,,219,710,Sold,,,https://www.redfin.com/FL/Delray-Beach/6121-Pointe-Regal-Cir-33484/unit-205/home/42220922,Beaches MLS,RX-10885211,N,Y,26.4625516,-80.1437742
PAST SALE,,Condo/Co-op,334 Monaco G,Delray Beach,FL,33446,150000,2,2.0,,907,,1977,,165,,,,,https://www.redfin.com/FL/Delray-Beach/334-Monaco-G-33446/home/42627148,,,N,Y,26.4427104,-80.150933
PAST SALE,August-15-2023,Condo/Co-op,6800 Via Regina,Boca Raton,FL,33433,350000,3,2.5,Plum AT Boca Pointe Condos One Thru 15 Filed IN OR,1728,,1987,,203,565,Sold,,,https://www.redfin.com/FL/Boca-Raton/6800-Via-Regina-33433/home/42274450,Beaches MLS,RX-10903222,N,Y,26.33435,-80.146706
PAST SALE,June-16-2023,Condo/Co-op,7340 Amberly Ln #307,Delray Beach,FL,33446,190000,2,2.0,Huntington Lakes,1220,,1987,,156,588,Sold,,,https://www.redfin.com/FL/Delray-Beach/7340-Amberly-Ln-33446/unit-307/home/42219528,Beaches MLS,RX-10888560,N,Y,26.4615581,-80.162742
PAST SALE,July-25-2023,Condo/Co-op,830 Greensward Ct Unit 209-H,Delray Beach,FL,33445,520000,2,2.0,Greensward Village Condo,1731,,1975,,300,857,Sold,,,https://www.redfin.com/FL/Delray-Beach/830-Greensward-Ct-33445/unit-209-H/home/42356407,Beaches MLS,RX-10897843,N,Y,26.4525563,-80.1102412
PAST SALE,,Condo/Co-op,20100 Boca West Dr #187,Boca Raton,FL,33434,649000,2,2.0,,1760,,1980,,369,,,,,https://www.redfin.com/FL/Boca-Raton/20100-Boca-West-Dr-33434/unit-187/home/42253602,,,N,Y,26.3823991,-80.1500828
PAST SALE,June-22-2023,Condo/Co-op,10 Royal Palm Way Unit 102,Boca Raton,FL,33432,450100,2,2.0,Boca Bayou Condo,1095,,1978,,411,610,Sold,,,https://www.redfin.com/FL/Boca-Raton/10-Royal-Palm-Way-33432/unit-102/home/184717746,Beaches MLS,RX-10873988,N,Y,26.3270597,-80.0936697
PAST SALE,August-4-2023,Condo/Co-op,366 Mansfield I,Boca Raton,FL,33434,105000,1,1.5,Century Village Condo,715,,1980,,147,282,Sold,,,https://www.redfin.com/FL/Boca-Raton/366-Mansfield-I-33434/home/42244265,Beaches MLS,RX-10894350,N,Y,26.393597,-80.175797
PAST SALE,August-7-2023,Condo/Co-op,531 N J St #3,Lake Worth Beach,FL,33460,165000,1,1.0,Rita Apts IV Cond Decl Filed 12-28-79,663,,1979,,249,,Sold,,,https://www.redfin.com/FL/Lake-Worth/531-N-J-St-33460/unit-3/home/42420467,Beaches MLS,RX-10901430,N,Y,26.6225383,-80.0563507
PAST SALE,,Condo/Co-op,689 NE 6th Ct #4010,Boynton Beach,FL,33435,455000,2,2.0,,899,,1978,,506,,,,,https://www.redfin.com/FL/Boynton-Beach/689-NE-6th-Ct-33435/unit-4010/home/42338960,,,N,Y,26.5328116,-80.0544944
PAST SALE,September-5-2023,Condo/Co-op,1920 N Congress Ave Unit I-105,West Palm Beach,FL,33401,195000,2,1.0,Presidential Golfview Con,850,,1981,,229,360,Sold,,,https://www.redfin.com/FL/West-Palm-Beach/1920-N-Congress-Ave-33401/unit-I-105/home/186199271,Beaches MLS,F10392167,N,Y,26.7328138,-80.0893939
PAST SALE,July-6-2023,Condo/Co-op,1401 S Ocean Blvd #501,Boca Raton,FL,33432,1249000,3,3.0,Mayfair,2281,,1982,,548,2034,Sold,,,https://www.redfin.com/FL/Boca-Raton/1401-S-Ocean-Blvd-33432/unit-501/home/172833200,Beaches MLS,RX-10893154,N,Y,26.3307453,-80.0753624
PAST SALE,August-10-2023,Condo/Co-op,3500 Springdale Blvd #109,Palm Springs,FL,33461,89900,1,1.0,Regal Palms Regent Condo,660,,1980,,136,350,Sold,,,https://www.redfin.com/FL/Palm-Springs/3500-Springdale-Blvd-33461/unit-109/home/42481194,Beaches MLS,RX-10897370,N,Y,26.6468896,-80.1037285
PAST SALE,June-16-2023,Condo/Co-op,595 Flanders M,Delray Beach,FL,33484,130000,2,2.0,Kings Point Flanders Condos,907,,1977,,143,612,Sold,,,https://www.redfin.com/FL/Delray-Beach/595-Flanders-M-33484/home/42223973,Beaches MLS,RX-10880718,N,Y,26.440356,-80.141465
PAST SALE,July-10-2023,Condo/Co-op,1014 Lincoln A #1014,Boca Raton,FL,33434,120000,1,1.5,Lincoln,752,,1981,,160,535,Sold,,,https://www.redfin.com/FL/Boca-Raton/1014-Lincoln-A-33434/unit-1014/home/185441754,Beaches MLS,F10381069,N,Y,26.389159,-80.173042
PAST SALE,June-30-2023,Condo/Co-op,570 SW 20th Ct #1,Delray Beach,FL,33445,271500,2,2.0,Golfview Colony Condo,1243,,1979,,218,367,Sold,,,https://www.redfin.com/FL/Delray-Beach/570-SW-20th-Ct-33445/unit-1/home/42375969,Beaches MLS,F10382563,N,Y,26.4515505,-80.0934305
PAST SALE,August-1-2023,Condo/Co-op,400 N Federal Hwy Unit S316,Boynton Beach,FL,33435,394995,1,1.5,Casa Costa Condo,900,,2010,,439,640,Sold,,,https://www.redfin.com/FL/Boynton-Beach/400-N-Federal-Hwy-33435/unit-316S/home/42672522,Beaches MLS,RX-10893969,N,Y,26.5300846,-80.057977
PAST SALE,August-8-2023,Condo/Co-op,4636 Kittiwake Ct Unit Kingfisher S,Boynton Beach,FL,33436,460000,2,2.0,Quail Ridge,1479,,1979,,311,1174,Sold,,,https://www.redfin.com/FL/Boynton-Beach/4636-Kittiwake-Ct-33436/home/42214489,Beaches MLS,RX-10900227,N,Y,26.509302,-80.111706
PAST SALE,June-12-2023,Condo/Co-op,9754 Nickels Blvd #205,Boynton Beach,FL,33436,340000,2,2.0,Carriage Gate Condo,1458,,1989,,233,573,Sold,,,https://www.redfin.com/FL/Boynton-Beach/9754-Nickels-Blvd-33436/unit-205/home/42338419,Beaches MLS,RX-10879998,N,Y,26.5315871,-80.1008407
PAST SALE,June-30-2023,Condo/Co-op,123 Northampton F,West Palm Beach,FL,33417,80000,2,1.5,Northampton Condos,798,,1972,,100,479,Sold,,,https://www.redfin.com/FL/West-Palm-Beach/123-Northampton-F-33417/home/42149167,Beaches MLS,RX-10892326,N,Y,26.7163249,-80.1349323
PAST SALE,August-15-2023,Condo/Co-op,5540 N Ocean Dr Unit 10c,Singer Island,FL,33404,1400000,2,2.0,Water Glades,1558,,1975,,899,1345,Sold,,,https://www.redfin.com/FL/Riviera-Beach/5540-N-Ocean-Dr-33404/unit-10C/home/42459051,Beaches MLS,RX-10902261,N,Y,26.813523,-80.0356124
PAST SALE,,Condo/Co-op,460 NW 20th St #310,Boca Raton,FL,33431,265000,2,2.0,,936,,1980,,283,,,,,https://www.redfin.com/FL/Boca-Raton/460-NW-20th-St-33431/unit-310/home/42325861,,,N,Y,26.3666306,-80.0939542
PAST SALE,August-17-2023,Condo/Co-op,1630 Embassy Dr #101,West Palm Beach,FL,33401,143000,2,2.0,Georgetown Condo,916,365,1974,,156,525,Sold,,,https://www.redfin.com/FL/West-Palm-Beach/1630-Embassy-Dr-33401/unit-101/home/42519788,Beaches MLS,RX-10887168,N,Y,26.7272433,-80.0822764
PAST SALE,June-23-2023,Condo/Co-op,1850 Homewood Blvd #2120,Delray Beach,FL,33445,319000,2,2.0,EASTWINDS AT CROSSWINDS C,1191,,1984,,268,522,Sold,,,https://www.redfin.com/FL/Delray-Beach/1850-Homewood-Blvd-33445/unit-2120/home/42375253,MARMLS,A11380372,N,Y,26.4372917,-80.103554
PAST SALE,July-21-2023,Townhouse,8946 Windtreestreet St,Boca Raton,FL,33496,425000,2,2.0,Whisper Walk / Parklane,1248,,1986,,341,463,Sold,,,https://www.redfin.com/FL/Boca-Raton/8946-Windtree-St-33496/home/42237656,Beaches MLS,RX-10904000,N,Y,26.3993647,-80.1853021
PAST SALE,August-11-2023,Condo/Co-op,1880 N Congress Ave #104,West Palm Beach,FL,33401,160000,1,1.0,Presidential Golfview Condo,775,,1981,,206,360,Sold,,,https://www.redfin.com/FL/West-Palm-Beach/1880-N-Congress-Ave-33401/unit-104/home/42520838,Beaches MLS,RX-10905567,N,Y,26.7320694,-80.0893351
PAST SALE,,Condo/Co-op,1042 Bay Colony Dr S,Juno Beach,FL,33408,1300000,3,3.0,,1792,,2016,,725,,,,,https://www.redfin.com/FL/Juno-Beach/1042-Bay-Colony-Dr-S-33408/home/92050247,,,N,Y,26.8605102,-80.0642842
PAST SALE,August-1-2023,Condo/Co-op,14849 Cumberland Dr #1060,Delray Beach,FL,33446,240000,2,2.0,Villages OF Oriole Deauville,1005,,1980,,239,578,Sold,,,https://www.redfin.com/FL/Delray-Beach/14849-Cumberland-Dr-33446/unit-1060/home/42222312,Beaches MLS,RX-10897336,N,Y,26.4564901,-80.1553744
PAST SALE,August-14-2023,Condo/Co-op,2033 S Seacrest Blvd Unit A,Boynton Beach,FL,33435,195000,1,1.5,Squire Hill Condo,891,,1973,,219,550,Sold,,,https://www.redfin.com/FL/Boynton-Beach/2033-S-Seacrest-Blvd-33435/unit-A/home/42355438,Beaches MLS,RX-10895613,N,Y,26.5102685,-80.0651752
PAST SALE,,Condo/Co-op,21290 Juego Cir Unit F,Boca Raton,FL,33433,310000,2,2.0,,1216,,1978,,255,,,,,https://www.redfin.com/FL/Boca-Raton/21290-Juego-Cir-33433/unit-F/home/42258767,,,N,Y,26.3575365,-80.1844597
PAST SALE,July-11-2023,Condo/Co-op,169 Dorchester H #169,West Palm Beach,FL,33417,87900,1,1.5,Century Village,646,,1972,,136,452,Sold,,,https://www.redfin.com/FL/West-Palm-Beach/169-Dorchester-H-33417/unit-169/home/104428716,Beaches MLS,F10377690,N,Y,26.720629,-80.1287718
PAST SALE,June-12-2023,Condo/Co-op,6559 Emerald Dunes Dr #108,West Palm Beach,FL,33411,344900,3,2.0,Villas At Emerald Dunes,1493,,2006,,231,538,Sold,,,https://www.redfin.com/FL/West-Palm-Beach/6559-Emerald-Dunes-Dr-33411/unit-108/home/42615041,Beaches MLS,F10377020,N,Y,26.7104927,-80.1433351
PAST SALE,June-12-2023,Condo/Co-op,1002 Villa Ln #1002,Boynton Beach,FL,33435,280000,2,2.0,Mirabella,1074,,2002,,261,451,Sold,,,https://www.redfin.com/FL/Boynton-Beach/1002-Villa-Cir-33435/unit-1002/home/177569272,Beaches MLS,F10378625,N,Y,26.5018427,-80.0631262
PAST SALE,July-31-2023,Condo/Co-op,3482 Briar Bay Blvd #201,Royal Palm Beach,FL,33411,255000,3,2.0,Cove AT Briar Bay,1176,,2003,,217,370,Sold,,,https://www.redfin.com/FL/Royal-Palm-Beach/3482-Briar-Bay-Blvd-33411/unit-201/home/42597977,Beaches MLS,RX-10900543,N,Y,26.7284189,-80.1385624
PAST SALE,June-29-2023,Condo/Co-op,5418 Firenze Dr Unit B,Boynton Beach,FL,33437,290000,2,2.0,Platina / Alexandra Village,1282,,1991,,226,653,Sold,,,https://www.redfin.com/FL/Boynton-Beach/5418-Firenze-Dr-33437/unit-B/home/42193345,Beaches MLS,RX-10890379,N,Y,26.5314393,-80.1301699
PAST SALE,July-31-2023,Condo/Co-op,376 Camden P,West Palm Beach,FL,33417,131000,1,1.5,Camden Condos,646,365,1972,,203,570,Sold,,,https://www.redfin.com/FL/West-Palm-Beach/376-Camden-P-33417/home/42141520,Beaches MLS,RX-10893599,N,Y,26.7132684,-80.1341467
PAST SALE,July-7-2023,Condo/Co-op,2717 Florida Blvd #125,Delray Beach,FL,33483,265000,2,2.0,Tropic Bay Condo,1200,,1972,,221,682,Sold,,,https://www.redfin.com/FL/Delray-Beach/2717-Florida-Blvd-33483/unit-125/home/42368617,Beaches MLS,RX-10887579,N,Y,26.4298533,-80.0701246
PAST SALE,,Condo/Co-op,9873 Baywinds Dr #5104,West Palm Beach,FL,33411,112500,2,2.0,,1141,,2004,,99,,,,,https://www.redfin.com/FL/West-Palm-Beach/9873-Baywinds-Dr-33411/unit-5104/home/42599856,,,N,Y,26.7111201,-80.1999126
PAST SALE,July-26-2023,Condo/Co-op,27 Eastgate Dr Unit D,Boynton Beach,FL,33436,360000,3,2.0,Eastgate AT Hunters Run,2106,,1985,,171,1066,Sold,,,https://www.redfin.com/FL/Boynton-Beach/27-Eastgate-Dr-33436/unit-D/home/42352884,Beaches MLS,RX-10886749,N,Y,26.4887659,-80.098733
PAST SALE,August-18-2023,Condo/Co-op,11790 Saint Andrews Pl #203,Wellington,FL,33414,427500,2,2.0,ST Andrews AT Polo Club Condo,1404,90,2001,,304,449,Sold,,,https://www.redfin.com/FL/Wellington/11790-Saint-Andrews-Pl-33414/unit-203/home/42595936,Beaches MLS,RX-10900870,N,Y,26.6506705,-80.2329591
PAST SALE,August-3-2023,Condo/Co-op,13680 Yarmouth Ct Unit C,Wellington,FL,33414,330000,2,2.0,Greenview Shores,1001,,1986,,330,356,Sold,,,https://www.redfin.com/FL/Wellington/13680-Yarmouth-Ct-33414/unit-C/home/42497986,Beaches MLS,F10387713,N,Y,26.6453311,-80.2639147
PAST SALE,July-12-2023,Condo/Co-op,1262 N Sugar Sands Blvd #228,Singer Island,FL,33404,294000,2,2.0,Sugar Sands,1190,,1974,,247,864,Sold,,,https://www.redfin.com/FL/Riviera-Beach/1262-Sugar-Sands-Blvd-33404/unit-228/home/42458148,Beaches MLS,RX-10888022,N,Y,26.7898069,-80.0354595
PAST SALE,August-7-2023,Condo/Co-op,5048 Heatherhill Ln #1106,Boca Raton,FL,33486,250000,1,1.0,HEATHERWOOD CONDO,895,,1987,,279,510,Sold,,,https://www.redfin.com/FL/Boca-Raton/5048-Heatherhill-Ln-33486/unit-1106/home/42593303,MARMLS,A11413919,N,Y,26.3290574,-80.1219865
PAST SALE,June-9-2023,Condo/Co-op,19811 Boca West Dr #4044,Boca Raton,FL,33434,250000,2,2.0,Quail Hollow,1400,,1981,,179,870,Sold,,,https://www.redfin.com/FL/Boca-Raton/19811-W-Boca-Dr-33434/unit-4044/home/185224259,Beaches MLS,RX-10884469,N,Y,26.383315,-80.1639345
PAST SALE,June-30-2023,Condo/Co-op,118 Castlewood Dr #122,North Palm Beach,FL,33408,339900,2,2.0,Castlewood Town Villas Condo,1280,,1971,,266,873,Sold,,,https://www.redfin.com/FL/North-Palm-Beach/118-Castlewood-Dr-33408/unit-122/home/42478635,Beaches MLS,RX-10889508,N,Y,26.8051422,-80.0540535
PAST SALE,July-26-2023,Condo/Co-op,2042 Keystone Dr S Unit B,Jupiter,FL,33458,330000,2,2.0,Keystone Condo,1178,,1989,,280,426,Sold,,,https://www.redfin.com/FL/Jupiter/2042-Keystone-Dr-33458/unit-B/home/42399020,Beaches MLS,RX-10897700,N,Y,26.9130019,-80.14006
PAST SALE,,Condo/Co-op,100 Easthampton E,West Palm Beach,FL,33417,190000,2,1.5,,858,,1969,,221,,,,,https://www.redfin.com/FL/West-Palm-Beach/100-Easthampton-E-33417/home/42136279,,,N,Y,26.716714,-80.119845
PAST SALE,July-19-2023,Condo/Co-op,810 Bella Vista Ct S,Jupiter,FL,33477,610000,2,2.0,Bella Vista on The Park,1140,,1994,,535,615,Sold,,,https://www.redfin.com/FL/Jupiter/810-Bella-Vista-Ct-S-33477/home/185371691,Beaches MLS,RX-10888449,N,Y,26.929022,-80.073069
PAST SALE,July-7-2023,Condo/Co-op,5500 NW 2nd Ave #322,Boca Raton,FL,33487,215000,2,2.0,Boca Teeca Three,1200,,1970,,179,855,Sold,,,https://www.redfin.com/FL/Boca-Raton/5500-NW-2nd-Ave-33487/unit-322/home/42316347,Beaches MLS,F10381292,N,Y,26.3983609,-80.083044
PAST SALE,July-3-2023,Condo/Co-op,6073 Balboa Cir #305,Boca Raton,FL,33433,350000,2,2.0,Whitehall Condo AT Camino Real,1385,,1985,,253,516,Sold,,,https://www.redfin.com/FL/Boca-Raton/6073-Balboa-Cir-33433/unit-305/home/42261404,Beaches MLS,RX-10889108,N,Y,26.345146,-80.141972
PAST SALE,June-30-2023,Condo/Co-op,4403 Tuscany Way,Boynton Beach,FL,33435,485000,3,2.0,Tuscany ON The Intracoastal,1385,,2002,,350,1140,Sold,,,https://www.redfin.com/FL/Boynton-Beach/4403-Tuscany-Way-33435/home/42583545,Beaches MLS,RX-10890967,N,Y,26.5080147,-80.0582889
PAST SALE,June-30-2023,Condo/Co-op,640 Flanders N Unit 640n,Delray Beach,FL,33484,148000,2,2.0,Kings Point,883,,1974,,168,636,Sold,,,https://www.redfin.com/FL/Delray-Beach/640-Flanders-N-33484/unit-640n/home/185503288,Beaches MLS,RX-10891840,N,Y,26.440063,-80.1447359
PAST SALE,September-7-2023,Condo/Co-op,5030 Sanctuary Way Unit D,West Palm Beach,FL,33417,206000,2,2.0,Park Place Townhomes,867,1014,1990,,238,300,Sold,,,https://www.redfin.com/FL/West-Palm-Beach/5030-Sanctuary-Way-33417/unit-D/home/42155836,Beaches MLS,RX-10907724,N,Y,26.7030335,-80.1231228
PAST SALE,August-1-2023,Condo/Co-op,7340 Amberly Ln #301,Delray Beach,FL,33446,344000,2,2.0,Huntington Lakes Sec Four Condos,1220,,1987,,282,583,Sold,,,https://www.redfin.com/FL/Delray-Beach/7340-Amberly-Ln-33446/unit-301/home/42220521,Beaches MLS,RX-10899168,N,Y,26.46145,-80.1624384
PAST SALE,August-28-2023,Condo/Co-op,145 Lake Rebecca Dr,West Palm Beach,FL,33411,260000,2,2.0,Golden Lakes Village Condo,1029,,1984,,253,680,Sold,,,https://www.redfin.com/FL/West-Palm-Beach/145-Lake-Rebecca-Dr-33411/home/42148542,Beaches MLS,RX-10905608,N,Y,26.6969746,-80.1682256
PAST SALE,August-10-2023,Condo/Co-op,5257 Fountains Dr S #205,Lake Worth,FL,33467,254900,3,2.0,Fountains South Condo 3A,1757,90,1985,,145,763,Sold,,,https://www.redfin.com/FL/Lake-Worth/5257-Fountains-Dr-S-33467/unit-205/home/42176954,Beaches MLS,RX-10894507,N,Y,26.6002889,-80.1493565
PAST SALE,August-8-2023,Condo/Co-op,"301 Chilean Ave Unit 1, 6",Palm Beach,FL,33480,1205000,2,2.0,Three Hundred One Chilean Ave Condo,723,,1984,,1667,394,Sold,,,https://www.redfin.com/FL/Palm-Beach/301-Chilean-Ave-33480/unit-1-6/home/185915298,Beaches MLS,RX-10900053,N,Y,26.7027478,-80.0389953
PAST SALE,August-17-2023,Condo/Co-op,500 Scotia Dr #201,Hypoluxo,FL,33462,390000,2,2.0,Hypoluxos Mariners Cay Condo,1147,,2001,,340,781,Sold,,,https://www.redfin.com/FL/Hypoluxo/500-Scotia-Dr-33462/unit-201/home/42581503,Beaches MLS,RX-10906577,N,Y,26.561901,-80.0518589
PAST SALE,September-1-2023,Condo/Co-op,600 S Dixie Hwy #544,West Palm Beach,FL,33401,550000,2,2.0,Prado Condo,1118,,2006,,492,951,Sold,,,https://www.redfin.com/FL/West-Palm-Beach/600-S-Dixie-Hwy-33401/unit-544/home/42657364,Beaches MLS,RX-10905537,N,Y,26.7083276,-80.053507
PAST SALE,June-20-2023,Condo/Co-op,2520 Pansey Ln Unit D,Delray Beach,FL,33445,225000,2,2.0,Pines OF Delray,1167,,1975,,193,469,Sold,,,https://www.redfin.com/FL/Delray-Beach/2520-Pansy-Ln-33445/unit-D/home/185496439,Beaches MLS,RX-10891708,N,Y,26.4444875,-80.100394
PAST SALE,August-16-2023,Condo/Co-op,11 Royal Palm Way Unit 203,Boca Raton,FL,33432,325000,1,1.0,Boca Bayou Phase Iii,795,,1976,,409,495,Sold,,,https://www.redfin.com/FL/Boca-Raton/11-Royal-Palm-Way-33432/unit-203/home/184080702,Beaches MLS,RX-10886307,N,Y,26.3271932,-80.0938669
PAST SALE,June-16-2023,Condo/Co-op,23 Southport Ln Unit D,Boynton Beach,FL,33436,238000,2,2.0,Southport AT Hunters Run Condo,1575,,1980,,151,1038,Sold,,,https://www.redfin.com/FL/Boynton-Beach/23-Southport-Ln-33436/unit-D/home/42352278,Beaches MLS,RX-10887840,N,Y,26.4854893,-80.0977566
PAST SALE,July-31-2023,Condo/Co-op,1007 Green Pine Blvd Unit H3,West Palm Beach,FL,33409,197000,2,2.0,Palm Club Village 1,1064,,1984,,185,427,Sold,,,https://www.redfin.com/FL/West-Palm-Beach/1007-Green-Pine-Blvd-33409/unit-H3/home/42511773,Beaches MLS,F10383542,N,Y,26.7300174,-80.1088675
PAST SALE,,Condo/Co-op,2945 SW 22nd Ave #2020,Delray Beach,FL,33445,340000,2,2.0,,1109,,1984,,307,,,,,https://www.redfin.com/FL/Delray-Beach/2945-SW-22nd-Ave-33445/unit-2020/home/42381031,,,N,Y,26.429677,-80.0955804
PAST SALE,,Condo/Co-op,4907 Midtown Ln #1213,Palm Beach Gardens,FL,33418,435000,3,2.0,,1117,,2008,,389,,,,,https://www.redfin.com/FL/Palm-Beach-Gardens/4907-Midtown-Ln-33418/unit-1213/home/42661972,,,N,Y,26.839493,-80.1086017
PAST SALE,June-21-2023,Condo/Co-op,5520 N Ocean Blvd #105,Ocean Ridge,FL,33435,325000,2,2.0,Crown Colony,1120,,1969,,290,638,Sold,,,https://www.redfin.com/FL/Ocean-Ridge/5520-N-Ocean-Blvd-33435/unit-105/home/42434423,Beaches MLS,RX-10890837,N,Y,26.5117067,-80.0547659
PAST SALE,August-4-2023,Condo/Co-op,11740 Saint Andrews Pl #201,Wellington,FL,33414,550000,3,2.0,ST Andrews AT Polo Club Condo,1627,,2001,,338,539,Sold,,,https://www.redfin.com/FL/Wellington/11740-Saint-Andrews-Pl-33414/unit-201/home/42594077,Beaches MLS,RX-10904139,N,Y,26.6505021,-80.2305193
PAST SALE,July-11-2023,Condo/Co-op,2600 N Flagler Dr #313,West Palm Beach,FL,33407,140000,0,1.0,"Portofino Condo PT OF Lts 15 And 16,jarvis Par",450,,1969,,311,424,Sold,,,https://www.redfin.com/FL/West-Palm-Beach/2600-N-Flagler-Dr-33407/unit-313/home/42520024,Beaches MLS,RX-10886597,N,Y,26.7369736,-80.0497815
PAST SALE,August-25-2023,Condo/Co-op,309 Windsor N,West Palm Beach,FL,33417,109000,1,1.0,Windsor Condos,585,,1972,,186,410,Sold,,,https://www.redfin.com/FL/West-Palm-Beach/309-Windsor-N-33417/home/42143324,Beaches MLS,RX-10893231,N,Y,26.7111652,-80.1348379
PAST SALE,June-19-2023,Condo/Co-op,214 Bedford I #214,West Palm Beach,FL,33417,169000,1,1.5,Bedford Condo,738,,1971,,229,422,Sold,,,https://www.redfin.com/FL/West-Palm-Beach/214-Bedford-I-33417/unit-214/home/160757118,Beaches MLS,RX-10887710,N,Y,26.7105935,-80.1261081
PAST SALE,August-30-2023,Condo/Co-op,5118 Lake Catalina Dr Unit C,Boca Raton,FL,33496,675000,3,2.0,Catalina / Polo Club,1837,,1989,,367,517,Sold,,,https://www.redfin.com/FL/Boca-Raton/5118-Lake-Catalina-Dr-33496/unit-C/home/42236994,Beaches MLS,RX-10901672,N,Y,26.4136316,-80.1228563
PAST SALE,August-15-2023,Condo/Co-op,1208 Marine Way Ph -8,North Palm Beach,FL,33408,330000,2,2.0,Old Port Cove Condo One,1028,,1971,,321,827,Sold,,,https://www.redfin.com/FL/North-Palm-Beach/1208-Marine-Way-33408/unit-8/home/104377300,Beaches MLS,RX-10903169,N,Y,26.8360407,-80.0585645
PAST SALE,June-30-2023,Condo/Co-op,8520 Casa Del Lago Unit A,Boca Raton,FL,33433,255000,2,2.0,Fairways OF Boca Lago,1216,,1978,,210,560,Sold,,,https://www.redfin.com/FL/Boca-Raton/8520-Casa-del-Lago-33433/unit-A/home/42252916,Beaches MLS,RX-10890570,N,Y,26.3589689,-80.1788098
PAST SALE,August-9-2023,Condo/Co-op,5220 Las Verdes Cir #202,Delray Beach,FL,33484,148550,2,2.0,Las Verdes,930,,1981,,160,375,Sold,,,https://www.redfin.com/FL/Delray-Beach/5220-Las-Verdes-Cir-33484/unit-202/home/42228824,Beaches MLS,RX-10900506,N,Y,26.4432958,-80.1275924
PAST SALE,June-12-2023,Condo/Co-op,3595 Birdie Dr #502,Lake Worth,FL,33467,235000,2,2.0,"Poinciana Place Condo A,b And C",1090,,1978,,216,575,Sold,,,https://www.redfin.com/FL/Lake-Worth/3595-Birdie-Dr-33467/unit-502/home/42087083,Beaches MLS,RX-10886971,N,Y,26.623126,-80.156379
PAST SALE,August-16-2023,Condo/Co-op,2811 S Garden Dr #204,Lake Worth,FL,33461,45000,1,1.5,Lake Clarke Gardens Condo 25,894,,1971,,50,870,Sold,,,https://www.redfin.com/FL/Lake-Worth/2811-Garden-Dr-S-33461/unit-204/home/42289185,Beaches MLS,RX-10902825,N,Y,26.6336523,-80.0852261
PAST SALE,June-12-2023,Condo/Co-op,15244 Lakes Of Delray Blvd #107,Delray Beach,FL,33484,220000,2,2.0,Lakes OF Delray,1348,,1988,,163,637,Sold,,,https://www.redfin.com/FL/Delray-Beach/15244-Lakes-of-Delray-Blvd-33484/unit-107/home/42229653,Beaches MLS,RX-10884998,N,Y,26.453339,-80.134206
PAST SALE,August-4-2023,Condo/Co-op,9825 Baywinds Dr #1302,West Palm Beach,FL,33411,286000,2,2.0,Mezzano Condo,1141,,2004,,251,376,Sold,,,https://www.redfin.com/FL/West-Palm-Beach/9825-Baywinds-Dr-33411/unit-1302/home/42599867,Beaches MLS,RX-10905137,N,Y,26.7113319,-80.1981156
PAST SALE,August-14-2023,Condo/Co-op,9200 SW 3rd St #101,Boca Raton,FL,33428,289900,2,2.0,Sandal Foot Squire,1050,,1981,,276,290,Sold,,,https://www.redfin.com/FL/Boca-Raton/9200-SW-3rd-St-33428/unit-101/home/42635095,Beaches MLS,F10388416,N,Y,26.3445637,-80.1903616
PAST SALE,July-28-2023,Condo/Co-op,3115 S Ocean Blvd #404,Highland Beach,FL,33487,1525000,3,2.5,Ocean Terrace North Condo,1852,,1981,,823,2045,Sold,,,https://www.redfin.com/FL/Highland-Beach/3115-S-Ocean-Blvd-33487/unit-404/home/42385073,Beaches MLS,RX-10889367,N,Y,26.4187454,-80.0639261
PAST SALE,August-22-2023,Condo/Co-op,2212 NE 1st Way #202,Boynton Beach,FL,33435,105000,1,1.5,Village Royale Condo,632,,1970,,166,387,Sold,,,https://www.redfin.com/FL/Boynton-Beach/2212-NE-1st-Way-33435/unit-202/home/42638476,Beaches MLS,RX-10900736,N,Y,26.5498226,-80.0656447
PAST SALE,June-15-2023,Condo/Co-op,4703 Lucerne Lakes Blvd #103,Lake Worth,FL,33467,179000,2,2.0,Lucerne Greens Condo,815,,1987,,220,554,Sold,,,https://www.redfin.com/FL/Lake-Worth/4703-Lucerne-Lakes-Blvd-E-33467/unit-103/home/42174904,Beaches MLS,RX-10885131,N,Y,26.6046853,-80.1578155
PAST SALE,August-31-2023,Condo/Co-op,2028 Shoma Dr #2028,Royal Palm Beach,FL,33414,290000,3,2.0,SHOMA COURTYARDS II AT RO,1457,,2003,,199,357,Sold,,,https://www.redfin.com/FL/West-Palm-Beach/2028-Shoma-Dr-33414/unit-2028/home/186086437,MARMLS,A11418026,N,Y,26.673848,-80.205322
PAST SALE,,Condo/Co-op,4857 Sable Pine Cir Unit B2,West Palm Beach,FL,33417,100000,2,2.0,,1115,,1982,,90,,,,,https://www.redfin.com/FL/West-Palm-Beach/4857-Sable-Pine-Cir-33417/unit-B2/home/42152770,,,N,Y,26.726882,-80.116135
PAST SALE,July-13-2023,Condo/Co-op,2000 N Congress Ave #403,West Palm Beach,FL,33401,137000,1,1.0,Presidential Golfview Condo,775,,1981,,177,360,Sold,,,https://www.redfin.com/FL/West-Palm-Beach/2000-N-Congress-Ave-33401/unit-403/home/42518951,Beaches MLS,RX-10893721,N,Y,26.7337143,-80.0892532
