{
"type": "FeatureCollection",
"name": "Restaurants_geocoded",
"crs": { "type": "name", "properties": { "name": "urn:ogc:def:crs:OGC:1.3:CRS84" } },
"features": [
{ "type": "Feature", "properties": { "full_address": "112 Alhambra Cir, Coral Gables, FL 33134", "restaurants": "Shingo", "description": "A 14-seat omakase restaurant serving Edomae-style sushi and seasonal Japanese seafood.", "new_this_year?": "FALSE", "num_michelin_stars": "1" }, "geometry": { "type": "Point", "coordinates": [ -80.2566214, 25.7530311 ] } },
{ "type": "Feature", "properties": { "full_address": "31 SE 5th St, Miami, FL 33131", "restaurants": "Elcielo Miami", "description": "A tasting-menu restaurant from Colombian chef Juan Manuel Barrientos focused on modern Colombian cuisine.", "new_this_year?": "FALSE", "num_michelin_stars": "1" }, "geometry": { "type": "Point", "coordinates": [ -80.1916039, 25.7696808 ] } },
{ "type": "Feature", "properties": { "full_address": "6801 Collins Ave, Miami Beach, FL 33141", "restaurants": "Tambourine Room by Tristan Brandt", "description": "A fine-dining restaurant offering French fusion cuisine through a tasting-menu format.", "new_this_year?": "FALSE", "num_michelin_stars": "1" }, "geometry": { "type": "Point", "coordinates": [ -80.1197746, 25.8530369 ] } },
{ "type": "Feature", "properties": { "full_address": "424 Park Place, Suite 101, West Palm Beach, FL 33401", "restaurants": "Emelina", "description": "A newly launched Cuban restaurant that became the first of its cuisine to earn a Michelin star.", "new_this_year?": "TRUE", "num_michelin_stars": "1" }, "geometry": { "type": "Point", "coordinates": [ -80.0551569, 26.6975792 ] } },
{ "type": "Feature", "properties": { "full_address": "525 N Fort Lauderdale Beach Blvd, Fort Lauderdale, FL 33304", "restaurants": "Chef’s Counter at MAASS", "description": "An intimate chef's-counter experience centered on a multi-course tasting menu with French techniques and Japanese ingredients.", "new_this_year?": "FALSE", "num_michelin_stars": "1" }, "geometry": { "type": "Point", "coordinates": [ -80.1041065, 26.1301495 ] } },
{ "type": "Feature", "properties": { "full_address": "5205 NE 2nd Ave, Miami, FL 33137", "restaurants": "Boia De", "description": "A small restaurant known for Italian-influenced dishes and a frequently changing menu.", "new_this_year?": "FALSE", "num_michelin_stars": "1" }, "geometry": { "type": "Point", "coordinates": [ -80.191342800000015, 25.8241012 ] } },
{ "type": "Feature", "properties": { "full_address": "2188 NE 123rd St, North Miami, FL 33181", "restaurants": "Mutra", "description": "A restaurant focused on modern Middle Eastern cooking and locally sourced ingredients.", "new_this_year?": "TRUE", "num_michelin_stars": "1" }, "geometry": { "type": "Point", "coordinates": [ -80.154044399999989, 25.8891789 ] } },
{ "type": "Feature", "properties": { "full_address": "3413 Main Hwy, Miami, FL 33133", "restaurants": "Los Félix", "description": "A Mexican restaurant emphasizing heirloom corn and wood-fired preparations.", "new_this_year?": "FALSE", "num_michelin_stars": "1" }, "geometry": { "type": "Point", "coordinates": [ -80.2425107, 25.7275321 ] } },
{ "type": "Feature", "properties": { "full_address": "151 NE 41st St, Miami, FL 33137", "restaurants": "L’Atelier de Joël Robuchon Miami", "description": "South Florida's only two-star Michelin restaurant serving French fine-dining with tasting menus and classic French cuisine.", "new_this_year?": "FALSE", "num_michelin_stars": "2" }, "geometry": { "type": "Point", "coordinates": [ -80.1922141, 25.8146439 ] } },
{ "type": "Feature", "properties": { "full_address": "3900 NE 2nd Ave, Miami, FL 33137", "restaurants": "Cote Miami", "description": "A Korean steakhouse combining tabletop grilling with dry-aged beef and a full-service dining experience.", "new_this_year?": "FALSE", "num_michelin_stars": "1" }, "geometry": { "type": "Point", "coordinates": [ -80.1914914, 25.8128901 ] } },
{ "type": "Feature", "properties": { "full_address": "151 NE 41st St, Miami, FL 33137", "restaurants": "Le Jardinier Miami", "description": "A French restaurant with a menu built around vegetables, seafood and seasonal ingredients.", "new_this_year?": "FALSE", "num_michelin_stars": "1" }, "geometry": { "type": "Point", "coordinates": [ -80.1922141, 25.8146439 ] } },
{ "type": "Feature", "properties": { "full_address": "101 Washington Ave, Miami Beach, FL 33139", "restaurants": "Stubborn Seed", "description": "A tasting-menu restaurant serving contemporary American cuisine.", "new_this_year?": "FALSE", "num_michelin_stars": "1" }, "geometry": { "type": "Point", "coordinates": [ -80.1354438, 25.770626 ] } },
{ "type": "Feature", "properties": { "full_address": "3540 Main Hwy, Miami, FL 33133", "restaurants": "Ariete", "description": "A restaurant blending Cuban, French and American influences through both tasting and à la carte menus.", "new_this_year?": "FALSE", "num_michelin_stars": "1" }, "geometry": { "type": "Point", "coordinates": [ -80.2450712, 25.7252503 ] } },
{ "type": "Feature", "properties": { "full_address": "313 NW 25th St, Miami, FL 33127", "restaurants": "Hiden", "description": "A hidden omakase restaurant serving a multi-course sushi-focused tasting menu.", "new_this_year?": "FALSE", "num_michelin_stars": "1" }, "geometry": { "type": "Point", "coordinates": [ -80.2013535, 25.8008165 ] } },
{ "type": "Feature", "properties": { "full_address": "7223 NW 2nd Ave, Miami, FL 33150", "restaurants": "Ogawa", "description": "A sushi counter specializing in traditional Edomae-style omakase.", "new_this_year?": "FALSE", "num_michelin_stars": "1" }, "geometry": { "type": "Point", "coordinates": [ -80.2006421, 25.8415286 ] } },
{ "type": "Feature", "properties": { "full_address": "9011 Collins Ave, Surfside, FL 33154", "restaurants": "The Surf Club Restaurant", "description": "A fine-dining restaurant from Thomas Keller focused on Continental and American cuisine.", "new_this_year?": "FALSE", "num_michelin_stars": "1" }, "geometry": { "type": "Point", "coordinates": [ -80.1215331, 25.8774848 ] } }
]
}
