SALE TYPE,SOLD DATE,PROPERTY TYPE,ADDRESS,CITY,STATE OR PROVINCE,ZIP OR POSTAL CODE,PRICE,BEDS,BATHS,LOCATION,SQUARE FEET,LOT SIZE,YEAR BUILT,DAYS ON MARKET,$/SQUARE FEET,HOA/MONTH,STATUS,NEXT OPEN HOUSE START TIME,NEXT OPEN HOUSE END TIME,URL (SEE https://www.redfin.com/buy-a-home/comparative-market-analysis FOR INFO ON PRICING),SOURCE,MLS#,FAVORITE,INTERESTED,LATITUDE,LONGITUDE
PAST SALE,March-17-2022,Single Family Residential,17 Versailles,Newport Coast,CA,92657,2600000,4,3.0,N26 - Newport Coast,2373,4977,1996,,1096,376,Sold,,,https://www.redfin.com/CA/Newport-Coast/17-Versailles-92657/home/4736061,CRMLS,OC22025214,N,Y,33.6132196,-117.8362256
PAST SALE,April-18-2019,Single Family Residential,32 Lyon,Newport Coast,CA,92657,2340000,4,3.0,N26 - Newport Coast,2727,5720,1995,,858,386,Sold,,,https://www.redfin.com/CA/Newport-Coast/32-Lyon-92657/home/4737033,CRMLS,OC19056374,N,Y,33.60631,-117.829752
PAST SALE,June-13-2022,Single Family Residential,19 Observatory,Newport Coast,CA,92657,4900000,5,4.5,N26 - Newport Coast,4160,8536,2004,,1178,485,Sold,,,https://www.redfin.com/CA/Newport-Coast/19-Observatory-92657/home/5928791,CRMLS,OC22132709,N,Y,33.6011923,-117.8067194
PAST SALE,August-7-2023,Single Family Residential,7 Longboat,Newport Coast,CA,92657,5004500,4,4.5,N26 - Newport Coast,3772,11700,1995,,1327,935,Sold,,,https://www.redfin.com/CA/Newport-Beach/7-Longboat-92657/home/4749058,CRMLS,OC23146719,N,Y,33.6008666,-117.8310638
PAST SALE,October-19-2020,Single Family Residential,90 Archipelago Dr,Newport Coast,CA,92657,4000000,4,4.5,CR - Crystal Cove,4000,11305,2005,,1000,700,Sold,,,https://www.redfin.com/CA/Newport-Coast/90-Archipelago-Dr-92657/home/5930323,CRMLS,OC20221343,N,Y,33.5708351,-117.8271668
PAST SALE,,Single Family Residential,10 Timor Sea,Newport Coast,CA,92657,8200000,4,4.5,,5480,21027,2000,,1496,,,,,https://www.redfin.com/CA/Newport-Coast/10-Timor-Sea-92657/home/5767878,,,N,Y,33.578828,-117.8361569
PAST SALE,February-18-2021,Single Family Residential,7 Vincennes,Newport Coast,CA,92657,3365000,4,3.5,N26 - Newport Coast,3655,7198,2001,,921,430,Sold,,,https://www.redfin.com/CA/Newport-Beach/7-Vincennes-92657/home/5766100,CRMLS,OC21024566,N,Y,33.6209744,-117.8400491
PAST SALE,December-15-2020,Single Family Residential,10 Waves End,Newport Coast,CA,92657,14750000,5,5.5,CR - Crystal Cove,8300,22930,2020,,1777,1285,Sold,,,https://www.redfin.com/CA/Newport-Beach/10-Waves-End-92657/home/7202956,CRMLS,OC20210485,N,Y,33.5791392,-117.8257622
PAST SALE,February-14-2022,Single Family Residential,28 Tidal Surf,Newport Coast,CA,92657,4455000,3,3.5,N26 - Newport Coast,2964,4955,1996,,1503,674,Sold,,,https://www.redfin.com/CA/Newport-Beach/28-Tidal-Surf-92657/home/4749296,CRMLS,OC22013869,N,Y,33.5925874,-117.833959
PAST SALE,April-21-2021,Single Family Residential,6 Menton,Newport Coast,CA,92657,2011000,3,2.5,N26 - Newport Coast,2611,3840,1994,,770,380,Sold,,,https://www.redfin.com/CA/Newport-Beach/6-Menton-92657/home/4736797,CRMLS,NP21061637,N,Y,33.6127606,-117.8348742
PAST SALE,,Condo/Co-op,17 Fecamp,Newport Coast,CA,92657,1292000,4,2.5,,1943,,1995,,665,,,,,https://www.redfin.com/CA/Newport-Coast/17-Fecamp-92657/home/5529535,,,N,Y,33.610261,-117.8367076
PAST SALE,June-24-2022,Single Family Residential,4 Jarden,Newport Coast,CA,92657,4020000,6,4.5,N26 - Newport Coast,3882,7508,1999,,1036,455,Sold,,,https://www.redfin.com/CA/Newport-Coast/4-Jarden-92657/home/4737679,CRMLS,NP22139977,N,Y,33.6203922,-117.8374142
PAST SALE,March-6-2019,Single Family Residential,2 Peninsula,Newport Coast,CA,92657,4300000,4,5.0,N26 - Newport Coast,5046,14400,1995,,852,,Sold,,,https://www.redfin.com/CA/Newport-Beach/2-Peninsula-92657/home/4749065,CRMLS,P0-819000321,N,Y,33.5994268,-117.831532
PAST SALE,February-14-2020,Single Family Residential,33 Lyon,Newport Coast,CA,92657,1480000,3,2.5,N26 - Newport Coast,2264,6050,1996,,654,386,Sold,,,https://www.redfin.com/CA/Newport-Coast/33-Lyon-92657/home/4737010,CRMLS,OC20033225,N,Y,33.606577,-117.829342
PAST SALE,,Single Family Residential,35 Vista Luci,Newport Beach,CA,92657,6500000,5,5.5,,4805,11090,2000,,1353,,,,,https://www.redfin.com/CA/Newport-Beach/35-Vista-Luci-92657/home/5767506,,,N,Y,33.5970568,-117.8364048
PAST SALE,January-28-2020,Single Family Residential,37 Del Mar,Newport Coast,CA,92657,25100000,6,9.5,CR - Crystal Cove,15000,31264,2009,,1673,1015,Sold,,,https://www.redfin.com/CA/Newport-Coast/37-Del-Mar-92657/home/5957659,CRMLS,OC20019924,N,Y,33.5768391,-117.831754
PAST SALE,June-7-2021,Single Family Residential,20 Wharfside Dr,Newport Coast,CA,92657,5400000,3,3.5,CR - Crystal Cove,3162,10562,2001,,1708,725,Sold,,,https://www.redfin.com/CA/Newport-Coast/20-Wharfside-Dr-92657/home/5767720,CRMLS,OC21124211,N,Y,33.5727565,-117.8365004
PAST SALE,,Condo/Co-op,150 Lessay,Newport Coast,CA,92657,1240000,3,2.5,,1459,,1993,,850,,,,,https://www.redfin.com/CA/Newport-Coast/150-Lessay-92657/home/5529677,,,N,Y,33.6086926,-117.8367084
PAST SALE,,Single Family Residential,8 Amador,Newport Coast,CA,92657,3475000,4,3.0,,2506,5896,1999,,1387,,,,,https://www.redfin.com/CA/Newport-Coast/8-Amador-92657/home/4749623,,,N,Y,33.6058456,-117.8242052
PAST SALE,September-15-2021,Single Family Residential,1 Greens Blf,Newport Coast,CA,92657,12650000,6,6.0,CR - Crystal Cove,6303,23784,2000,,2007,760,Sold,,,https://www.redfin.com/CA/Newport-Coast/1-Greens-Blf-92657/home/5767905,CRMLS,OC21170185,N,Y,33.5778786,-117.8373246
PAST SALE,,Single Family Residential,32 Baffin Bay,Newport Coast,CA,92657,4800000,5,6.0,,4600,9875,2021,,1043,,,,,https://www.redfin.com/CA/Newport-Coast/32-Baffin-Bay-92657/home/5811524,,,N,Y,33.5729086,-117.8371185
PAST SALE,,Single Family Residential,38 Coral Reef,Newport Coast,CA,92657,2575000,3,3.5,,2964,6156,1997,,869,,,,,https://www.redfin.com/CA/Newport-Coast/38-Coral-Reef-92657/home/4749358,,,N,Y,33.5937975,-117.832631
PAST SALE,October-12-2021,Single Family Residential,3 Sundial,Newport Coast,CA,92657,3455000,4,3.5,N26 - Newport Coast,3631,6439,2005,,952,485,Sold,,,https://www.redfin.com/CA/Newport-Coast/3-Sundial-92657/home/5928645,CRMLS,OC21224208,N,Y,33.5991638,-117.8053082
PAST SALE,June-30-2021,Single Family Residential,9 Ocean Blf,Newport Coast,CA,92657,9350000,5,5.5,CR - Crystal Cove,5732,20229,2003,,1631,760,Sold,,,https://www.redfin.com/CA/Newport-Coast/9-Ocean-Blf-92657/home/5929994,CRMLS,OC21143190,N,Y,33.5741517,-117.831097
PAST SALE,September-14-2020,Single Family Residential,4 Baffin Bay,Newport Coast,CA,92657,3350000,4,3.5,CR - Crystal Cove,3550,6987,2001,,944,700,Sold,,,https://www.redfin.com/CA/Newport-Beach/4-Baffin-Bay-92657/home/5811571,CRMLS,OC20191785,N,Y,33.5750662,-117.8373968
PAST SALE,May-24-2021,Single Family Residential,10 Meridian,Newport Coast,CA,92657,4141000,4,4.5,N26 - Newport Coast,4076,9788,2004,,1016,485,Sold,,,https://www.redfin.com/CA/Newport-Coast/10-Meridian-92657/home/5928824,CRMLS,NP21071624,N,Y,33.6016958,-117.8068119
PAST SALE,,Single Family Residential,11 Oceancrest,Newport Coast,CA,92657,10750000,6,5.5,,5789,14956,1999,,1857,,,,,https://www.redfin.com/CA/Newport-Coast/11-Oceancrest-92657/home/4747467,,,N,Y,33.5968627,-117.8433917
PAST SALE,January-22-2021,Single Family Residential,6 Waterford Way,Newport Coast,CA,92657,2550000,4,3.5,N26 - Newport Coast,2902,8625,1994,,879,266,Sold,,,https://www.redfin.com/CA/Newport-Coast/6-Waterford-Way-92657/home/4735626,CRMLS,NP20264195,N,Y,33.607423,-117.8382633
PAST SALE,,Single Family Residential,21 Coral Cay,Newport Coast,CA,92657,7560000,5,5.5,,4767,16117,2006,,1586,,,,,https://www.redfin.com/CA/Newport-Coast/21-Coral-Cay-92657/home/7202810,,,N,Y,33.5855664,-117.8228772
PAST SALE,February-25-2020,Single Family Residential,12 Seawatch,Newport Coast,CA,92657,5899000,5,5.5,N26 - Newport Coast,5419,12141,2015,,1089,475,Sold,,,https://www.redfin.com/CA/Newport-Coast/12-Seawatch-92657/home/5927636,CRMLS,OC20039490,N,Y,33.5953676,-117.8125159
PAST SALE,July-24-2020,Single Family Residential,51 Pacific Mist,Newport Coast,CA,92657,3800000,3,3.5,N26 - Newport Coast,3866,11984,2006,,983,485,Sold,,,https://www.redfin.com/CA/Newport-Coast/51-Pacific-Mist-92657/home/5927518,CRMLS,OC20147314,N,Y,33.5968199,-117.8082684
PAST SALE,,Single Family Residential,5 Premiere Pt,Newport Beach,CA,92657,8400000,,,,,23762,,,,,,,,https://www.redfin.com/CA/Newport-Beach/5-Premiere-Pt-92657/home/4746870,,,N,Y,33.5991989,-117.8546554
PAST SALE,October-20-2021,Single Family Residential,17 Morning Lgt,Newport Coast,CA,92657,4400000,5,3.5,N26 - Newport Coast,4347,11302,2005,,1012,485,Sold,,,https://www.redfin.com/CA/Newport-Coast/17-Morning-Lgt-92657/home/5927464,CRMLS,OC21232251,N,Y,33.5966295,-117.8106741
PAST SALE,,Single Family Residential,2 Lantana,Newport Coast,CA,92657,3465000,5,6.5,,4600,10692,2004,,753,,,,,https://www.redfin.com/CA/Newport-Coast/2-Lantana-92657/home/5928311,,,N,Y,33.6031236,-117.8085432
PAST SALE,September-15-2023,Single Family Residential,10 Sea Fair,Newport Coast,CA,92657,10000000,4,4.5,CR - Crystal Cove,3988,14156,2017,,2508,835,Sold,,,https://www.redfin.com/CA/Newport-Beach/10-Sea-Fair-92657/home/143911102,CRMLS,OC23173646,N,Y,33.5858218,-117.8208737
PAST SALE,,Condo/Co-op,11 Shore Pne,Newport Coast,CA,92657,3760000,4,4.5,,3849,,1996,,977,,,,,https://www.redfin.com/CA/Newport-Coast/11-Shore-Pne-92657/home/5504172,,,N,Y,33.6027345,-117.8331805
PAST SALE,,Single Family Residential,28 Pelican Point Dr,Newport Beach,CA,92657,7650000,5,5.5,,7135,12020,2006,,1072,,,,,https://www.redfin.com/CA/Newport-Beach/28-Pelican-Point-Dr-92657/home/4749026,,,N,Y,33.5848548,-117.8580206
PAST SALE,August-10-2020,Single Family Residential,8 Seyne,Newport Coast,CA,92657,2350000,4,3.5,N26 - Newport Coast,3435,6098,2001,,684,440,Sold,,,https://www.redfin.com/CA/Newport-Beach/8-Seyne-92657/home/5810158,CRMLS,OC20099062,N,Y,33.6255286,-117.8400491
PAST SALE,April-4-2022,Single Family Residential,3 Shoreline,Newport Coast,CA,92657,7500000,5,5.5,N26 - Newport Coast,4380,10850,1998,,1712,680,Sold,,,https://www.redfin.com/CA/Newport-Beach/3-Shoreline-92657/home/4748981,CRMLS,LG21208144,N,Y,33.5869065,-117.8582037
PAST SALE,November-13-2020,Single Family Residential,6 Morning,Newport Coast,CA,92657,4100000,4,3.5,N26 - Newport Coast,3866,13117,2000,,1061,495,Sold,,,https://www.redfin.com/CA/Newport-Coast/6-Morning-Lgt-92657/home/5927505,CRMLS,OC20239079,N,Y,33.5971243,-117.8093533
PAST SALE,May-5-2022,Single Family Residential,24 Tideline,Newport Coast,CA,92657,9500000,4,4.5,CR - Crystal Cove,3948,6149,2004,,2406,,Sold,,,https://www.redfin.com/CA/Newport-Coast/24-Tideline-Blf-92657/home/5930582,CRMLS,LG22090287,N,Y,33.5719015,-117.8321364
PAST SALE,November-24-2021,Single Family Residential,5 Stargazer,Newport Coast,CA,92657,4150000,4,4.5,N26 - Newport Coast,4076,8330,2006,,1018,485,Sold,,,https://www.redfin.com/CA/Newport-Coast/5-Stargazer-92657/home/5928609,CRMLS,NP21230987,N,Y,33.6001129,-117.8056702
PAST SALE,,Single Family Residential,7 Canyon Rim,Newport Beach,CA,92657,6300000,5,6.5,,7029,20000,2001,,896,,,,,https://www.redfin.com/CA/Newport-Beach/7-Canyon-Rim-92657/home/4746781,,,N,Y,33.6013742,-117.8454751
PAST SALE,September-21-2023,Single Family Residential,24 Venezia,Newport Coast,CA,92657,7100000,4,4.5,N26 - Newport Coast,4022,8751,1999,,1765,830,Sold,,,https://www.redfin.com/CA/Newport-Beach/24-Venezia-92657/home/4749884,CRMLS,NP23094600,N,Y,33.6012563,-117.8114971
PAST SALE,,Single Family Residential,5 Sommet,Newport Beach,CA,92657,2695000,5,3.5,,3318,6607,1999,,812,,,,,https://www.redfin.com/CA/Newport-Beach/5-Sommet-92657/home/4737726,,,N,Y,33.6198761,-117.8380751
PAST SALE,August-5-2020,Single Family Residential,23 Renata,Newport Coast,CA,92657,2400000,4,3.0,N26 - Newport Coast,2784,4652,1999,,862,253,Sold,,,https://www.redfin.com/CA/Newport-Beach/23-Renata-92657/home/4749715,CRMLS,OC20157496,N,Y,33.6077149,-117.8227485
PAST SALE,May-24-2023,Single Family Residential,35 OVERLOOK Dr,Newport Coast,CA,92657,8000000,4,4.5,N26 - Newport Coast,5130,11500,2003,,1559,850,Sold,,,https://www.redfin.com/CA/Newport-Coast/35-Overlook-Dr-92657/home/5811784,CRMLS,NP23086710,N,Y,33.603658,-117.8159622
PAST SALE,June-18-2021,Single Family Residential,5 Coral,Newport Coast,CA,92657,19000000,5,10.0,CR - Crystal Cove,12738,25023,2017,,1492,1325,Sold,,,https://www.redfin.com/CA/Newport-Beach/5-Coral-Rdg-92657/home/7217456,CRMLS,OC21129386,N,Y,33.582162,-117.825368
PAST SALE,December-6-2021,Single Family Residential,10 Shadowcast,Newport Coast,CA,92657,3810000,5,4.5,Newport Coast,4158,9383,2005,,916,485,Sold,,,https://www.redfin.com/CA/Newport-Coast/10-Shadowcast-92657/home/5928453,SDMLS,210030202,N,Y,33.5996627,-117.8092423
PAST SALE,April-15-2019,Single Family Residential,2 Anacapri,Newport Coast,CA,92657,1840000,3,2.5,N26 - Newport Coast,2344,4673,1999,,785,263,Sold,,,https://www.redfin.com/CA/Newport-Beach/2-Anacapri-92657/home/4749650,CRMLS,OC19072978,N,Y,33.60633,-117.8228772
PAST SALE,April-10-2019,Single Family Residential,11 Chatelaine,Newport Coast,CA,92657,1662000,4,2.5,N26 - Newport Coast,2683,4200,1994,,619,346,Sold,,,https://www.redfin.com/CA/Newport-Beach/11-Chatelaine-92657/home/4735388,CRMLS,NP19005581,N,Y,33.6133696,-117.8393556
PAST SALE,November-23-2021,Single Family Residential,10 Observatory,Newport Coast,CA,92657,4698842,5,3.5,N26 - Newport Coast,3337,10791,2005,,1408,485,Sold,,,https://www.redfin.com/CA/Newport-Coast/10-Observatory-92657/home/5928749,CRMLS,NP21220636,N,Y,33.6011722,-117.8055724
PAST SALE,April-15-2022,Single Family Residential,11 Harcourt,Newport Coast,CA,92657,3795000,4,3.5,N26 - Newport Coast,2921,8818,2000,,1299,455,Sold,,,https://www.redfin.com/CA/Newport-Beach/11-Harcourt-92657/home/5766157,CRMLS,OC22047453,N,Y,33.6197746,-117.8402216
PAST SALE,November-18-2021,Single Family Residential,6 Gondoliers Blf,Newport Coast,CA,92657,10574510,5,4.5,CR - Crystal Cove,5650,12000,2004,,1872,615,Sold,,,https://www.redfin.com/CA/Newport-Coast/6-Gondoliers-Blf-92657/home/5930011,CRMLS,OC21232563,N,Y,33.5720714,-117.8270736
PAST SALE,August-3-2021,Single Family Residential,10 Rockshore Blf,Newport Coast,CA,92657,7980000,4,4.5,CR - Crystal Cove,4149,9134,2004,,1923,760,Sold,,,https://www.redfin.com/CA/Newport-Coast/10-Rockshore-Blf-92657/home/5930467,CRMLS,NP21143392,N,Y,33.5727591,-117.8309367
PAST SALE,February-8-2022,Single Family Residential,5 Avalon Vis,Newport Coast,CA,92657,21000000,6,8.0,N26 - Newport Coast,14049,35491,2006,,1495,1091,Sold,,,https://www.redfin.com/CA/Newport-Coast/5-Avalon-Vis-92657/home/4747983,CRMLS,OC22000635,N,Y,33.5882862,-117.8379656
PAST SALE,April-14-2021,Single Family Residential,19 Vincennes,Newport Coast,CA,92657,4150000,4,3.5,N26 - Newport Coast,3787,8335,2000,,1096,440,Sold,,,https://www.redfin.com/CA/Newport-Coast/19-Vincennes-92657/home/5766115,CRMLS,OC21020737,N,Y,33.6206279,-117.8410033
PAST SALE,February-10-2023,Single Family Residential,22 Lemans,Newport Coast,CA,92657,3780000,4,3.0,N26 - Newport Coast,3923,10280,2002,,964,455,Sold,,,https://www.redfin.com/CA/Newport-Beach/22-Lemans-92657/home/5810392,CRMLS,OC23009956,N,Y,33.622638,-117.8400033
PAST SALE,April-29-2020,Single Family Residential,25 Vernon,Newport Coast,CA,92657,2280000,4,3.5,N26 - Newport Coast,2960,7218,1997,,770,440,Sold,,,https://www.redfin.com/CA/Newport-Coast/25-Vernon-92657/home/4737429,CRMLS,ND20051958,N,Y,33.6159987,-117.8367834
PAST SALE,December-1-2021,Single Family Residential,7 Hidden Pass,Newport Coast,CA,92657,3575000,4,3.5,N26 - Newport Coast,2753,8000,2005,,1299,453,Sold,,,https://www.redfin.com/CA/Newport-Coast/7-Hidden-Pass-92657/home/5928440,CRMLS,OC21246582,N,Y,33.5986989,-117.8091396
PAST SALE,August-8-2023,Single Family Residential,12 Morning View Dr,Newport Coast,CA,92657,7900000,4,4.5,N26 - Newport Coast,5917,13000,1998,,1335,885,Sold,,,https://www.redfin.com/CA/Newport-Coast/12-Morning-View-Dr-92657/home/4749194,CRMLS,OC23126717,N,Y,33.5961749,-117.8307307
PAST SALE,November-19-2019,Single Family Residential,22 Shoreridge,Newport Coast,CA,92657,6200000,5,5.5,N26 - Newport Coast,6232,15545,2000,,995,800,Sold,,,https://www.redfin.com/CA/Newport-Beach/22-Shoreridge-92657/home/4747684,CRMLS,NP19261060,N,Y,33.5948875,-117.8366835
PAST SALE,May-23-2022,Single Family Residential,7 Rivage,Newport Coast,CA,92657,4900000,4,3.5,N26 - Newport Coast,3760,6662,2000,,1303,455,Sold,,,https://www.redfin.com/CA/Newport-Coast/7-Rivage-92657/home/4737595,CRMLS,NP22026701,N,Y,33.6181403,-117.8384464
PAST SALE,October-4-2022,Single Family Residential,4 Sidra Cv,Newport Coast,CA,92657,5149988,3,3.5,CR - Crystal Cove,3457,4500,2001,,1490,1070,Sold,,,https://www.redfin.com/CA/Newport-Coast/4-Sidra-Cv-92657/home/5887600,CRMLS,OC22199478,N,Y,33.572807,-117.834305
PAST SALE,March-24-2022,Single Family Residential,1 Marisol,Newport Coast,CA,92657,4200000,4,3.5,N26 - Newport Coast,2911,7977,1998,,1443,415,Sold,,,https://www.redfin.com/CA/Newport-Coast/1-Marisol-92657/home/4749544,CRMLS,NP22034531,N,Y,33.6092866,-117.823152
PAST SALE,July-1-2022,Single Family Residential,4 Sunset,Newport Coast,CA,92657,5000000,4,4.0,N26 - Newport Coast,3864,6090,1996,,1294,866,Sold,,,https://www.redfin.com/CA/Newport-Coast/4-Sunset-Cv-92657/home/4749258,CRMLS,NP22124431,N,Y,33.5948631,-117.8340506
PAST SALE,July-16-2021,Single Family Residential,8 Pinnacle Pt,Newport Coast,CA,92657,6500000,5,5.5,N26 - Newport Coast,5382,15500,1997,,1208,838,Sold,,,https://www.redfin.com/CA/Newport-Beach/8-Pinnacle-Pt-92657/home/4749160,CRMLS,OC21139354,N,Y,33.5972559,-117.8319213
PAST SALE,June-12-2019,Single Family Residential,39 Offshore,Newport Coast,CA,92657,16400000,5,8.0,CR - Crystal Cove,10000,18152,2017,,1640,615,Sold,,,https://www.redfin.com/CA/Newport-Coast/39-Offshore-92657/home/5930812,CRMLS,OC19106598,N,Y,33.5727952,-117.824414
PAST SALE,,Single Family Residential,4 Belfort,Newport Coast,CA,92657,1750000,5,3.5,,3000,5000,1996,,583,,,,,https://www.redfin.com/CA/Newport-Coast/4-Belfort-92657/home/4736739,,,N,Y,33.6120207,-117.8357979
PAST SALE,May-6-2022,Single Family Residential,5 White Pine Dr,Newport Coast,CA,92657,4400000,4,4.5,N26 - Newport Coast,3500,6000,1997,,1257,751,Sold,,,https://www.redfin.com/CA/Newport-Coast/5-White-Pine-Dr-92657/home/5504233,CRMLS,NP22034707,N,Y,33.6046543,-117.8329009
PAST SALE,July-6-2021,Single Family Residential,23 High Water,Newport Coast,CA,92657,17000000,5,7.0,CR - Crystal Cove,9449,24064,2010,,1799,1015,Sold,,,https://www.redfin.com/CA/Newport-Coast/23-High-Water-92657/home/5957708,CRMLS,NP21122247,N,Y,33.5800705,-117.8279831
PAST SALE,August-20-2021,Single Family Residential,19 S Sur,Newport Coast,CA,92657,13550000,6,6.5,CR - Crystal Cove,7028,25082,2016,,1928,700,Sold,,,https://www.redfin.com/CA/Newport-Beach/19-S-Sur-92657/home/12249507,CRMLS,LG21164930,N,Y,33.5856456,-117.8249692
PAST SALE,November-15-2021,Single Family Residential,7 Nerval,Newport Coast,CA,92657,3250000,4,3.0,N26 - Newport Coast,3862,6534,2003,,842,440,Sold,,,https://www.redfin.com/CA/Newport-Coast/7-Nerval-92657/home/5810567,CRMLS,OC21208014,N,Y,33.6241191,-117.842062
PAST SALE,,Single Family Residential,7 Oceancrest,Newport Beach,CA,92657,12240000,4,5.0,,6587,20570,1998,,1858,,,,,https://www.redfin.com/CA/Newport-Beach/7-Oceancrest-92657/home/4747476,,,N,Y,33.5973224,-117.8429109
PAST SALE,,Single Family Residential,12 Nerval,Newport Coast,CA,92657,2799000,4,3.0,,3722,6665,2003,,752,,,,,https://www.redfin.com/CA/Newport-Coast/12-Nerval-92657/home/5810606,,,N,Y,33.6235293,-117.8421992
PAST SALE,October-7-2021,Single Family Residential,32 S Sur,Newport Coast,CA,92657,10887275,5,6.0,CR - Crystal Cove,7334,17007,2018,,1484,760,Sold,,,https://www.redfin.com/CA/Newport-Coast/32-S-Sur-92657/home/7202860,CRMLS,OC21202131,N,Y,33.584546,-117.8245029
PAST SALE,September-29-2020,Single Family Residential,26 Tideline Blf,Newport Coast,CA,92657,4980000,5,5.0,CR - Crystal Cove,3880,6407,2004,,1284,615,Sold,,,https://www.redfin.com/CA/Newport-Coast/26-Tideline-Blf-92657/home/5930579,CRMLS,OC20174648,N,Y,33.5717705,-117.8320323
PAST SALE,October-25-2021,Single Family Residential,28 Bargemon,Newport Coast,CA,92657,3000000,4,3.5,N26 - Newport Coast,3440,5140,2002,,872,440,Sold,,,https://www.redfin.com/CA/Newport-Coast/28-Bargemon-92657/home/5855809,CRMLS,NP21203820,N,Y,33.6246177,-117.8427964
PAST SALE,January-6-2022,Single Family Residential,36 Gondoliers Blf,Newport Coast,CA,92657,9500000,4,4.5,CR - Crystal Cove,5000,15213,2003,,1900,760,Sold,,,https://www.redfin.com/CA/Newport-Beach/36-Gondoliers-Blf-92657/home/5930040,CRMLS,OC21210562,N,Y,33.5700764,-117.824324
PAST SALE,November-8-2018,Single Family Residential,12 Bargemon,Newport Coast,CA,92657,2285000,4,3.5,N26 - Newport Coast,3615,7057,2001,,632,445,Sold,,,https://www.redfin.com/CA/Newport-Coast/12-Bargemon-92657/home/5855727,CRMLS,OC18234367,N,Y,33.6255437,-117.84196
PAST SALE,July-11-2023,Single Family Residential,16 Sail Vis,Newport Coast,CA,92657,12299000,4,4.5,N26 - Newport Coast,5268,11884,2000,,2335,1288,Sold,,,https://www.redfin.com/CA/Newport-Coast/16-Sail-Vis-92657/home/4747902,CRMLS,OC23093015,N,Y,33.5897769,-117.8371414
PAST SALE,July-2-2021,Single Family Residential,8 Surfspray,Newport Coast,CA,92657,6350000,4,4.5,CR - Crystal Cove,4099,8451,2005,,1549,760,Sold,,,https://www.redfin.com/CA/Newport-Beach/8-Surfspray-92657/home/184033232,CRMLS,OC21125838,N,Y,33.573585,-117.832786
PAST SALE,December-15-2020,Single Family Residential,6 Archipelago Dr,Newport Coast,CA,92657,5700000,4,3.5,CR - Crystal Cove,4281,8087,1999,,1331,725,Sold,,,https://www.redfin.com/CA/Newport-Coast/6-Archipelago-Dr-92657/home/5767795,CRMLS,OC20172715,N,Y,33.5761293,-117.8339356
PAST SALE,October-28-2019,Single Family Residential,12 Baffin Bay,Newport Coast,CA,92657,3695000,3,2.5,CR - Crystal Cove,2702,5009,2000,,1368,700,Sold,,,https://www.redfin.com/CA/Newport-Coast/12-Baffin-Bay-92657/home/5811556,CRMLS,OC19216716,N,Y,33.5745181,-117.8373069
PAST SALE,February-22-2021,Single Family Residential,17 Lemans,Newport Coast,CA,92657,4032500,6,5.5,N26 - Newport Coast,4215,9322,2001,,957,440,Sold,,,https://www.redfin.com/CA/Newport-Coast/17-Lemans-92657/home/5810308,CRMLS,OC21009750,N,Y,33.6232742,-117.8403696
PAST SALE,,Single Family Residential,1 Fayence,Newport Coast,CA,92657,2900000,4,3.5,,3435,11151,2001,,844,,,,,https://www.redfin.com/CA/Newport-Coast/1-Fayence-92657/home/5855674,,,N,Y,33.6268093,-117.8436435
PAST SALE,April-10-2023,Single Family Residential,6 Whitesands Dr,Newport Coast,CA,92657,3841500,4,2.5,N26 - Newport Coast,2748,12014,1994,,1398,269,Sold,,,https://www.redfin.com/CA/Newport-Coast/6-Whitesands-Dr-92657/home/4735727,CRMLS,OC22209417,N,Y,33.6092352,-117.838767
PAST SALE,May-26-2023,Single Family Residential,2 Alessandria,Newport Coast,CA,92657,5250000,4,4.5,N26 - Newport Coast,3697,7531,1999,,1420,830,Sold,,,https://www.redfin.com/CA/Newport-Beach/2-Alessandria-92657/home/4749831,CRMLS,NP23063797,N,Y,33.6044538,-117.8129655
PAST SALE,November-30-2021,Single Family Residential,15 Calais,Newport Coast,CA,92657,2400000,4,3.0,N26 - Newport Coast,2718,5250,1994,,883,439,Sold,,,https://www.redfin.com/CA/Newport-Beach/15-Calais-92657/home/4735377,CRMLS,OC21234594,N,Y,33.6129826,-117.8392209
PAST SALE,,Single Family Residential,10 Night Sky,Newport Coast,CA,92657,4710000,4,3.5,,4472,17126,2006,,1053,,,,,https://www.redfin.com/CA/Newport-Coast/10-Night-Sky-92657/home/5928659,,,N,Y,33.596794,-117.8058869
PAST SALE,June-13-2019,Single Family Residential,2 Night Sky,Newport Coast,CA,92657,2999995,4,3.5,N26 - Newport Coast,3123,9460,2006,,961,453,Sold,,,https://www.redfin.com/CA/Newport-Coast/2-Night-Sky-92657/home/5928666,CRMLS,OC19106433,N,Y,33.5975768,-117.8060996
PAST SALE,October-21-2021,Single Family Residential,2 Via Ambra,Newport Coast,CA,92657,6810000,4,4.5,N26 - Newport Coast,3923,11963,1999,,1736,619,Sold,,,https://www.redfin.com/CA/Newport-Coast/2-Via-Ambra-92657/home/4749981,CRMLS,NP21196734,N,Y,33.6020601,-117.8221242
PAST SALE,September-17-2021,Single Family Residential,6 Rockshore,Newport Coast,CA,92657,7800000,4,4.5,CR - Crystal Cove,4150,9000,2004,,1880,760,Sold,,,https://www.redfin.com/CA/Newport-Coast/6-Rockshore-Blf-92657/home/5930473,CRMLS,OC21157490,N,Y,33.5730441,-117.8312573
PAST SALE,March-5-2020,Single Family Residential,8 Almanzora,Newport Coast,CA,92657,3550000,4,4.5,N26 - Newport Coast,3937,8489,1999,,902,589,Sold,,,https://www.redfin.com/CA/Newport-Beach/8-Almanzora-92657/home/4749919,CRMLS,OC20031713,N,Y,33.5990574,-117.8149908
PAST SALE,May-19-2021,Single Family Residential,2 Cavalleri,Newport Coast,CA,92657,2950000,4,2.5,N26 - Newport Coast,2686,5423,1999,,1098,389,Sold,,,https://www.redfin.com/CA/Newport-Coast/2-Cavalleri-92657/home/4749675,CRMLS,NP21084218,N,Y,33.6072805,-117.8213215
PAST SALE,February-27-2023,Single Family Residential,16 Clermont,Newport Coast,CA,92657,2480000,4,3.0,N26 - Newport Coast,2373,4000,1993,,1045,410,Sold,,,https://www.redfin.com/CA/Newport-Coast/16-Clermont-92657/home/4735903,CRMLS,NP23006499,N,Y,33.6133704,-117.8368415
PAST SALE,September-21-2023,Single Family Residential,4821 Cortland Dr,Corona Del Mar,CA,92625,6000000,4,3.0,CS - Corona Del Mar - Spyglass,2753,8400,1964,,2179,175,Sold,,,https://www.redfin.com/CA/Corona-del-Mar/4821-Cortland-Dr-92625/home/4748941,CRMLS,SB23153850,N,Y,33.5886163,-117.8563917
PAST SALE,June-2-2020,Single Family Residential,2 Renata,Newport Coast,CA,92657,2400000,4,3.5,N26 - Newport Coast,3141,7087,1999,,764,389,Sold,,,https://www.redfin.com/CA/Newport-Coast/2-Renata-92657/home/4749702,CRMLS,NP20084397,N,Y,33.6088077,-117.8216408
PAST SALE,December-21-2021,Single Family Residential,5 Via Naples,Newport Coast,CA,92657,8280000,4,4.5,N26 - Newport Coast,5048,11279,2002,,1640,769,Sold,,,https://www.redfin.com/CA/Newport-Beach/5-Via-Naples-92657/home/5767460,CRMLS,LG21253098,N,Y,33.6000228,-117.8377854
PAST SALE,August-9-2021,Single Family Residential,30 Tide Watch,Newport Coast,CA,92657,12000000,5,6.0,CR - Crystal Cove,6204,18072,2020,,1934,760,Sold,,,https://www.redfin.com/CA/Newport-Coast/30-Tide-Watch-92657/home/7202870,CRMLS,OC21148159,N,Y,33.5837596,-117.8227627
PAST SALE,September-29-2020,Single Family Residential,2 Meridian,Newport Coast,CA,92657,3025000,4,3.5,N26 - Newport Coast,3000,8620,2007,,1008,485,Sold,,,https://www.redfin.com/CA/Newport-Coast/2-Meridian-92657/home/5928816,CRMLS,OC20161750,N,Y,33.6021488,-117.8061955
PAST SALE,April-18-2022,Single Family Residential,2 Bargemon,Newport Coast,CA,92657,3100000,3,2.5,N26 - Newport Coast,2994,6970,2002,,1035,440,Sold,,,https://www.redfin.com/CA/Newport-Coast/2-Bargemon-92657/home/5855738,CRMLS,OC22042974,N,Y,33.6260267,-117.841148
PAST SALE,June-9-2021,Single Family Residential,12 Skycrest,Newport Coast,CA,92657,13700000,7,8.5,N26 - Newport Coast,9394,26872,2001,,1458,1137,Sold,,,https://www.redfin.com/CA/Newport-Beach/12-Skycrest-92657/home/4747544,CRMLS,NP21101374,N,Y,33.5950853,-117.8411709
PAST SALE,,Single Family Residential,2 Morning View Dr,Newport Coast,CA,92657,7700000,6,7.0,,6032,16100,1999,,1277,,,,,https://www.redfin.com/CA/Newport-Coast/2-Morning-View-Dr-92657/home/4749170,,,N,Y,33.5975318,-117.8304559
PAST SALE,May-28-2021,Single Family Residential,6 Amador,Newport Coast,CA,92657,2175000,3,2.5,N26 - Newport Coast,2516,5276,1998,,864,396,Sold,,,https://www.redfin.com/CA/Newport-Coast/6-Amador-92657/home/4749624,CRMLS,NP21079330,N,Y,33.6058499,-117.824022
PAST SALE,September-6-2019,Single Family Residential,23 Venezia,Newport Coast,CA,92657,2950000,4,4.5,N26 - Newport Coast,4087,8335,2000,,722,589,Sold,,,https://www.redfin.com/CA/Newport-Coast/23-Venezia-92657/home/4749881,CRMLS,OC19187238,N,Y,33.6017993,-117.8113368
PAST SALE,February-23-2022,Single Family Residential,43 Marisol,Newport Coast,CA,92657,3308888,4,3.0,N26 - Newport Coast,2845,4739,1998,,1163,389,Sold,,,https://www.redfin.com/CA/Newport-Coast/43-Marisol-92657/home/4749594,CRMLS,NP21270258,N,Y,33.6067429,-117.8242596
PAST SALE,July-17-2023,Single Family Residential,18 SCENIC Blf,Newport Coast,CA,92657,10300000,6,7.0,CR - Crystal Cove,5558,15526,2001,,1853,835,Sold,,,https://www.redfin.com/CA/Newport-Coast/18-Scenic-Blf-92657/home/5767867,CRMLS,LG23080817,N,Y,33.5774764,-117.8346687
PAST SALE,September-22-2020,Single Family Residential,1 Sundial,Newport Coast,CA,92657,3968000,4,4.5,N26 - Newport Coast,4365,10694,2006,,909,485,Sold,,,https://www.redfin.com/CA/Newport-Coast/1-Sundial-92657/home/5928642,CRMLS,OC20166992,N,Y,33.5991863,-117.8050854
PAST SALE,July-24-2023,Single Family Residential,8 Telescope,Newport Coast,CA,92657,7700000,5,5.5,N26 - Newport Coast,4853,11900,2000,,1587,885,Sold,,,https://www.redfin.com/CA/Newport-Coast/8-Telescope-92657/home/4749106,CRMLS,OC23101132,N,Y,33.5998871,-117.8297233
PAST SALE,June-17-2022,Single Family Residential,19 Sommet,Newport Coast,CA,92657,3200000,4,3.5,N26 - Newport Coast,2921,7976,1999,,1096,455,Sold,,,https://www.redfin.com/CA/Newport-Coast/19-Sommet-92657/home/4737702,CRMLS,NP22103203,N,Y,33.6190888,-117.8375306
PAST SALE,June-13-2022,Single Family Residential,10 Hidden Pass,Newport Coast,CA,92657,6100000,4,3.5,N26 - Newport Coast,3442,7925,2005,,1772,485,Sold,,,https://www.redfin.com/CA/Newport-Coast/10-Hidden-Pass-92657/home/5928421,CRMLS,OC22075116,N,Y,33.5981958,-117.8095927
PAST SALE,March-20-2023,Single Family Residential,8 Fiore,Newport Coast,CA,92657,3525000,3,2.5,N26 - Newport Coast,2707,7832,1997,,1302,530,Sold,,,https://www.redfin.com/CA/Newport-Coast/8-Fiore-92657/home/4749461,CRMLS,NP23014408,N,Y,33.6082422,-117.817778
PAST SALE,,Single Family Residential,4 Via Diamante,Newport Coast,CA,92657,5200000,4,4.5,,5326,11064,2001,,976,,,,,https://www.redfin.com/CA/Newport-Coast/4-Via-Diamante-92657/home/5856527,,,N,Y,33.6031875,-117.8188299
PAST SALE,February-18-2022,Single Family Residential,6 Water Prt,Newport Coast,CA,92657,8295000,4,4.5,CR - Crystal Cove,3850,12368,2017,,2155,760,Sold,,,https://www.redfin.com/CA/Newport-Coast/6-Water-Prt-92657/home/7215277,CRMLS,NP22013206,N,Y,33.5825805,-117.822298
PAST SALE,,Single Family Residential,41 Lemans,Newport Coast,CA,92657,2968000,5,4.0,,3900,7187,2002,,761,,,,,https://www.redfin.com/CA/Newport-Coast/41-Lemans-92657/home/5810353,,,N,Y,33.6214743,-117.8406443
PAST SALE,September-14-2021,Single Family Residential,1 Coastal Oak,Newport Coast,CA,92657,3700000,4,4.5,N26 - Newport Coast,3858,7142,2004,,959,485,Sold,,,https://www.redfin.com/CA/Newport-Coast/1-Coastal-Oak-92657/home/5928470,CRMLS,OC21180401,N,Y,33.5999169,-117.8083829
PAST SALE,June-22-2022,Single Family Residential,1 S Sur,Newport Coast,CA,92657,16500000,5,5.5,CR - Crystal Cove,6551,20637,2017,,2519,615,Sold,,,https://www.redfin.com/CA/Newport-Coast/1-S-Sur-92657/home/12249513,CRMLS,NP22073537,N,Y,33.5876773,-117.8242281
PAST SALE,September-16-2021,Single Family Residential,5 Avignon,Newport Coast,CA,92657,1975000,3,2.5,N26 - Newport Coast,2190,5000,1994,,902,439,Sold,,,https://www.redfin.com/CA/Newport-Coast/5-Avignon-92657/home/4735329,CRMLS,PW21169616,N,Y,33.6142095,-117.8398609
PAST SALE,July-30-2021,Single Family Residential,9 Avignon,Newport Coast,CA,92657,2025000,3,2.5,N26 - Newport Coast,2324,4725,1993,,871,439,Sold,,,https://www.redfin.com/CA/Newport-Coast/9-Avignon-92657/home/4735337,CRMLS,NP21130895,N,Y,33.6139447,-117.8399623
PAST SALE,March-19-2021,Single Family Residential,429 Isabella Ter,Corona Del Mar,CA,92625,7800000,4,6.0,CS - Corona Del Mar - Spyglass,6887,10686,2019,,1133,9,Sold,,,https://www.redfin.com/CA/Corona-del-Mar/429-Isabella-Ter-92625/home/4730635,CRMLS,NP21020117,N,Y,33.5960695,-117.8619581
PAST SALE,April-30-2021,Single Family Residential,14 Morning Lgt,Newport Coast,CA,92657,4775000,6,6.5,N26 - Newport Coast,5256,8968,2005,,908,485,Sold,,,https://www.redfin.com/CA/Newport-Beach/14-Morning-Lgt-92657/home/5927493,CRMLS,NP21050150,N,Y,33.5965418,-117.8099803
PAST SALE,September-15-2021,Single Family Residential,27 Tide Watch,Newport Coast,CA,92657,12250000,6,6.5,CR - Crystal Cove,6191,22763,2008,,1979,760,Sold,,,https://www.redfin.com/CA/Newport-Coast/27-Tide-Watch-92657/home/7202867,CRMLS,NP21181942,N,Y,33.5840841,-117.8233952
PAST SALE,March-31-2021,Single Family Residential,7 Sailcrest,Newport Coast,CA,92657,15000000,7,7.0,N26 - Newport Coast,9812,18205,2001,,1529,735,Sold,,,https://www.redfin.com/CA/Newport-Beach/7-Sailcrest-92657/home/4747444,CRMLS,NP21042248,N,Y,33.5982625,-117.8434375
PAST SALE,June-18-2021,Single Family Residential,35 Tide Watch,Newport Coast,CA,92657,15400000,6,6.5,CR - Crystal Cove,8134,17499,2008,,1893,760,Sold,,,https://www.redfin.com/CA/Newport-Coast/35-Tide-Watch-92657/home/7202864,CRMLS,OC21085005,N,Y,33.58259190835694,-117.82329862256366
PAST SALE,August-22-2022,Single Family Residential,32 Wharfside Dr,Newport Coast,CA,92657,4680000,4,3.5,CR - Crystal Cove,3103,11572,2000,,1508,760,Sold,,,https://www.redfin.com/CA/Newport-Coast/32-Wharfside-Dr-92657/home/5767700,CRMLS,NDP2205500,N,Y,33.571967,-117.8357677
PAST SALE,January-20-2022,Single Family Residential,24 Sunset Cv,Newport Coast,CA,92657,4000000,4,3.5,N26 - Newport Coast,2772,8757,1998,,1443,770,Sold,,,https://www.redfin.com/CA/Newport-Coast/24-Sunset-Cv-92657/home/4749343,CRMLS,OC22001339,N,Y,33.5945205,-117.8323105
PAST SALE,February-9-2023,Single Family Residential,10 Telescope,Newport Coast,CA,92657,6500000,4,4.5,N26 - Newport Coast,4493,11600,1996,,1447,885,Sold,,,https://www.redfin.com/CA/Newport-Beach/10-Telescope-92657/home/4749105,CRMLS,LG22258186,N,Y,33.5997473,-117.8298835
PAST SALE,August-20-2021,Single Family Residential,2 Rochelle,Newport Coast,CA,92657,3425000,4,3.5,N26 - Newport Coast,4012,7333,2000,,854,440,Sold,,,https://www.redfin.com/CA/Newport-Coast/2-Rochelle-92657/home/4737662,CRMLS,NP21093656,N,Y,33.6212677,-117.8373206
PAST SALE,June-18-2021,Single Family Residential,20 Whalers Blf,Newport Coast,CA,92657,8800000,4,5.0,CR - Crystal Cove,5466,16432,2004,,1610,760,Sold,,,https://www.redfin.com/CA/Newport-Coast/20-Whalers-Blf-92657/home/5930156,CRMLS,OC21100754,N,Y,33.5713672,-117.8233122
PAST SALE,July-8-2019,Single Family Residential,10 Catania,Newport Coast,CA,92657,3600000,4,4.5,N26 - Newport Coast,3928,8083,2000,,916,582,Sold,,,https://www.redfin.com/CA/Newport-Beach/10-Catania-92657/home/4749850,CRMLS,NP19115788,N,Y,33.6030668,-117.8127565
PAST SALE,,Single Family Residential,17 High Water,Newport Coast,CA,92657,19952000,6,8.0,,12352,20537,2016,,1615,,,,,https://www.redfin.com/CA/Newport-Coast/17-High-Water-92657/home/5957847,,,N,Y,33.5813301,-117.8284411
PAST SALE,September-24-2021,Single Family Residential,7 Montreaux,Newport Coast,CA,92657,2395000,5,3.0,N26 - Newport Coast,2719,5040,1994,,881,285,Sold,,,https://www.redfin.com/CA/Newport-Beach/7-Montreaux-92657/home/4735761,CRMLS,OC21178371,N,Y,33.6116442,-117.8383091
PAST SALE,March-2-2021,Single Family Residential,20 Dunes Blf,Newport Coast,CA,92657,5400000,4,4.5,CR - Crystal Cove,3000,9833,2004,,1800,725,Sold,,,https://www.redfin.com/CA/Newport-Coast/20-Dunes-Blf-92657/home/5930304,CRMLS,NP21008276,N,Y,33.5706318,-117.8289887
PAST SALE,December-26-2019,Single Family Residential,8 Tuscan Blue,Newport Coast,CA,92657,2300000,4,3.5,N26 - Newport Coast,2812,6608,2005,,818,525,Sold,,,https://www.redfin.com/CA/Newport-Coast/8-Tuscan-Blue-92657/home/5929071,CRMLS,NP19267729,N,Y,33.6053857,-117.8064748
PAST SALE,September-29-2021,Single Family Residential,43 Harcourt,Newport Coast,CA,92657,3570000,5,4.5,N26 - Newport Coast,3800,9700,2001,,939,440,Sold,,,https://www.redfin.com/CA/Newport-Coast/43-Harcourt-92657/home/5766190,CRMLS,OC21194346,N,Y,33.6187528,-117.8387581
PAST SALE,January-7-2022,Single Family Residential,9 Skycrest,Newport Coast,CA,92657,9350000,5,6.5,N26 - Newport Coast,6802,24976,2001,,1375,1079,Sold,,,https://www.redfin.com/CA/Newport-Coast/9-Skycrest-92657/home/4747530,CRMLS,OC21260408,N,Y,33.5958418,-117.840713
PAST SALE,March-31-2023,Single Family Residential,15 Hertford,Newport Coast,CA,92657,2645000,5,2.5,N26 - Newport Coast,2550,3951,1996,,1037,410,Sold,,,https://www.redfin.com/CA/Newport-Beach/15-Hertford-92657/home/4736874,CRMLS,NP23018271,N,Y,33.6115363,-117.8347766
PAST SALE,June-2-2021,Single Family Residential,5 Longboat,Newport Coast,CA,92657,4600000,4,4.5,N26 - Newport Coast,4486,9600,1994,,1025,450,Sold,,,https://www.redfin.com/CA/Newport-Beach/5-Longboat-92657/home/4749057,CRMLS,PW21039621,N,Y,33.601107,-117.8310054
PAST SALE,July-22-2020,Single Family Residential,5 Bridgeport Rd,Newport Coast,CA,92657,2500000,5,5.5,N26 - Newport Coast,3584,10500,1994,,698,175,Sold,,,https://www.redfin.com/CA/Newport-Coast/5-Bridgeport-Rd-92657/home/4735646,CRMLS,NP20102463,N,Y,33.6089471,-117.8382345
PAST SALE,March-24-2021,Single Family Residential,24 Trouville,Newport Coast,CA,92657,1599000,3,2.5,N26 - Newport Coast,1912,3750,1994,,836,375,Sold,,,https://www.redfin.com/CA/Newport-Coast/24-Trouville-92657/home/4735863,CRMLS,RS21034490,N,Y,33.6121203,-117.8372125
PAST SALE,April-6-2021,Single Family Residential,10 Cavaillon,Newport Coast,CA,92657,2535000,5,3.5,N26 - Newport Coast,3493,6403,2002,,726,440,Sold,,,https://www.redfin.com/CA/Newport-Coast/10-Cavaillon-92657/home/5855777,CRMLS,NP21004613,N,Y,33.6254786,-117.8428193
PAST SALE,April-8-2022,Single Family Residential,31 Vista Luci,Newport Coast,CA,92657,7680000,5,5.5,N26 - Newport Coast,4709,13058,1999,,1631,735,Sold,,,https://www.redfin.com/CA/Newport-Beach/31-Vista-Luci-92657/home/5767498,CRMLS,OC22026785,N,Y,33.597455,-117.8361993
PAST SALE,March-24-2022,Single Family Residential,9 Rochelle,Newport Coast,CA,92657,3650000,4,3.5,N26 - Newport Coast,3318,6508,2000,,1100,440,Sold,,,https://www.redfin.com/CA/Newport-Coast/9-Rochelle-92657/home/4737787,CRMLS,PW22036137,N,Y,33.6215619,-117.8380293
PAST SALE,October-13-2021,Single Family Residential,20 Archipelago Dr,Newport Coast,CA,92657,7695000,5,5.5,CR - Crystal Cove,4905,11378,2002,,1569,760,Sold,,,https://www.redfin.com/CA/Newport-Coast/20-Archipelago-Dr-92657/home/5767820,CRMLS,OC21142683,N,Y,33.5748044,-117.8333866
PAST SALE,July-6-2023,Single Family Residential,9 Saint Laurent,Newport Coast,CA,92657,2800000,4,3.0,N26 - Newport Coast,2727,3990,1995,,1027,410,Sold,,,https://www.redfin.com/CA/Newport-Coast/9-Saint-Laurent-92657/home/4737243,CRMLS,NP23093544,N,Y,33.6073579,-117.8306139
PAST SALE,February-16-2021,Single Family Residential,6 Trouville,Newport Coast,CA,92657,1745000,4,2.5,N26 - Newport Coast,2303,4000,1996,,758,375,Sold,,,https://www.redfin.com/CA/Newport-Beach/6-Trouville-92657/home/4735829,CRMLS,NP21005929,N,Y,33.6131167,-117.8373933
PAST SALE,September-27-2019,Single Family Residential,25 Fayence,Newport Coast,CA,92657,2500000,4,3.5,N26 - Newport Coast,3435,9017,2001,,728,440,Sold,,,https://www.redfin.com/CA/Newport-Beach/25-Fayence-92657/home/5855640,CRMLS,NP19187261,N,Y,33.6264939,-117.8416288
PAST SALE,May-7-2021,Single Family Residential,24 Andiamo,Newport Coast,CA,92657,2500000,5,3.0,N26 - Newport Coast,3200,6515,1998,,781,513,Sold,,,https://www.redfin.com/CA/Newport-Coast/24-Andiamo-92657/home/4749444,CRMLS,NP21038728,N,Y,33.6077341,-117.8192595
PAST SALE,May-7-2021,Single Family Residential,53 Renata,Newport Coast,CA,92657,1950000,4,3.0,N26 - Newport Coast,2844,4132,1999,,686,389,Sold,,,https://www.redfin.com/CA/Newport-Coast/53-Renata-92657/home/4749628,CRMLS,OC21061203,N,Y,33.6057528,-117.8234267
PAST SALE,May-12-2022,Single Family Residential,3 Serenity,Newport Coast,CA,92657,3715000,4,2.5,N26 - Newport Coast,2812,6700,2005,,1321,606,Sold,,,https://www.redfin.com/CA/Newport-Coast/3-Serenity-92657/home/5928987,CRMLS,OC22050617,N,Y,33.6044737,-117.808131
PAST SALE,July-26-2023,Single Family Residential,6 Clearview,Newport Coast,CA,92657,7880000,4,4.5,N26 - Newport Coast,5020,17206,1994,,1570,885,Sold,,,https://www.redfin.com/CA/Newport-Beach/6-Clearview-92657/home/4749076,CRMLS,NP23101990,N,Y,33.6002789,-117.8286929
PAST SALE,July-6-2021,Single Family Residential,15 Morning Lgt,Newport Coast,CA,92657,4930000,6,7.0,N26 - Newport Coast,5297,11361,2005,,931,485,Sold,,,https://www.redfin.com/CA/Newport-Coast/15-Morning-Lgt-92657/home/5927461,CRMLS,OC21083097,N,Y,33.5967696,-117.8105174
PAST SALE,October-8-2020,Single Family Residential,6 Fair Hbr,Newport Coast,CA,92657,10300000,5,6.0,N26 - Newport Coast,8877,24200,2000,,1160,926,Sold,,,https://www.redfin.com/CA/Newport-Coast/6-Fair-Hbr-92657/home/4746904,CRMLS,OC20179346,N,Y,33.598314,-117.8487718
PAST SALE,,Single Family Residential,8 Sunset Hbr,Newport Coast,CA,92657,11440000,4,4.5,,8325,18900,1995,,1374,,,,,https://www.redfin.com/CA/Newport-Coast/8-Sunset-Hbr-92657/home/4746897,,,N,Y,33.5977514,-117.8504201
PAST SALE,July-21-2023,Single Family Residential,1 Vincennes,Newport Coast,CA,92657,5300000,4,3.5,N26 - Newport Coast,3286,7233,2000,,1613,440,Sold,,,https://www.redfin.com/CA/Newport-Coast/1-Vincennes-92657/home/5766090,CRMLS,NP23111163,N,Y,33.6211663,-117.8394542
PAST SALE,September-29-2022,Single Family Residential,22 Midsummer,Newport Coast,CA,92657,28825000,5,9.0,CR - Crystal Cove,11613,18118,2022,,2482,1320,Sold,,,https://www.redfin.com/CA/Newport-Beach/22-Midsummer-92657/home/7202974,CRMLS,OC22160783,N,Y,33.5804407,-117.8264517
PAST SALE,,Single Family Residential,11 Hidden Pass,Newport Coast,CA,92657,6750000,4,4.5,,5085,9193,2005,,1327,,,,,https://www.redfin.com/CA/Newport-Coast/11-Hidden-Pass-92657/home/5928430,,,N,Y,33.5983581,-117.8089895
PAST SALE,July-20-2021,Single Family Residential,6 Windemere Ct,Newport Coast,CA,92657,7150000,5,4.5,N26 - Newport Coast,5364,15600,1997,,1333,863,Sold,,,https://www.redfin.com/CA/Newport-Coast/6-Windemere-Ct-92657/home/4749187,CRMLS,NP21133826,N,Y,33.5960773,-117.8314633
PAST SALE,November-3-2018,Single Family Residential,29 Clermont,Newport Coast,CA,92657,1775000,4,3.0,N26 - Newport Coast,2466,4428,1995,,720,357,Sold,,,https://www.redfin.com/CA/Newport-Beach/29-Clermont-92657/home/4736042,CRMLS,NP18241339,N,Y,33.6138181,-117.8358364
PAST SALE,March-21-2023,Single Family Residential,10 Dolomiti,Newport Coast,CA,92657,6400000,5,5.0,N26 - Newport Coast,5036,11960,1999,,1271,830,Sold,,,https://www.redfin.com/CA/Newport-Beach/10-Dolomiti-92657/home/4749901,CRMLS,OC22251239,N,Y,33.6007971,-117.8130542
PAST SALE,June-30-2022,Single Family Residential,4 Grenelle,Newport Coast,CA,92657,2900000,4,3.0,N26 - Newport Coast,2932,4500,1994,,989,401,Sold,,,https://www.redfin.com/CA/Newport-Coast/4-Grenelle-92657/home/4736098,CRMLS,NP22091464,N,Y,33.6126751,-117.8357341
PAST SALE,August-22-2019,Single Family Residential,33 Canyon Ter,Newport Coast,CA,92657,7350000,5,6.5,N26 - Newport Coast,10000,40892,1999,,735,819,Sold,,,https://www.redfin.com/CA/Newport-Beach/33-Canyon-Ter-92657/home/4746825,CRMLS,NP19163367,N,Y,33.602098,-117.8481308
PAST SALE,June-7-2021,Single Family Residential,20 Avignon,Newport Coast,CA,92657,2100000,4,3.0,N26 - Newport Coast,2718,5250,1994,,773,423,Sold,,,https://www.redfin.com/CA/Newport-Coast/20-Avignon-92657/home/4735362,CRMLS,OC21093155,N,Y,33.6132081,-117.8395098
PAST SALE,June-7-2023,Single Family Residential,6 COASTAL CANYON Dr,Newport Coast,CA,92657,6088800,5,4.5,N26 - Newport Coast,5000,9100,2000,,1218,780,Sold,,,https://www.redfin.com/CA/Newport-Beach/6-Coastal-Canyon-Dr-92657/home/4749899,CRMLS,NP23037829,N,Y,33.6008217,-117.8122069
PAST SALE,April-1-2022,Single Family Residential,11 Scotia Sea,Newport Coast,CA,92657,10495000,5,4.5,CR - Crystal Cove,5000,11263,2000,,2099,760,Sold,,,https://www.redfin.com/CA/Newport-Coast/11-Scotia-Sea-92657/home/5767789,CRMLS,OC22017035,N,Y,33.5751261,-117.8360425
PAST SALE,April-6-2021,Single Family Residential,9 Ronsard,Newport Coast,CA,92657,3290000,5,5.5,N26 - Newport Coast,4414,11426,2002,,745,430,Sold,,,https://www.redfin.com/CA/Newport-Coast/9-Ronsard-92657/home/5810473,CRMLS,OC21047000,N,Y,33.6230917,-117.8391333
PAST SALE,May-3-2023,Single Family Residential,7 Bridgeport Rd,Newport Coast,CA,92657,3220000,4,3.0,N26 - Newport Coast,2666,6825,1994,,1208,266,Sold,,,https://www.redfin.com/CA/Newport-Beach/7-Bridgeport-Rd-92657/home/4735648,CRMLS,NP23044751,N,Y,33.6088662,-117.8384949
PAST SALE,May-3-2022,Single Family Residential,11 Coral Rdg,Newport Coast,CA,92657,18480000,6,8.0,CR - Crystal Cove,9906,27983,2021,,1866,1320,Sold,,,https://www.redfin.com/CA/Newport-Beach/11-Coral-Rdg-92657/home/7215292,CRMLS,OC22026850,N,Y,33.5814761,-117.8248771
PAST SALE,August-27-2019,Single Family Residential,9 Coastal Oak,Newport Coast,CA,92657,3150000,4,4.5,N26 - Newport Coast,3858,10342,2005,,816,425,Sold,,,https://www.redfin.com/CA/Newport-Coast/9-Coastal-Oak-92657/home/5928485,CRMLS,OC19175421,N,Y,33.5995889,-117.8077417
PAST SALE,May-14-2021,Single Family Residential,34 Pelican Crest Dr,Newport Coast,CA,92657,19000000,6,8.0,N26 - Newport Coast,12525,19936,2003,,1517,875,Sold,,,https://www.redfin.com/CA/Newport-Coast/34-Pelican-Crest-Dr-92657/home/4747347,CRMLS,NP21001200,N,Y,33.5944336,-117.8431856
PAST SALE,February-28-2020,Single Family Residential,3 Currents,Newport Coast,CA,92657,12000000,5,6.5,CR - Crystal Cove,8096,22578,2007,,1482,615,Sold,,,https://www.redfin.com/CA/Newport-Coast/3-Currents-92657/home/5930696,CRMLS,NP20016061,N,Y,33.5766718,-117.8293569
PAST SALE,March-29-2021,Single Family Residential,22 Menton,Newport Coast,CA,92657,1999500,4,2.5,N26 - Newport Coast,2635,4800,1996,,759,379,Sold,,,https://www.redfin.com/CA/Newport-Coast/22-Menton-92657/home/4736760,CRMLS,NP21031153,N,Y,33.6116531,-117.8351412
PAST SALE,December-22-2022,Single Family Residential,33 Sea Ter,Newport Coast,CA,92657,3175000,5,3.0,N26 - Newport Coast,3400,7853,1994,,934,390,Sold,,,https://www.redfin.com/CA/Newport-Coast/33-Sea-Ter-92657/home/4735134,CRMLS,PW22233482,N,Y,33.6097824,-117.8393141
PAST SALE,January-15-2021,Single Family Residential,134 White Flower,Irvine,CA,92603,820000,3,2.5,TRG - Turtle Ridge,1244,2500,2004,,659,205,Sold,,,https://www.redfin.com/CA/Irvine/134-White-Flower-92603/home/5978196,CRMLS,PW20192777,N,Y,33.6211228,-117.8215148
PAST SALE,May-31-2019,Single Family Residential,41 Avignon,Newport Coast,CA,92657,1980000,4,3.0,N26 - Newport Coast,2718,5600,1993,,728,346,Sold,,,https://www.redfin.com/CA/Newport-Beach/41-Avignon-92657/home/4735227,CRMLS,NP19066035,N,Y,33.6121751,-117.8405986
PAST SALE,November-12-2019,Single Family Residential,3 Fayence,Newport Coast,CA,92657,2025000,4,3.0,N26 - Newport Coast,3324,6708,2001,,609,440,Sold,,,https://www.redfin.com/CA/Newport-Coast/3-Fayence-92657/home/5855671,CRMLS,NP19237325,N,Y,33.6269136,-117.8434841
PAST SALE,August-27-2019,Single Family Residential,30 Wharfside Dr,Newport Coast,CA,92657,3500000,4,3.5,CR - Crystal Cove,3152,9364,2001,,1110,615,Sold,,,https://www.redfin.com/CA/Newport-Beach/30-Wharfside-Dr-92657/home/5767702,CRMLS,SB19113578,N,Y,33.5720031,-117.8359509
PAST SALE,November-9-2022,Single Family Residential,7 Limoges,Newport Coast,CA,92657,2099000,3,2.5,N26 - Newport Coast,1912,3750,1993,,1098,340,Sold,,,https://www.redfin.com/CA/Newport-Coast/7-Limoges-92657/home/4735798,CRMLS,NP22207072,N,Y,33.6121337,-117.8376705
PAST SALE,April-10-2023,Single Family Residential,29 Lyon,Newport Coast,CA,92657,2750000,5,3.0,N26 - Newport Coast,3158,4805,1996,,871,305,Sold,,,https://www.redfin.com/CA/Newport-Coast/29-Lyon-92657/home/4736998,CRMLS,OC23032708,N,Y,33.6067749,-117.8295587
PAST SALE,October-27-2021,Single Family Residential,84 Archipelago Dr,Newport Coast,CA,92657,8800000,5,4.5,CR - Crystal Cove,4324,15654,2004,,2035,760,Sold,,,https://www.redfin.com/CA/Newport-Coast/84-Archipelago-Dr-92657/home/5856615,CRMLS,OC21202364,N,Y,33.5713911,-117.8275252
PAST SALE,February-21-2023,Single Family Residential,8 Rivage,Newport Coast,CA,92657,5000000,6,5.5,N26 - Newport Coast,4594,6466,2001,,1088,455,Sold,,,https://www.redfin.com/CA/Newport-Coast/8-Rivage-92657/home/4737606,CRMLS,OC23010261,N,Y,33.617776,-117.8381197
PAST SALE,May-31-2022,Single Family Residential,8 Swimmers Pt,Newport Coast,CA,92657,16800000,3,5.5,CR - Crystal Cove,6050,19977,2019,,2777,760,Sold,,,https://www.redfin.com/CA/Newport-Beach/8-Swimmers-Pt-92657/home/7202884,CRMLS,NP22066211,N,Y,33.5810321,-117.823037
PAST SALE,August-6-2021,Single Family Residential,36 Tidal Surf,Newport Coast,CA,92657,3276000,3,3.5,N26 - Newport Coast,2964,5298,1996,,1105,816,Sold,,,https://www.redfin.com/CA/Newport-Coast/36-Tidal-Surf-92657/home/4749293,CRMLS,OC21134480,N,Y,33.5926619,-117.8335698
PAST SALE,August-29-2023,Single Family Residential,24 Avignon,Newport Coast,CA,92657,2800000,4,3.0,N26 - Newport Coast,2718,4500,1996,,1030,445,Sold,,,https://www.redfin.com/CA/Newport-Coast/24-Avignon-92657/home/4735367,CRMLS,NP23123078,N,Y,33.6130163,-117.8396861
PAST SALE,August-18-2020,Single Family Residential,8 Sunset Cv,Newport Coast,CA,92657,2885000,3,3.5,N26 - Newport Coast,2964,5757,1997,,973,764,Sold,,,https://www.redfin.com/CA/Newport-Coast/8-Sunset-Cv-92657/home/4749256,CRMLS,NP20138765,N,Y,33.5945851,-117.8338674
PAST SALE,May-6-2021,Single Family Residential,5 Wayside,Newport Coast,CA,92657,3304000,3,3.5,N26 - Newport Coast,3442,7399,2006,,960,485,Sold,,,https://www.redfin.com/CA/Newport-Coast/5-Wayside-92657/home/5928301,CRMLS,OC21049412,N,Y,33.6025597,-117.8084808
PAST SALE,January-6-2021,Single Family Residential,5 Giverny,Newport Coast,CA,92657,1780000,4,3.0,N26 - Newport Coast,2718,4000,1994,,655,426,Sold,,,https://www.redfin.com/CA/Newport-Coast/5-Giverny-92657/home/4735312,CRMLS,NP20239385,N,Y,33.611956,-117.8398596
PAST SALE,May-20-2021,Single Family Residential,14 Sandy Cv,Newport Coast,CA,92657,8700000,5,7.5,CR - Crystal Cove,4722,9151,2019,,1842,700,Sold,,,https://www.redfin.com/CA/Newport-Coast/14-Sandy-Cv-92657/home/5811422,CRMLS,LG21072513,N,Y,33.576095,-117.8386131
PAST SALE,September-30-2021,Single Family Residential,6 Ferrand,Newport Coast,CA,92657,3108800,4,3.0,N26 - Newport Coast,3823,7231,2002,,813,440,Sold,,,https://www.redfin.com/CA/Newport-Coast/6-Ferrand-92657/home/5810512,CRMLS,NP21188122,N,Y,33.6239466,-117.838767
PAST SALE,May-19-2023,Single Family Residential,5 Sundial,Newport Coast,CA,92657,5280000,4,4.5,N26 - Newport Coast,3912,7932,2005,,1350,485,Sold,,,https://www.redfin.com/CA/Newport-Coast/5-Sundial-92657/home/5928648,CRMLS,OC23055386,N,Y,33.5990196,-117.8054679
PAST SALE,June-14-2021,Single Family Residential,29 Faenza,Newport Coast,CA,92657,4250000,4,4.5,N26 - Newport Coast,4000,9661,2001,,1063,675,Sold,,,https://www.redfin.com/CA/Newport-Coast/29-Faenza-92657/home/4749922,CRMLS,NP21081420,N,Y,33.5985105,-117.815142
PAST SALE,August-4-2023,Single Family Residential,52 Avignon,Newport Coast,CA,92657,2650000,3,2.5,N26 - Newport Coast,2455,5750,1994,,1079,445,Sold,,,https://www.redfin.com/CA/Newport-Coast/52-Avignon-92657/home/4735248,CRMLS,OC23108989,N,Y,33.6114733,-117.8401792
PAST SALE,October-18-2021,Single Family Residential,21 Observatory,Newport Coast,CA,92657,3737500,4,3.5,N26 - Newport Coast,3631,6418,2004,,1029,485,Sold,,,https://www.redfin.com/CA/Newport-Coast/21-Observatory-92657/home/5928787,CRMLS,OC21191314,N,Y,33.6011415,-117.8068885
PAST SALE,August-28-2020,Single Family Residential,23 Sea View Ln,Newport Coast,CA,92657,3175000,3,3.5,N26 - Newport Coast,2996,9322,1997,,1060,765,Sold,,,https://www.redfin.com/CA/Newport-Coast/23-Sea-View-Ln-92657/home/4749325,CRMLS,OC20147456,N,Y,33.5937328,-117.8310741
PAST SALE,December-31-2018,Single Family Residential,3 Seyne,Newport Coast,CA,92657,3120000,4,3.5,N26 - Newport Coast,3534,7579,2001,,883,430,Sold,,,https://www.redfin.com/CA/Newport-Beach/3-Seyne-92657/home/5810078,CRMLS,NP18266211,N,Y,33.6260652,-117.8403851
PAST SALE,August-10-2023,Single Family Residential,1 Via Palladio,Newport Coast,CA,92657,7650000,5,5.5,N26 - Newport Coast,4805,11749,2000,,1592,875,Sold,,,https://www.redfin.com/CA/Newport-Coast/1-Via-Palladio-92657/home/5757496,CRMLS,TR23090306,N,Y,33.5979633,-117.8369376
PAST SALE,February-17-2023,Single Family Residential,1 Monterey Pine Dr,Newport Coast,CA,92657,4750000,4,4.5,N26 - Newport Coast,3649,9000,1995,,1302,699,Sold,,,https://www.redfin.com/CA/Newport-Coast/1-Monterey-Pine-Dr-92657/home/5503994,CRMLS,WS23006076,N,Y,33.6044337,-117.829153
PAST SALE,October-22-2021,Single Family Residential,24 Fayence,Newport Coast,CA,92657,3180000,4,3.5,N26 - Newport Coast,3264,9888,2001,,974,420,Sold,,,https://www.redfin.com/CA/Newport-Coast/24-Fayence-92657/home/5855704,CRMLS,OC21201588,N,Y,33.6261629,-117.8419951
PAST SALE,July-10-2023,Single Family Residential,18 Calais,Newport Coast,CA,92657,2891000,4,3.0,N26 - Newport Coast,2718,6316,1994,,1064,445,Sold,,,https://www.redfin.com/CA/Newport-Coast/18-Calais-92657/home/4735281,CRMLS,PW23057113,N,Y,33.6125944,-117.8390417
PAST SALE,December-24-2018,Single Family Residential,8 Wharfside Dr,Newport Coast,CA,92657,4625000,4,5.5,CR - Crystal Cove,3856,6439,2000,,1199,615,Sold,,,https://www.redfin.com/CA/Newport-Beach/8-Wharfside-Dr-92657/home/5767740,CRMLS,OC18273407,N,Y,33.5737381,-117.8367751
PAST SALE,June-28-2021,Single Family Residential,4 Vincennes,Newport Coast,CA,92657,2888888,4,3.5,N26 - Newport Coast,3787,6559,2000,,763,415,Sold,,,https://www.redfin.com/CA/Newport-Coast/4-Vincennes-92657/home/5766138,CRMLS,NP21092849,N,Y,33.6206426,-117.8395912
PAST SALE,April-10-2023,Single Family Residential,5 Eucalyptus,Newport Coast,CA,92657,3530000,3,3.5,N26 - Newport Coast,2718,4237,2004,,1299,606,Sold,,,https://www.redfin.com/CA/Newport-Beach/5-Eucalyptus-92657/home/5929024,CRMLS,OC22241469,N,Y,33.6055219,-117.808131
PAST SALE,January-5-2022,Single Family Residential,17 Telescope,Newport Coast,CA,92657,11000000,5,5.5,N26 - Newport Coast,5916,11200,1995,,1859,838,Sold,,,https://www.redfin.com/CA/Newport-Coast/17-Telescope-92657/home/4749100,CRMLS,OC21226210,N,Y,33.5999422,-117.8308223
PAST SALE,January-31-2022,Single Family Residential,12 Fayence,Newport Coast,CA,92657,3650000,5,4.5,N26 - Newport Coast,3631,6182,2002,,1005,420,Sold,,,https://www.redfin.com/CA/Newport-Coast/12-Fayence-92657/home/5855696,CRMLS,OC21261898,N,Y,33.62627,-117.8427964
PAST SALE,July-1-2021,Single Family Residential,24 Coral Reef,Newport Coast,CA,92657,2800000,4,3.5,N26 - Newport Coast,2772,5724,1997,,1010,816,Sold,,,https://www.redfin.com/CA/Newport-Coast/24-Coral-Reef-92657/home/4749248,CRMLS,NP21098356,N,Y,33.5941048,-117.8339361
PAST SALE,November-23-2021,Single Family Residential,7 Vista Lesina,Newport Coast,CA,92657,7010000,5,5.5,N26 - Newport Coast,5048,11421,2001,,1389,750,Sold,,,https://www.redfin.com/CA/Newport-Coast/7-Vista-Lesina-92657/home/5767379,CRMLS,NP21229787,N,Y,33.6006326,-117.8360196
PAST SALE,September-5-2023,Single Family Residential,22 Baffin Bay,Newport Coast,CA,92657,9600000,4,4.5,CR - Crystal Cove,4122,7048,2000,,2329,835,Sold,,,https://www.redfin.com/CA/Newport-Coast/22-Baffin-Bay-92657/home/5811537,CRMLS,NP23135105,N,Y,33.5735635,-117.8375055
PAST SALE,May-19-2022,Single Family Residential,4 Tasman Sea,Newport Coast,CA,92657,9150000,4,4.5,CR - Crystal Cove,3960,10193,2001,,2311,760,Sold,,,https://www.redfin.com/CA/Newport-Coast/4-Tasman-Sea-92657/home/5856446,CRMLS,OC22041189,N,Y,33.5761895,-117.8347374
PAST SALE,July-24-2023,Single Family Residential,4 Telescope,Newport Coast,CA,92657,6550000,5,4.5,N26 - Newport Coast,4177,12000,1998,,1568,,Sold,,,https://www.redfin.com/CA/Newport-Beach/4-Telescope-92657/home/4749108,CRMLS,OC23075584,N,Y,33.6003648,-117.829334
PAST SALE,July-10-2020,Single Family Residential,4 Alessandria,Newport Coast,CA,92657,4180000,5,4.5,N26 - Newport Coast,4200,7524,2001,,995,575,Sold,,,https://www.redfin.com/CA/Newport-Beach/4-Alessandria-92657/home/4749832,CRMLS,OC20099229,N,Y,33.6043328,-117.8127846
PAST SALE,September-7-2021,Single Family Residential,1 Ocean Blf,Newport Coast,CA,92657,8175000,4,4.5,CR - Crystal Cove,5045,14781,2005,,1620,760,Sold,,,https://www.redfin.com/CA/Newport-Coast/1-Ocean-Blf-92657/home/5930002,CRMLS,NP21137237,N,Y,33.5749582,-117.831097
PAST SALE,March-13-2020,Single Family Residential,22 Ferrand,Newport Coast,CA,92657,2400000,4,5.0,N26 - Newport Coast,4156,8407,2001,,577,430,Sold,,,https://www.redfin.com/CA/Newport-Coast/22-Ferrand-92657/home/5810493,CRMLS,NP20025446,N,Y,33.6236665,-117.8397717
PAST SALE,July-16-2021,Single Family Residential,7 Water Prt,Newport Coast,CA,92657,5995000,4,4.5,CR - Crystal Cove,4000,12695,2017,,1499,725,Sold,,,https://www.redfin.com/CA/Newport-Beach/7-Water-Prt-92657/home/143911115,CRMLS,NP21095552,N,Y,33.5830253,-117.8217707
PAST SALE,May-19-2021,Single Family Residential,14 Chaminade,Newport Coast,CA,92657,2100000,4,3.5,N26 - Newport Coast,2513,5130,1993,,836,379,Sold,,,https://www.redfin.com/CA/Newport-Coast/14-Chaminade-92657/home/4735783,CRMLS,OC21073418,N,Y,33.6115019,-117.8387205
PAST SALE,August-31-2021,Single Family Residential,9 Arbella,Newport Coast,CA,92657,2548000,4,3.0,N26 - Newport Coast,2784,5239,1998,,915,399,Sold,,,https://www.redfin.com/CA/Newport-Coast/9-Arbella-92657/home/4749512,CRMLS,NP21145878,N,Y,33.6087583,-117.8241653
PAST SALE,May-22-2020,Single Family Residential,30 Pelican Point Dr,Newport Coast,CA,92657,9000000,4,6.0,N26 - Newport Coast,7149,12384,2005,,1259,650,Sold,,,https://www.redfin.com/CA/Newport-Beach/30-Pelican-Point-Dr-92657/home/4749036,CRMLS,NP20030424,N,Y,33.5847296,-117.8582037
PAST SALE,March-28-2019,Single Family Residential,1 Renata,Newport Coast,CA,92657,2625000,4,3.5,N26 - Newport Coast,3090,6092,1999,,850,345,Sold,,,https://www.redfin.com/CA/Newport-Coast/1-Renata-92657/home/4749724,CRMLS,NP19026196,N,Y,33.6088761,-117.822235
PAST SALE,November-5-2021,Single Family Residential,7 Pacific Winds,Newport Coast,CA,92657,3000000,4,3.5,N26 - Newport Coast,2812,6414,2006,,1067,600,Sold,,,https://www.redfin.com/CA/Newport-Beach/7-Pacific-Winds-92657/home/5928200,CRMLS,AR21204333,N,Y,33.6029279,-117.807281
PAST SALE,August-21-2019,Single Family Residential,23 Amador,Newport Coast,CA,92657,2125000,4,3.0,N26 - Newport Coast,2506,4966,1999,,848,443,Sold,,,https://www.redfin.com/CA/Newport-Coast/23-Amador-92657/home/4749619,CRMLS,NP19162466,N,Y,33.6054117,-117.8246632
PAST SALE,September-21-2020,Single Family Residential,19 Marisol,Newport Coast,CA,92657,2570000,4,2.5,N26 - Newport Coast,3033,5289,1998,,847,389,Sold,,,https://www.redfin.com/CA/Newport-Beach/19-Marisol-92657/home/4749551,CRMLS,LG20161436,N,Y,33.6083234,-117.8233437
PAST SALE,August-11-2023,Single Family Residential,12 Vernon,Newport Coast,CA,92657,5800000,4,4.0,N26 - Newport Coast,4200,6987,1998,,1381,455,Sold,,,https://www.redfin.com/CA/Newport-Beach/12-Vernon-92657/home/4737502,CRMLS,PW23108899,N,Y,33.6164933,-117.8376233
PAST SALE,December-4-2018,Single Family Residential,25 Le Mans,Newport Coast,CA,92657,2580000,3,3.0,N26 - Newport Coast,2720,6752,2001,,949,430,Sold,,,https://www.redfin.com/CA/Newport-Coast/25-Lemans-92657/home/5810328,CRMLS,OC18233525,N,Y,33.6225256,-117.840713
PAST SALE,January-21-2021,Single Family Residential,25 Venezia,Newport Coast,CA,92657,3750000,5,5.5,N26 - Newport Coast,4258,10778,2000,,881,675,Sold,,,https://www.redfin.com/CA/Newport-Beach/25-Venezia-92657/home/4749882,CRMLS,NP20227687,N,Y,33.6017486,-117.8111307
PAST SALE,September-8-2021,Single Family Residential,3 Seahaven,Newport Coast,CA,92657,8250000,4,5.0,N26 - Newport Coast,5735,13757,1994,,1439,889,Sold,,,https://www.redfin.com/CA/Newport-Beach/3-Seahaven-92657/home/4749091,CRMLS,IV21120010,N,Y,33.6016925,-117.8290135
PAST SALE,July-25-2019,Single Family Residential,6 Seyne,Newport Coast,CA,92657,2300000,4,3.5,N26 - Newport Coast,3435,7536,2001,,670,430,Sold,,,https://www.redfin.com/CA/Newport-Coast/6-Seyne-92657/home/5810161,CRMLS,NP19141099,N,Y,33.6257009,-117.8400033
PAST SALE,September-10-2021,Single Family Residential,11 Vista Lesina,Newport Coast,CA,92657,5758000,5,5.5,N26 - Newport Coast,4805,9933,2000,,1198,710,Sold,,,https://www.redfin.com/CA/Newport-Beach/11-Vista-Lesina-92657/home/5767385,CRMLS,OC21133617,N,Y,33.6002748,-117.8362085
PAST SALE,April-29-2019,Single Family Residential,12 Surfspray,Newport Coast,CA,92657,5800000,4,5.5,CR - Crystal Cove,5076,9424,2005,,1143,615,Sold,,,https://www.redfin.com/CA/Newport-Coast/12-Surfspray-Blf-92657/home/5930517,CRMLS,OC19043417,N,Y,33.573138,-117.8326089
PAST SALE,September-1-2023,Single Family Residential,41 Clermont,Newport Coast,CA,92657,2100000,3,2.5,N26 - Newport Coast,1912,3825,1995,,1098,468,Sold,,,https://www.redfin.com/CA/Newport-Coast/41-Clermont-92657/home/4736027,CRMLS,OC23108818,N,Y,33.6134365,-117.8349206
PAST SALE,October-15-2021,Single Family Residential,12 Swimmers,Newport Coast,CA,92657,22500000,7,9.0,CR - Crystal Cove,12553,21344,2020,,1792,1015,Sold,,,https://www.redfin.com/CA/Newport-Beach/12-Swimmers-Pt-92657/home/7202881,CRMLS,NP21151751,N,Y,33.5809093,-117.8222132
PAST SALE,June-19-2019,Single Family Residential,14 Bandol,Newport Coast,CA,92657,2300000,4,3.0,N26 - Newport Coast,3862,7797,2002,,596,440,Sold,,,https://www.redfin.com/CA/Newport-Coast/14-Bandol-92657/home/5810655,CRMLS,NP19106814,N,Y,33.622617,-117.8417037
PAST SALE,November-19-2021,Single Family Residential,1 Vernon,Newport Coast,CA,92657,3700000,5,4.0,N26 - Newport Coast,3875,7617,1997,,955,440,Sold,,,https://www.redfin.com/CA/Newport-Coast/1-Vernon-92657/home/4737531,CRMLS,PW21224083,N,Y,33.6174354,-117.8377825
PAST SALE,April-25-2023,Single Family Residential,35 Sea Ter,Newport Coast,CA,92657,3868000,6,5.5,N26 - Newport Coast,4004,7102,1994,,966,320,Sold,,,https://www.redfin.com/CA/Newport-Coast/35-Sea-Ter-92657/home/4735136,CRMLS,OC23021847,N,Y,33.6097993,-117.8390727
PAST SALE,August-22-2019,Single Family Residential,14 Skycrest,Newport Coast,CA,92657,13500000,6,6.5,N26 - Newport Coast,8297,19991,2000,,1627,728,Sold,,,https://www.redfin.com/CA/Newport-Coast/14-Skycrest-92657/home/4747541,CRMLS,OC19129912,N,Y,33.5949103,-117.8408962
PAST SALE,September-7-2021,Single Family Residential,4 Hidden Pass,Newport Coast,CA,92657,3825000,4,4.5,N26 - Newport Coast,3802,7069,2005,,1006,485,Sold,,,https://www.redfin.com/CA/Newport-Coast/4-Hidden-Pass-92657/home/5928416,CRMLS,OC21149699,N,Y,33.5986935,-117.8096967
PAST SALE,April-20-2021,Single Family Residential,22 Tasman Sea,Newport Coast,CA,92657,5630000,3,3.5,CR - Crystal Cove,3418,10004,2002,,1647,725,Sold,,,https://www.redfin.com/CA/Newport-Beach/22-Tasman-Sea-92657/home/5856479,CRMLS,NP21029634,N,Y,33.574501,-117.8343024
PAST SALE,,Single Family Residential,19 Chatelaine,Newport Coast,CA,92657,1750000,5,2.5,,2455,5000,1994,,713,,,,,https://www.redfin.com/CA/Newport-Coast/19-Chatelaine-92657/home/4735380,,,N,Y,33.6131371,-117.8390039
PAST SALE,August-5-2022,Single Family Residential,27 Whitesands Dr,Newport Coast,CA,92657,4250000,4,4.5,N26 - Newport Coast,3346,8540,1994,,1270,269,Sold,,,https://www.redfin.com/CA/Newport-Beach/27-Whitesands-Dr-92657/home/4735713,CRMLS,OC22115049,N,Y,33.6085432,-117.8401481
PAST SALE,September-16-2022,Single Family Residential,15 Tide Watch,Newport Coast,CA,92657,15500000,5,6.5,CR - Crystal Cove,6014,23183,2017,,2577,780,Sold,,,https://www.redfin.com/CA/Newport-Beach/15-Tide-Watch-92657/home/7202920,CRMLS,NP22162252,N,Y,33.5855668,-117.8239534
PAST SALE,March-17-2020,Single Family Residential,3 Pacific Winds,Newport Coast,CA,92657,1850000,3,3.5,N26 - Newport Coast,2718,5802,2005,,681,585,Sold,,,https://www.redfin.com/CA/Newport-Beach/3-Pacific-Winds-92657/home/5928196,CRMLS,NP20020353,N,Y,33.6030211,-117.8075062
PAST SALE,August-7-2020,Single Family Residential,23 Tide Watch,Newport Coast,CA,92657,9425000,5,6.5,CR - Crystal Cove,6500,24042,2007,,1450,700,Sold,,,https://www.redfin.com/CA/Newport-Coast/23-Tide-Watch-92657/home/7202869,CRMLS,OC20116316,N,Y,33.5845331,-117.8235963
PAST SALE,October-22-2020,Single Family Residential,28 Dunes Blf,Newport Coast,CA,92657,5600000,5,5.5,Crystal Cove,4100,8091,2005,,1366,615,Sold,,,https://www.redfin.com/CA/Newport-Coast/28-Dunes-Blf-92657/home/5930311,TheMLS,20-628982,N,Y,33.5705658,-117.8279652
PAST SALE,April-7-2021,Single Family Residential,4 Via Giada,Newport Coast,CA,92657,6800000,4,4.5,N26 - Newport Coast,5781,11805,2000,,1176,693,Sold,,,https://www.redfin.com/CA/Newport-Coast/4-Via-Giada-92657/home/4749974,CRMLS,NP21026013,N,Y,33.6029799,-117.8206562
PAST SALE,March-5-2021,Single Family Residential,22 Bridgeport Rd,Newport Coast,CA,92657,3160000,4,4.5,N26 - Newport Coast,3346,7150,1994,,944,269,Sold,,,https://www.redfin.com/CA/Newport-Coast/22-Bridgeport-Rd-92657/home/4735604,CRMLS,OC21011232,N,Y,33.6078063,-117.8391146
PAST SALE,March-3-2020,Single Family Residential,26 Sidney Bay Dr,Newport Coast,CA,92657,2970000,3,2.5,CR - Crystal Cove,2700,5053,2001,,1100,700,Sold,,,https://www.redfin.com/CA/Newport-Coast/26-Sidney-Bay-Dr-92657/home/5811585,CRMLS,NP20007487,N,Y,33.5751703,-117.8369379
PAST SALE,May-30-2019,Single Family Residential,40 Deep Sea,Newport Coast,CA,92657,16425000,6,10.0,CR - Crystal Cove,13746,19571,2010,,1195,1147,Sold,,,https://www.redfin.com/CA/Newport-Beach/40-Deep-Sea-92657/home/5957682,CRMLS,OC19067832,N,Y,33.5783623,-117.8303643
PAST SALE,May-15-2020,Single Family Residential,3 Coral Cay,Newport Coast,CA,92657,4200000,4,3.5,CR - Crystal Cove,3982,9250,2006,,1055,615,Sold,,,https://www.redfin.com/CA/Newport-Beach/3-Coral-Cay-92657/home/7202804,CRMLS,NP20065715,N,Y,33.5867804,-117.8225169
PAST SALE,April-28-2021,Single Family Residential,15 Chatelaine,Newport Coast,CA,92657,1925000,4,3.0,N26 - Newport Coast,2718,4725,1994,,708,423,Sold,,,https://www.redfin.com/CA/Newport-Coast/15-Chatelaine-92657/home/4735385,CRMLS,OC21044996,N,Y,33.6132986,-117.8392049
PAST SALE,December-2-2019,Single Family Residential,9 Oceancrest,Newport Coast,CA,92657,9500000,5,5.5,N26 - Newport Coast,6800,18995,1998,,1397,875,Sold,,,https://www.redfin.com/CA/Newport-Coast/9-Oceancrest-92657/home/4747472,CRMLS,NP19221144,N,Y,33.5971088,-117.8432085
PAST SALE,April-30-2021,Single Family Residential,38 Vernon,Newport Coast,CA,92657,2818000,4,4.5,Newport Coast,3655,6882,1998,,771,440,Sold,,,https://www.redfin.com/CA/Newport-Beach/38-Vernon-92657/home/4737463,TheMLS,21-702248,N,Y,33.6148586,-117.8370836
PAST SALE,,Single Family Residential,40 Coral Reef,Newport Coast,CA,92657,3850000,3,4.0,,3864,6200,1997,,996,,,,,https://www.redfin.com/CA/Newport-Coast/40-Coral-Reef-92657/home/4749357,,,N,Y,33.5937726,-117.8324021
PAST SALE,January-14-2020,Single Family Residential,18 Water Prt,Newport Coast,CA,92657,9000000,3,4.5,CR - Crystal Cove,4778,14399,2017,,1884,700,Sold,,,https://www.redfin.com/CA/Newport-Coast/18-Water-Prt-92657/home/143911119,CRMLS,OC19262819,N,Y,33.5823241,-117.8210301
PAST SALE,January-18-2022,Single Family Residential,63 Bridgeport Rd,Newport Coast,CA,92657,3610000,4,3.5,N26 - Newport Coast,2902,7704,1993,,1244,270,Sold,,,https://www.redfin.com/CA/Newport-Coast/63-Bridgeport-Rd-92657/home/4735524,CRMLS,NP21258029,N,Y,33.6075653,-117.8373475
PAST SALE,October-5-2020,Single Family Residential,16 Bellevue,Newport Coast,CA,92657,2123125,4,3.5,N26 - Newport Coast,2721,3960,1994,,780,389,Sold,,,https://www.redfin.com/CA/Newport-Coast/16-Bellevue-92657/home/4737126,CRMLS,NP20150750,N,Y,33.6075239,-117.8314367
PAST SALE,January-23-2023,Single Family Residential,23 Morning,Newport Coast,CA,92657,6193000,5,5.5,N26 - Newport Coast,4948,16001,2005,,1252,485,Sold,,,https://www.redfin.com/CA/Newport-Beach/23-Morning-Lgt-92657/home/5927475,CRMLS,OC22252646,N,Y,33.5959872,-117.8109475
PAST SALE,May-28-2021,Single Family Residential,25 Observatory,Newport Coast,CA,92657,4290000,4,4.5,N26 - Newport Coast,4117,7934,2005,,1042,485,Sold,,,https://www.redfin.com/CA/Newport-Coast/25-Observatory-92657/home/5928779,CRMLS,OC21060020,N,Y,33.6008539,-117.8072029
PAST SALE,August-26-2021,Single Family Residential,9 Offshore,Newport Coast,CA,92657,16495000,5,7.5,CR - Crystal Cove,8200,22000,2006,,2012,760,Sold,,,https://www.redfin.com/CA/Newport-Coast/9-Offshore-92657/home/5930718,CRMLS,NP21135821,N,Y,33.5754767,-117.8269757
PAST SALE,September-16-2020,Single Family Residential,39 Clermont,Newport Coast,CA,92657,1970000,5,2.5,N26 - Newport Coast,2634,4350,1995,,748,380,Sold,,,https://www.redfin.com/CA/Newport-Coast/39-Clermont-92657/home/4736028,CRMLS,OC20151543,N,Y,33.613524,-117.835058
PAST SALE,July-25-2022,Single Family Residential,10 Saint Laurent,Newport Coast,CA,92657,3010000,4,2.5,N26 - Newport Coast,2959,5775,1996,,1017,409,Sold,,,https://www.redfin.com/CA/Newport-Coast/10-Saint-Laurent-92657/home/4737091,CRMLS,NP22115322,N,Y,33.6070115,-117.8308452
PAST SALE,January-3-2019,Single Family Residential,35 SARTEANO Dr,Newport Coast,CA,92657,3950000,3,3.5,N26 - Newport Coast,3753,10656,2003,,1052,622,Sold,,,https://www.redfin.com/CA/Newport-Beach/35-Sarteano-Dr-92657/home/5811703,CRMLS,NP18202395,N,Y,33.6031867,-117.8178169
PAST SALE,March-9-2022,Single Family Residential,14 Still Water,Newport Coast,CA,92657,3850000,4,3.5,N26 - Newport Coast,2812,6980,2005,,1369,606,Sold,,,https://www.redfin.com/CA/Newport-Coast/14-Still-Water-92657/home/5929102,CRMLS,OC22007026,N,Y,33.6058023,-117.805173
PAST SALE,March-8-2023,Single Family Residential,15 Coral Cay,Newport Coast,CA,92657,10995000,5,5.5,CR - Crystal Cove,4767,12536,2006,,2306,780,Sold,,,https://www.redfin.com/CA/Newport-Coast/15-Coral-Cay-92657/home/7215286,CRMLS,OC22257792,N,Y,33.5859961,-117.8226024
PAST SALE,March-10-2023,Single Family Residential,11 Menton,Newport Coast,CA,92657,2920000,5,3.0,N26 - Newport Coast,2812,4924,1995,,1038,410,Sold,,,https://www.redfin.com/CA/Newport-Coast/11-Menton-92657/home/4736105,CRMLS,OC23001018,N,Y,33.6124712,-117.835293
PAST SALE,January-28-2021,Single Family Residential,12 Catania,Newport Coast,CA,92657,3250000,5,3.5,Newport Coast,3600,9574,2001,,903,410,Sold,,,https://www.redfin.com/CA/Newport-Beach/12-Catania-92657/home/4749849,TheMLS,20-664324,N,Y,33.6029378,-117.8126236
PAST SALE,July-6-2022,Single Family Residential,3 Adriana,Newport Coast,CA,92657,3800000,4,3.0,N26 - Newport Coast,2927,7275,1999,,1298,500,Sold,,,https://www.redfin.com/CA/Newport-Coast/3-Adriana-92657/home/5900078,CRMLS,PW22094313,N,Y,33.6068291,-117.8156874
PAST SALE,January-11-2023,Single Family Residential,7 Ocean Heights Dr,Newport Coast,CA,92657,4350000,3,3.5,N26 - Newport Coast,3700,8166,2001,,1176,728,Sold,,,https://www.redfin.com/CA/Newport-Coast/7-Ocean-Heights-Dr-92657/home/5767996,CRMLS,NP22229441,N,Y,33.6054109,-117.815577
PAST SALE,,Single Family Residential,3 Island Vis,Newport Coast,CA,92657,14500000,6,7.0,,7995,13155,2000,,1814,,,,,https://www.redfin.com/CA/Newport-Coast/3-Island-Vis-92657/home/4747582,,,N,Y,33.5941006,-117.8408275
PAST SALE,November-15-2021,Single Family Residential,39 Skyridge,Newport Coast,CA,92657,16000000,6,7.5,N26 - Newport Coast,10770,21059,2000,,1486,838,Sold,,,https://www.redfin.com/CA/Newport-Beach/39-Skyridge-92657/home/4747795,CRMLS,NP21213951,N,Y,33.5924673,-117.8393393
PAST SALE,June-16-2023,Single Family Residential,11 Shoreridge,Newport Coast,CA,92657,10800000,4,4.5,N26 - Newport Coast,6727,15547,2002,,1605,988,Sold,,,https://www.redfin.com/CA/Newport-Coast/11-Shoreridge-92657/home/4747715,CRMLS,OC23064747,N,Y,33.5936027,-117.8373246
PAST SALE,November-29-2021,Single Family Residential,26 WHARFSIDE Dr,Newport Coast,CA,92657,5445000,5,6.0,CR - Crystal Cove,4200,8881,2000,,1296,760,Sold,,,https://www.redfin.com/CA/Newport-Coast/26-Wharfside-Dr-92657/home/5767709,CRMLS,OC21209108,N,Y,33.57224,-117.8363859
PAST SALE,December-7-2021,Single Family Residential,11 Vista Luci,Newport Coast,CA,92657,6725000,5,4.5,N26 - Newport Coast,5048,9634,2000,,1332,735,Sold,,,https://www.redfin.com/CA/Newport-Beach/11-Vista-Luci-92657/home/5767429,CRMLS,OC21225019,N,Y,33.5992787,-117.8349496
PAST SALE,December-31-2019,Single Family Residential,16 Ferrand,Newport Coast,CA,92657,2230000,3,3.0,N26 - Newport Coast,2696,7405,2001,,827,440,Sold,,,https://www.redfin.com/CA/Newport-Coast/16-Ferrand-92657/home/5810506,CRMLS,OC19260881,N,Y,33.6238871,-117.8391549
PAST SALE,September-1-2020,Single Family Residential,14 Scenic Blf,Newport Coast,CA,92657,7750000,4,6.0,CR - Crystal Cove,5536,13559,2000,,1400,700,Sold,,,https://www.redfin.com/CA/Newport-Coast/14-Scenic-Blf-92657/home/5767863,CRMLS,NP20129352,N,Y,33.5776905,-117.8351225
PAST SALE,May-26-2023,Single Family Residential,24 Calais,Newport Coast,CA,92657,2670000,4,2.5,N26 - Newport Coast,2435,5502,1994,,1097,295,Sold,,,https://www.redfin.com/CA/Newport-Coast/24-Calais-92657/home/4735275,CRMLS,OC23048824,N,Y,33.6122383,-117.839224
PAST SALE,September-14-2021,Single Family Residential,21 Sea,Newport Coast,CA,92657,2425000,5,3.0,N26 - Newport Coast,3150,7171,1994,,770,237,Sold,,,https://www.redfin.com/CA/Newport-Coast/21-Sea-Ter-92657/home/4735116,CRMLS,WS21150254,N,Y,33.6095482,-117.8404612
PAST SALE,June-5-2023,Single Family Residential,7 Currents,Newport Coast,CA,92657,12000000,4,4.5,CR - Crystal Cove,6300,21013,2007,,1905,780,Sold,,,https://www.redfin.com/CA/Newport-Coast/7-Currents-92657/home/5930691,CRMLS,OC23043384,N,Y,33.5759905,-117.8291737
PAST SALE,June-22-2021,Single Family Residential,11 High Water,Newport Coast,CA,92657,20788800,6,8.0,CR - Crystal Cove,12507,19250,2012,,1662,1285,Sold,,,https://www.redfin.com/CA/Newport-Coast/11-High-Water-92657/home/5957844,CRMLS,NP21047504,N,Y,33.5814748,-117.8285263
PAST SALE,September-23-2022,Single Family Residential,2 Eucalyptus,Newport Coast,CA,92657,3400000,4,2.5,N26 - Newport Coast,2812,6374,2004,,1209,606,Sold,,,https://www.redfin.com/CA/Newport-Beach/2-Eucalyptus-92657/home/5929014,CRMLS,OC22160786,N,Y,33.6052973,-117.8084745
PAST SALE,June-28-2021,Single Family Residential,2 Morning Lgt,Newport Coast,CA,92657,4900000,5,6.5,N26 - Newport Coast,5000,10508,2004,,980,485,Sold,,,https://www.redfin.com/CA/Newport-Coast/2-Morning-Lgt-92657/home/5927513,CRMLS,OC20192531,N,Y,33.5975276,-117.8093533
PAST SALE,February-5-2021,Single Family Residential,10 Shoreline,Newport Coast,CA,92657,6099000,4,4.5,N26 - Newport Coast,5265,11550,1993,,1158,680,Sold,,,https://www.redfin.com/CA/Newport-Beach/10-Shoreline-92657/home/4749015,CRMLS,OC20237669,N,Y,33.5860162,-117.8581351
PAST SALE,March-15-2021,Single Family Residential,10 Agostino,Newport Coast,CA,92657,2280000,4,3.5,N26 - Newport Coast,2746,5133,1998,,830,389,Sold,,,https://www.redfin.com/CA/Newport-Coast/10-Agostino-92657/home/4749684,CRMLS,NP20256018,N,Y,33.6063443,-117.8218239
PAST SALE,December-11-2020,Single Family Residential,2 Pinnacle,Newport Coast,CA,92657,5100000,4,4.5,N26 - Newport Coast,4176,14000,1997,,1221,788,Sold,,,https://www.redfin.com/CA/Newport-Coast/2-Pinnacle-Pt-92657/home/4749156,CRMLS,OC20199832,N,Y,33.5974585,-117.8327455
PAST SALE,April-20-2023,Single Family Residential,38 Pelican Crest Dr,Newport Coast,CA,92657,17800000,5,7.0,N26 - Newport Coast,9276,15344,1999,,1919,985,Sold,,,https://www.redfin.com/CA/Newport-Coast/38-Pelican-Crest-Dr-92657/home/4747341,CRMLS,OC23017794,N,Y,33.5943109,-117.8426133
PAST SALE,August-25-2020,Single Family Residential,14 Agostino,Newport Coast,CA,92657,2200000,5,3.5,N26 - Newport Coast,3451,5833,2000,,637,389,Sold,,,https://www.redfin.com/CA/Newport-Beach/14-Agostino-92657/home/4749682,CRMLS,OC20114367,N,Y,33.6060664,-117.8216408
PAST SALE,November-5-2018,Single Family Residential,24 Timor Sea,Newport Coast,CA,92657,9970000,3,4.0,CR - Crystal Cove,5738,15371,2000,,1738,615,Sold,,,https://www.redfin.com/CA/Newport-Coast/24-Timor-Sea-92657/home/5767890,CRMLS,NP18224016,N,Y,33.5768419,-117.8359509
PAST SALE,July-31-2020,Single Family Residential,8 Skyridge,Newport Coast,CA,92657,8300000,4,6.5,N26 - Newport Coast,8134,21008,2001,,1020,838,Sold,,,https://www.redfin.com/CA/Newport-Coast/8-Skyridge-92657/home/4747749,CRMLS,NP20090425,N,Y,33.5930487,-117.8386067
PAST SALE,,Single Family Residential,10 Shore Walk,Newport Coast,CA,92657,16000000,5,6.0,,8785,24789,2005,,1821,,,,,https://www.redfin.com/CA/Newport-Coast/10-Shore-Walk-92657/home/5930676,,,N,Y,33.5749268,-117.8296657
PAST SALE,November-11-2022,Single Family Residential,11 Fiore,Newport Coast,CA,92657,3480000,4,3.0,N26 - Newport Coast,2916,4867,1997,,1193,530,Sold,,,https://www.redfin.com/CA/Newport-Coast/11-Fiore-92657/home/4749454,CRMLS,OC22192691,N,Y,33.607889,-117.8186758
PAST SALE,February-3-2020,Single Family Residential,1 Tranquil,Newport Coast,CA,92657,2150000,4,2.5,N26 - Newport Coast,2812,7039,2005,,765,585,Sold,,,https://www.redfin.com/CA/Newport-Coast/1-Tranquil-92657/home/5928903,CRMLS,NP19273630,N,Y,33.6029357,-117.8065571
PAST SALE,January-14-2022,Single Family Residential,24 Morning Lgt,Newport Coast,CA,92657,6500000,5,7.0,N26 - Newport Coast,5812,15740,2005,,1118,485,Sold,,,https://www.redfin.com/CA/Newport-Beach/24-Morning-Lgt-92657/home/5927480,CRMLS,NP21211785,N,Y,33.5958599,-117.8106099
PAST SALE,November-3-2021,Single Family Residential,3 Ferrand,Newport Coast,CA,92657,3500000,3,3.0,N26 - Newport Coast,3680,7710,2001,,951,430,Sold,,,https://www.redfin.com/CA/Newport-Coast/3-Ferrand-92657/home/5810253,CRMLS,OC21182397,N,Y,33.6244741,-117.8386328
PAST SALE,January-2-2019,Single Family Residential,7 Almanzora,Newport Coast,CA,92657,2950000,4,3.5,N26 - Newport Coast,4251,9860,2000,,694,578,Sold,,,https://www.redfin.com/CA/Newport-Beach/7-Almanzora-92657/home/4749949,CRMLS,NP18234195,N,Y,33.5991852,-117.8143213
PAST SALE,September-7-2023,Single Family Residential,5 Del Mar,Newport Coast,CA,92657,27000000,4,6.0,CR - Crystal Cove,6271,20703,2016,,4306,1285,Sold,,,https://www.redfin.com/CA/Newport-Coast/5-Del-Mar-92657/home/5957758,CRMLS,NP23121804,N,Y,33.5808305,-117.8334782
PAST SALE,December-16-2021,Single Family Residential,17 Bridgeport Rd,Newport Coast,CA,92657,3900000,3,3.5,N26 - Newport Coast,2902,7150,1994,,1344,269,Sold,,,https://www.redfin.com/CA/Newport-Coast/17-Bridgeport-Rd-92657/home/4735659,CRMLS,OC21214628,N,Y,33.6083452,-117.8391294
PAST SALE,September-15-2020,Single Family Residential,15 Amador,Newport Coast,CA,92657,2210000,3,3.5,N26 - Newport Coast,2591,4820,1999,,853,310,Sold,,,https://www.redfin.com/CA/Newport-Coast/15-Amador-92657/home/4749615,CRMLS,OC20114178,N,Y,33.6059761,-117.8246632
PAST SALE,November-18-2019,Single Family Residential,6 Grenelle,Newport Coast,CA,92657,1750000,4,2.5,N26 - Newport Coast,2339,4250,1995,,748,376,Sold,,,https://www.redfin.com/CA/Newport-Coast/6-Grenelle-92657/home/4736099,CRMLS,NP19221731,N,Y,33.6126365,-117.8355547
PAST SALE,August-31-2022,Single Family Residential,73 Bridgeport Rd,Newport Coast,CA,92657,3850000,4,4.5,N26 - Newport Coast,3346,6630,1995,,1151,266,Sold,,,https://www.redfin.com/CA/Newport-Beach/73-Bridgeport-Rd-92657/home/4735635,CRMLS,OC22128931,N,Y,33.6083011,-117.8376017
PAST SALE,August-17-2021,Single Family Residential,1 Venezia,Newport Coast,CA,92657,3000000,4,3.5,N26 - Newport Coast,2911,9598,2001,,1031,675,Sold,,,https://www.redfin.com/CA/Newport-Beach/1-Venezia-92657/home/4749871,CRMLS,NP21134970,N,Y,33.602786,-117.8135168
PAST SALE,June-24-2021,Single Family Residential,2 Sunrise,Newport Coast,CA,92657,4575000,5,5.5,N26 - Newport Coast,5163,8773,2006,,886,495,Sold,,,https://www.redfin.com/CA/Newport-Coast/2-Sunrise-92657/home/5927455,CRMLS,OC21075363,N,Y,33.5973205,-117.8105768
PAST SALE,September-30-2019,Single Family Residential,19 Seawatch,Newport Coast,CA,92657,6200000,4,4.5,N26 - Newport Coast,5748,9337,2016,,1079,475,Sold,,,https://www.redfin.com/CA/Newport-Coast/19-Seawatch-92657/home/5927589,CRMLS,OC19141219,N,Y,33.5955151,-117.8132482
PAST SALE,,Single Family Residential,21 Overlook Dr,Newport Coast,CA,92657,4725000,5,5.5,,4700,15668,2003,,1005,,,,,https://www.redfin.com/CA/Newport-Coast/21-Overlook-Dr-92657/home/5811922,,,N,Y,33.6049178,-117.8150921
PAST SALE,July-27-2022,Single Family Residential,15 Cavaillon,Newport Coast,CA,92657,3800000,4,3.5,N26 - Newport Coast,3435,7100,2002,,1106,455,Sold,,,https://www.redfin.com/CA/Newport-Beach/15-Cavaillon-92657/home/5855707,CRMLS,NP22096252,N,Y,33.625795,-117.8424301
PAST SALE,January-4-2021,Single Family Residential,2 Timor Sea,Newport Coast,CA,92657,8100000,4,5.5,CR - Crystal Cove,5158,19454,2001,,1570,615,Sold,,,https://www.redfin.com/CA/Newport-Coast/2-Timor-Sea-92657/home/5767868,CRMLS,NP20220815,N,Y,33.5796867,-117.8358593
PAST SALE,January-8-2021,Single Family Residential,6 Faenza,Newport Beach,CA,92657,3660000,4,3.5,Newport Coast,4160,13951,1999,,880,675,Sold,,,https://www.redfin.com/CA/Newport-Beach/6-Faenza-92657/home/4749939,TheMLS,20-655054,N,Y,33.5996435,-117.8131326
PAST SALE,April-30-2019,Single Family Residential,21 Canyon Peak,Newport Coast,CA,92657,4780000,5,4.5,N26 - Newport Coast,4405,11731,2005,,1085,450,Sold,,,https://www.redfin.com/CA/Newport-Coast/21-Canyon-Peak-92657/home/5928678,CRMLS,OC19035474,N,Y,33.5975452,-117.8071921
PAST SALE,September-23-2019,Single Family Residential,5 Ferrand,Newport Coast,CA,92657,2400000,4,3.0,N26 - Newport Coast,2809,6970,2001,,854,440,Sold,,,https://www.redfin.com/CA/Newport-Coast/5-Ferrand-92657/home/5810257,CRMLS,NP19177989,N,Y,33.6244525,-117.8387858
PAST SALE,January-6-2020,Single Family Residential,7 Chaminade,Newport Coast,CA,92657,1500000,4,3.0,N26 - Newport Coast,2373,3600,1993,,632,376,Sold,,,https://www.redfin.com/CA/Newport-Coast/7-Chaminade-92657/home/4735765,CRMLS,NP19196050,N,Y,33.6120473,-117.8383091
PAST SALE,July-9-2019,Single Family Residential,2 Bandol,Newport Coast,CA,92657,2650000,5,5.0,N26 - Newport Coast,4176,9365,2002,,635,430,Sold,,,https://www.redfin.com/CA/Newport-Coast/2-Bandol-92657/home/5810676,CRMLS,OC19104303,N,Y,33.623358,-117.8409302
PAST SALE,July-31-2020,Single Family Residential,15 Giverny,Newport Coast,CA,92657,1741652,3,2.5,N26 - Newport Coast,2473,4500,1994,,704,423,Sold,,,https://www.redfin.com/CA/Newport-Beach/15-Giverny-92657/home/4735265,CRMLS,LG20101852,N,Y,33.6119121,-117.8392279
PAST SALE,May-16-2022,Single Family Residential,1 Via Cristallo,Newport Coast,CA,92657,4550000,4,4.5,N26 - Newport Coast,4309,8391,1999,,1056,619,Sold,,,https://www.redfin.com/CA/Newport-Coast/1-Via-Cristallo-92657/home/4749795,CRMLS,TR22043703,N,Y,33.6004748,-117.8224193
PAST SALE,June-7-2019,Single Family Residential,22 Trouville,Newport Coast,CA,92657,1720000,4,3.0,N26 - Newport Coast,2633,3750,1994,,653,357,Sold,,,https://www.redfin.com/CA/Newport-Beach/22-Trouville-92657/home/4735866,CRMLS,OC19069000,N,Y,33.61228,-117.8372106
PAST SALE,January-27-2020,Single Family Residential,37 Vista Luci,Newport Coast,CA,92657,4775000,5,5.5,N26 - Newport Coast,5048,11268,2000,,946,710,Sold,,,https://www.redfin.com/CA/Newport-Coast/37-Vista-Luci-92657/home/5767509,CRMLS,OC19272559,N,Y,33.5968062,-117.8363162
PAST SALE,March-23-2020,Single Family Residential,2 Twilight Blf,Newport Coast,CA,92657,4495000,4,4.5,CR - Crystal Cove,4167,9586,2004,,1079,615,Sold,,,https://www.redfin.com/CA/Newport-Coast/2-Twilight-Blf-92657/home/5930369,CRMLS,OC20015472,N,Y,33.5711076,-117.8304811
PAST SALE,,Single Family Residential,6 Via Avoria,Newport Coast,CA,92657,3900000,4,4.5,,3974,9956,1999,,981,,,,,https://www.redfin.com/CA/Newport-Coast/6-Via-Avoria-92657/home/4749749,,,N,Y,33.6007423,-117.818916
PAST SALE,September-13-2021,Single Family Residential,12 Clearview,Newport Coast,CA,92657,6150000,5,4.5,N26 - Newport Coast,4350,9750,1999,,1414,888,Sold,,,https://www.redfin.com/CA/Newport-Beach/12-Clearview-92657/home/4749073,CRMLS,OC21144533,N,Y,33.5994649,-117.8288074
PAST SALE,May-27-2020,Single Family Residential,18 Archipelago Dr,Newport Coast,CA,92657,6258888,6,6.5,CR - Crystal Cove,6001,14515,2005,,1043,700,Sold,,,https://www.redfin.com/CA/Newport-Coast/18-Archipelago-Dr-92657/home/5767817,CRMLS,OC20059348,N,Y,33.5749761,-117.8335926
PAST SALE,November-10-2020,Single Family Residential,60 Sidney Bay Dr,Newport Coast,CA,92657,3650000,3,2.5,CR - Crystal Cove,2702,5020,2001,,1351,700,Sold,,,https://www.redfin.com/CA/Newport-Coast/60-Sidney-Bay-Dr-92657/home/5767647,CRMLS,OC20174531,N,Y,33.5739102,-117.8360418
PAST SALE,June-15-2021,Single Family Residential,7 Overlook Dr,Newport Coast,CA,92657,5025000,4,4.5,N26 - Newport Coast,3946,9574,1999,,1273,622,Sold,,,https://www.redfin.com/CA/Newport-Coast/7-Overlook-Dr-92657/home/5768030,CRMLS,OC21044965,N,Y,33.6061862,-117.8142337
PAST SALE,August-6-2021,Single Family Residential,16 Highpoint,Newport Coast,CA,92657,3750000,3,3.5,N26 - Newport Coast,3735,8869,2004,,1004,485,Sold,,,https://www.redfin.com/CA/Newport-Coast/16-Highpoint-92657/home/5928243,CRMLS,OC21048292,N,Y,33.6009366,-117.808272
PAST SALE,,Single Family Residential,15 Cavalleri,Newport Coast,CA,92657,1782000,5,3.5,,2995,6391,1998,,595,,,,,https://www.redfin.com/CA/Newport-Coast/15-Cavalleri-92657/home/4749669,,,N,Y,33.606869,-117.8204959
PAST SALE,October-21-2020,Single Family Residential,22 Vernon,Newport Coast,CA,92657,2325000,4,3.5,N26 - Newport Coast,2921,7224,1997,,796,440,Sold,,,https://www.redfin.com/CA/Newport-Coast/22-Vernon-92657/home/4737490,CRMLS,LG20159411,N,Y,33.6160116,-117.8374383
PAST SALE,November-8-2021,Single Family Residential,10 Gentle Breeze,Newport Coast,CA,92657,4255000,4,4.5,N26 - Newport Coast,3547,5809,2005,,1200,606,Sold,,,https://www.redfin.com/CA/Newport-Coast/10-Gentle-Breeze-92657/home/5928880,CRMLS,NP21196817,N,Y,33.6025076,-117.8055116
PAST SALE,October-4-2022,Single Family Residential,9 Tide Watch,Newport Coast,CA,92657,15730000,5,5.5,CR - Crystal Cove,6400,20000,2017,,2458,615,Sold,,,https://www.redfin.com/CA/Newport-Beach/9-Tide-Watch-92657/home/7202916,CRMLS,OC22142975,N,Y,33.5860952,-117.8237702
PAST SALE,May-31-2019,Single Family Residential,27 Via Diamante,Newport Coast,CA,92657,3100000,4,4.5,N26 - Newport Coast,3923,9988,2000,,790,693,Sold,,,https://www.redfin.com/CA/Newport-Coast/27-Via-Diamante-92657/home/4749741,CRMLS,OC19062040,N,Y,33.6006595,-117.8172674
PAST SALE,November-26-2019,Single Family Residential,36 Marisol,Newport Coast,CA,92657,1775000,4,3.0,N26 - Newport Coast,2200,4000,1998,,807,320,Sold,,,https://www.redfin.com/CA/Newport-Coast/36-Marisol-92657/home/4749587,CRMLS,NP19226103,N,Y,33.6070334,-117.8236594
PAST SALE,August-4-2023,Single Family Residential,1 Island Vis,Newport Coast,CA,92657,23495000,5,7.0,Newport Coast,11438,21998,1999,,2054,985,Sold,,,https://www.redfin.com/CA/Newport-Beach/1-Island-Vis-92657/home/4747580,TheMLS,23-271821,N,Y,33.5942876,-117.8408046
PAST SALE,September-4-2020,Single Family Residential,3 Shoreridge,Newport Coast,CA,92657,8000000,5,5.5,N26 - Newport Coast,6691,15754,2002,,1196,843,Sold,,,https://www.redfin.com/CA/Newport-Beach/3-Shoreridge-92657/home/4747816,CRMLS,NP20127880,N,Y,33.5922937,-117.8374849
PAST SALE,March-11-2022,Single Family Residential,36 Via Rubino,Newport Coast,CA,92657,5225000,4,4.5,N26 - Newport Coast,4400,10000,2000,,1188,728,Sold,,,https://www.redfin.com/CA/Newport-Coast/36-Via-Rubino-92657/home/4749776,CRMLS,NP21255221,N,Y,33.5995146,-117.8200217
PAST SALE,August-16-2021,Single Family Residential,10 Blue Shr,Newport Coast,CA,92657,7200000,5,5.5,CR - Crystal Cove,4760,19964,2016,,1513,750,Sold,,,https://www.redfin.com/CA/Newport-Beach/10-Blue-Shr-92657/home/143911113,CRMLS,OC21120128,N,Y,33.5835222,-117.8216924
PAST SALE,April-23-2021,Single Family Residential,34 Coral Reef,Newport Coast,CA,92657,3380000,3,4.0,N26 - Newport Coast,3864,7252,1996,,875,440,Sold,,,https://www.redfin.com/CA/Newport-Coast/34-Coral-Reef-92657/home/4749363,CRMLS,TR21003965,N,Y,33.5939502,-117.8329974
PAST SALE,April-27-2023,Single Family Residential,1 Belfort,Newport Coast,CA,92657,2700000,5,3.0,N26 - Newport Coast,2790,6200,1995,,968,468,Sold,,,https://www.redfin.com/CA/Newport-Coast/1-Belfort-92657/home/4736115,CRMLS,NP23015386,N,Y,33.612431,-117.8359128
PAST SALE,April-12-2021,Single Family Residential,3 Stargazer,Newport Coast,CA,92657,3085000,4,3.5,N26 - Newport Coast,3631,8343,2006,,850,485,Sold,,,https://www.redfin.com/CA/Newport-Coast/3-Stargazer-92657/home/5928604,CRMLS,OC20260984,N,Y,33.6002329,-117.8054991
PAST SALE,September-29-2021,Single Family Residential,6 Arbella,Newport Coast,CA,92657,2850000,4,3.0,N26 - Newport Coast,2953,4746,1993,,965,389,Sold,,,https://www.redfin.com/CA/Newport-Coast/6-Arbella-92657/home/4749517,CRMLS,OC21131626,N,Y,33.6087649,-117.8237103
PAST SALE,July-8-2021,Single Family Residential,26 Sandy Cv,Newport Coast,CA,92657,4600000,4,4.5,CR - Crystal Cove,3345,7416,2001,,1375,760,Sold,,,https://www.redfin.com/CA/Newport-Coast/26-Sandy-Cv-92657/home/5811389,CRMLS,OC21065239,N,Y,33.5770038,-117.83903
PAST SALE,September-1-2022,Single Family Residential,1 Vista Tramonto,Newport Coast,CA,92657,7749000,5,5.5,N26 - Newport Coast,5848,13534,2002,,1325,775,Sold,,,https://www.redfin.com/CA/Newport-Coast/1-Vista-Tramonto-92657/home/5767416,CRMLS,OC22110330,N,Y,33.6003691,-117.8347832
PAST SALE,,Single Family Residential,3 Fiore,Newport Coast,CA,92657,3830000,3,2.5,,2548,4853,1997,,1503,,,,,https://www.redfin.com/CA/Newport-Coast/3-Fiore-92657/home/5899939,,,N,Y,33.6082513,-117.8186703
PAST SALE,October-4-2021,Single Family Residential,15 Ocean Ridge Dr,Newport Coast,CA,92657,7100000,6,6.5,N26 - Newport Coast,6425,17325,1997,,1105,573,Sold,,,https://www.redfin.com/CA/Newport-Coast/15-Ocean-Ridge-Dr-92657/home/4749208,CRMLS,NP21115287,N,Y,33.5976886,-117.8341192
PAST SALE,May-14-2019,Single Family Residential,3 Compass,Newport Coast,CA,92657,2650000,4,3.5,N26 - Newport Coast,2753,8568,2005,,963,551,Sold,,,https://www.redfin.com/CA/Newport-Coast/3-Compass-92657/home/5929156,CRMLS,OC19032302,N,Y,33.6047806,-117.8064089
PAST SALE,,Single Family Residential,3 Moonshell,Newport Coast,CA,92657,10550000,4,4.5,,6127,22833,2007,,1722,,,,,https://www.redfin.com/CA/Newport-Coast/3-Moonshell-92657/home/5930703,,,N,Y,33.5767778,-117.8282531
PAST SALE,June-30-2021,Single Family Residential,1 Wayside,Newport Coast,CA,92657,3475000,4,4.5,N26 - Newport Coast,3858,7135,2006,,901,485,Sold,,,https://www.redfin.com/CA/Newport-Beach/1-Wayside-92657/home/5928306,CRMLS,OC21082593,N,Y,33.6026014,-117.8083111
PAST SALE,March-19-2019,Single Family Residential,21 Shadowcast,Newport Coast,CA,92657,3480000,4,4.5,N26 - Newport Coast,3858,6746,2005,,902,453,Sold,,,https://www.redfin.com/CA/Newport-Beach/21-Shadowcast-92657/home/5928394,CRMLS,NP18266645,N,Y,33.5990906,-117.8101232
PAST SALE,December-16-2020,Single Family Residential,6 Needlegrass,Newport Coast,CA,92657,7100000,5,5.5,N26 - Newport Coast,5529,11063,2016,,1284,485,Sold,,,https://www.redfin.com/CA/Newport-Beach/6-Needlegrass-92657/home/5927617,CRMLS,OC20176966,N,Y,33.5944319,-117.8130635
PAST SALE,May-10-2019,Single Family Residential,17 Coral Rdg,Newport Coast,CA,92657,12300000,6,6.5,CR - Crystal Cove,6863,23892,2017,,1792,1047,Sold,,,https://www.redfin.com/CA/Newport-Beach/17-Coral-Rdg-92657/home/7202942,CRMLS,OC19012148,N,Y,33.5809056,-117.8248671
PAST SALE,September-25-2020,Single Family Residential,28 Still Water,Newport Coast,CA,92657,2565000,4,4.5,N26 - Newport Coast,3529,5679,2005,,727,585,Sold,,,https://www.redfin.com/CA/Newport-Coast/28-Still-Water-92657/home/5929127,CRMLS,OC20133401,N,Y,33.6051417,-117.8053831
PAST SALE,November-4-2022,Single Family Residential,7 Seahaven,Newport Coast,CA,92657,6880000,4,5.0,N26 - Newport Coast,4592,13500,1994,,1498,790,Sold,,,https://www.redfin.com/CA/Newport-Beach/7-Seahaven-92657/home/4749089,CRMLS,OC22170865,N,Y,33.6018923,-117.8284411
PAST SALE,April-28-2020,Single Family Residential,44 Harcourt,Newport Coast,CA,92657,3100000,5,4.5,N26 - Newport Coast,3955,10997,2000,,784,440,Sold,,,https://www.redfin.com/CA/Newport-Coast/44-Harcourt-92657/home/5766195,CRMLS,NP20035560,N,Y,33.6192687,-117.8388857
PAST SALE,June-26-2023,Single Family Residential,9 Seahaven,Newport Coast,CA,92657,6900000,4,5.5,N26 - Newport Coast,5753,13300,1996,,1199,889,Sold,,,https://www.redfin.com/CA/Newport-Beach/9-Seahaven-92657/home/4749088,CRMLS,OC23057735,N,Y,33.6019008,-117.8280747
PAST SALE,October-20-2021,Single Family Residential,16 Morning View Dr,Newport Coast,CA,92657,5150000,4,4.5,N26 - Newport Coast,5392,15000,1993,,955,505,Sold,,,https://www.redfin.com/CA/Newport-Coast/16-Morning-View-Dr-92657/home/4749196,CRMLS,OC21145898,N,Y,33.5955882,-117.8308223
PAST SALE,,Single Family Residential,28 Midsummer,Newport Coast,CA,92657,41000000,4,8.5,,17624,33004,2014,,2326,,,,,https://www.redfin.com/CA/Newport-Coast/28-Midsummer-92657/home/7213134,,,N,Y,33.579628,-117.826348
PAST SALE,July-21-2023,Single Family Residential,20 Sable Sands,Newport Coast,CA,92657,4700000,3,3.5,N26 - Newport Coast,2964,6044,1998,,1586,899,Sold,,,https://www.redfin.com/CA/Newport-Beach/20-Sable-Sands-92657/home/4749279,CRMLS,NP23051218,N,Y,33.5933208,-117.8338445
PAST SALE,,Single Family Residential,24 Fairway Pt,Newport Coast,CA,92657,8800000,6,8.0,,8834,18500,2003,,996,,,,,https://www.redfin.com/CA/Newport-Coast/24-Fairway-Pt-92657/home/4746967,,,N,Y,33.5959022,-117.8510611
PAST SALE,August-24-2020,Single Family Residential,28 Sable Sands,Newport Coast,CA,92657,3150000,3,3.5,N26 - Newport Coast,3421,6768,1997,,921,770,Sold,,,https://www.redfin.com/CA/Newport-Coast/28-Sable-Sands-92657/home/4749282,CRMLS,NP20091102,N,Y,33.5934107,-117.8332263
PAST SALE,November-6-2019,Single Family Residential,29 Andiamo,Newport Coast,CA,92657,2650000,4,3.0,N26 - Newport Coast,3001,6042,1997,,883,490,Sold,,,https://www.redfin.com/CA/Newport-Coast/29-Andiamo-92657/home/4749428,CRMLS,NP19201102,N,Y,33.6074341,-117.8199117
PAST SALE,June-28-2019,Single Family Residential,52 Archipelago Dr,Newport Coast,CA,92657,6500000,5,5.5,CR - Crystal Cove,4300,20598,2004,,1512,615,Sold,,,https://www.redfin.com/CA/Newport-Beach/52-Archipelago-Dr-92657/home/5856572,CRMLS,PW19018240,N,Y,33.5735626,-117.8295401
PAST SALE,June-22-2020,Single Family Residential,45 Renata,Newport Coast,CA,92657,2150000,4,3.0,N26 - Newport Coast,2814,4156,1999,,764,310,Sold,,,https://www.redfin.com/CA/Newport-Coast/45-Renata-92657/home/4749607,CRMLS,OC20069257,N,Y,33.6062997,-117.8233922
PAST SALE,June-2-2021,Single Family Residential,6 Bellevue,Newport Coast,CA,92657,1995000,3,2.5,N26 - Newport Coast,2473,3850,1995,,807,389,Sold,,,https://www.redfin.com/CA/Newport-Coast/6-Bellevue-92657/home/4737149,CRMLS,OC21012222,N,Y,33.6081274,-117.8313947
PAST SALE,May-31-2019,Single Family Residential,2 Star Catcher,Newport Coast,CA,92657,6280000,5,5.5,N26 - Newport Coast,6013,13219,2007,,1044,475,Sold,,,https://www.redfin.com/CA/Newport-Coast/2-Star-Catcher-92657/home/5927661,CRMLS,OC19038857,N,Y,33.595149,-117.8107804
PAST SALE,December-11-2020,Single Family Residential,16 Coral Reef,Newport Coast,CA,92657,2750000,3,3.5,N26 - Newport Coast,3421,7058,1997,,804,765,Sold,,,https://www.redfin.com/CA/Newport-Coast/16-Coral-Reef-92657/home/4749244,CRMLS,OC20200946,N,Y,33.5942344,-117.8346458
PAST SALE,April-18-2022,Single Family Residential,5 Clear Water,Newport Coast,CA,92657,15800000,5,6.0,CR - Crystal Cove,6435,18442,2015,,2455,1325,Sold,,,https://www.redfin.com/CA/Newport-Beach/5-Clear-Water-92657/home/5957785,CRMLS,NP22015550,N,Y,33.5824497,-117.8314633
PAST SALE,June-29-2021,Single Family Residential,43 Ocean Heights Dr,Newport Coast,CA,92657,5200000,3,3.5,N26 - Newport Coast,3678,11489,2002,,1414,728,Sold,,,https://www.redfin.com/CA/Newport-Coast/43-Ocean-Heights-Dr-92657/home/5811752,CRMLS,OC21039515,N,Y,33.602503,-117.8170178
PAST SALE,October-27-2022,Single Family Residential,20 Renata,Newport Coast,CA,92657,2680000,4,3.5,N26 - Newport Coast,3090,4768,1999,,867,415,Sold,,,https://www.redfin.com/CA/Newport-Coast/20-Renata-92657/home/4749711,CRMLS,NP22176191,N,Y,33.6076436,-117.822284
PAST SALE,December-26-2019,Single Family Residential,15 Riez,Newport Coast,CA,92657,2237500,4,3.5,N26 - Newport Coast,3474,7764,2000,,644,440,Sold,,,https://www.redfin.com/CA/Newport-Coast/15-Riez-92657/home/5810102,CRMLS,OC19239579,N,Y,33.6253552,-117.840959
PAST SALE,November-8-2021,Single Family Residential,2 Windemere Ct,Newport Coast,CA,92657,7350000,5,4.5,N26 - Newport Coast,5367,14000,1993,,1369,863,Sold,,,https://www.redfin.com/CA/Newport-Beach/2-Windemere-Ct-92657/home/4749189,CRMLS,OC21183214,N,Y,33.5966417,-117.8314633
PAST SALE,July-13-2020,Single Family Residential,9 Observatory,Newport Coast,CA,92657,2537500,4,3.5,N26 - Newport Coast,3631,7158,2004,,699,475,Sold,,,https://www.redfin.com/CA/Newport-Beach/9-Observatory-92657/home/5928803,CRMLS,OC20073101,N,Y,33.6015446,-117.80612
PAST SALE,November-8-2019,Single Family Residential,28 Wharfside Dr,Newport Coast,CA,92657,3950000,4,3.5,CR - Crystal Cove,3345,7527,2001,,1181,700,Sold,,,https://www.redfin.com/CA/Newport-Coast/28-Wharfside-Dr-92657/home/5767704,CRMLS,OC19189040,N,Y,33.5720538,-117.8361569
PAST SALE,November-9-2020,Single Family Residential,22 Via Ambra,Newport Coast,CA,92657,4500000,4,4.5,N26 - Newport Coast,3923,11165,2000,,1147,693,Sold,,,https://www.redfin.com/CA/Newport-Coast/22-Via-Ambra-92657/home/4749803,CRMLS,OC20162423,N,Y,33.5993928,-117.8218486
PAST SALE,,Single Family Residential,16 Menton,Newport Coast,CA,92657,1000000,3,2.5,,1912,4250,1994,,523,,,,,https://www.redfin.com/CA/Newport-Coast/16-Menton-92657/home/4736771,,,N,Y,33.6122055,-117.8348685
PAST SALE,July-17-2020,Single Family Residential,7 Sailview,Newport Coast,CA,92657,6635000,8,7.5,N26 - Newport Coast,8852,18901,1996,,750,835,Sold,,,https://www.redfin.com/CA/Newport-Coast/7-Sailview-92657/home/4746803,CRMLS,NP20065485,N,Y,33.6008801,-117.8484971
PAST SALE,June-28-2019,Single Family Residential,1 Sunrise,Newport Coast,CA,92657,4090000,5,5.5,N26 - Newport Coast,5294,9717,2006,,773,453,Sold,,,https://www.redfin.com/CA/Newport-Coast/1-Sunrise-92657/home/5927453,CRMLS,OC19069793,N,Y,33.5975278,-117.8105811
PAST SALE,February-10-2020,Single Family Residential,10 Faenza,Newport Coast,CA,92657,4262500,6,5.5,N26 - Newport Coast,5200,10551,2000,,820,589,Sold,,,https://www.redfin.com/CA/Newport-Coast/10-Faenza-92657/home/4749937,CRMLS,NP19243451,N,Y,33.5991615,-117.8132121
PAST SALE,October-8-2021,Single Family Residential,19 Dorian,Newport Coast,CA,92657,1800000,4,2.5,N26 - Newport Coast,2498,3956,1995,,721,389,Sold,,,https://www.redfin.com/CA/Newport-Coast/19-Dorian-92657/home/4737188,CRMLS,OC21147298,N,Y,33.6084421,-117.830433
PAST SALE,January-29-2021,Single Family Residential,10 Vernon,Newport Coast,CA,92657,2400000,4,3.5,N26 - Newport Coast,3655,6992,1996,,657,440,Sold,,,https://www.redfin.com/CA/Newport-Beach/10-Vernon-92657/home/4737509,CRMLS,OC20223317,N,Y,33.6166575,-117.8376882
PAST SALE,August-18-2023,Single Family Residential,12 Tideline Blf,Newport Coast,CA,92657,8895000,4,3.5,CR - Crystal Cove,3982,6229,2004,,2234,780,Sold,,,https://www.redfin.com/CA/Newport-Coast/12-Tideline-Blf-92657/home/5930616,CRMLS,OC23071026,N,Y,33.572577,-117.8329287
PAST SALE,June-28-2019,Single Family Residential,21 Harcourt,Newport Coast,CA,92657,2750000,5,3.5,N26 - Newport Coast,3800,7284,2001,,724,445,Sold,,,https://www.redfin.com/CA/Newport-Coast/21-Harcourt-92657/home/5766165,CRMLS,OC19072952,N,Y,33.6192708,-117.8402808
PAST SALE,June-30-2021,Single Family Residential,14 Sidney Bay Dr,Newport Coast,CA,92657,5300000,5,4.5,CR - Crystal Cove,3500,6426,2002,,1514,700,Sold,,,https://www.redfin.com/CA/Newport-Coast/14-Sidney-Bay-Dr-92657/home/5811372,CRMLS,NP21032666,N,Y,33.5770144,-117.8380878
PAST SALE,August-7-2020,Single Family Residential,6 Veranda,Newport Coast,CA,92657,2435000,4,3.5,N26 - Newport Coast,2900,5841,2004,,840,542,Sold,,,https://www.redfin.com/CA/Newport-Coast/6-Veranda-92657/home/5928190,CRMLS,OC20087307,N,Y,33.6036439,-117.8073982
PAST SALE,March-15-2022,Single Family Residential,12 Vincennes,Newport Coast,CA,92657,3550000,4,3.5,N26 - Newport Coast,3350,7181,2001,,1060,440,Sold,,,https://www.redfin.com/CA/Newport-Beach/12-Vincennes-92657/home/5766126,CRMLS,OC21244519,N,Y,33.6204165,-117.8403127
PAST SALE,February-2-2022,Single Family Residential,12 Coral Cay,Newport Coast,CA,92657,6350000,5,4.5,CR - Crystal Cove,4300,11154,2006,,1477,760,Sold,,,https://www.redfin.com/CA/Newport-Coast/12-Coral-Cay-92657/home/7213097,CRMLS,OC21243662,N,Y,33.5859504,-117.8219613
