SALE TYPE,SOLD DATE,PROPERTY TYPE,ADDRESS,CITY,STATE OR PROVINCE,ZIP OR POSTAL CODE,PRICE,BEDS,BATHS,LOCATION,SQUARE FEET,LOT SIZE,YEAR BUILT,DAYS ON MARKET,$/SQUARE FEET,HOA/MONTH,STATUS,NEXT OPEN HOUSE START TIME,NEXT OPEN HOUSE END TIME,URL (SEE https://www.redfin.com/buy-a-home/comparative-market-analysis FOR INFO ON PRICING),SOURCE,MLS#,FAVORITE,INTERESTED,LATITUDE,LONGITUDE
PAST SALE,,Condo/Co-op,122 Legendary Cir,Palm Beach Gardens,FL,33418,700000,3,2.0,,1912,,1989,,366,,,,,https://www.redfin.com/FL/Palm-Beach-Gardens/122-Legendary-Cir-33418/home/42445886,,,N,Y,26.829084,-80.150676
PAST SALE,July-12-2023,Condo/Co-op,3040 Lake Shore Dr #302,Riviera Beach,FL,33404,385000,2,2.0,Lake Harbor Cove Condo,1440,,1978,,267,1108,Sold,,,https://www.redfin.com/FL/Riviera-Beach/3040-Lake-Shore-Dr-33404/unit-302/home/42462107,Beaches MLS,RX-10892897,N,Y,26.787431,-80.051028
PAST SALE,July-27-2023,Condo/Co-op,16 Via De Casas Sur #204,Boynton Beach,FL,33426,245000,2,2.0,South Lake Condo at Dos Lagos,1482,,1989,,165,661,Sold,,,https://www.redfin.com/FL/Boynton-Beach/16-Via-De-Casas-Sur-33426/unit-204/home/42343612,Beaches MLS,RX-10895726,N,Y,26.5537493,-80.088504
PAST SALE,May-12-2023,Condo/Co-op,1024 NW 13th St Unit 129b,Boca Raton,FL,33486,235000,2,2.0,Boca Linda Condo,978,,1973,,240,356,Sold,,,https://www.redfin.com/FL/Boca-Raton/1024-NW-13th-St-33486/unit-129B/home/42309573,Beaches MLS,RX-10865261,N,Y,26.360527,-80.1069355
PAST SALE,June-14-2023,Condo/Co-op,13213 Lucinda Palm Ct Unit F,Delray Beach,FL,33484,235000,2,2.0,Palm Greens AT Villa Del Ray Condo,1196,43560,1980,,196,470,Sold,,,https://www.redfin.com/FL/Delray-Beach/13213-Lucinda-Palm-Ct-33484/unit-F/home/42218981,Beaches MLS,RX-10865471,N,Y,26.4827311,-80.1341988
PAST SALE,June-9-2023,Condo/Co-op,200 Arkona Ct #1101,West Palm Beach,FL,33401,3741990,3,3.5,La Clara,3158,,2023,,1185,3245,Sold,,,https://www.redfin.com/FL/West-Palm-Beach/200-Arkona-Ct-33401/unit-1101/home/185753233,Beaches MLS,RX-10896873,N,Y,26.699821,-80.0513967
PAST SALE,June-9-2023,Condo/Co-op,200 Arkona Ct #804,West Palm Beach,FL,33401,3979920,3,3.5,La Clara,3094,,2023,,1286,3153,Sold,,,https://www.redfin.com/FL/West-Palm-Beach/200-Arkona-Ct-33401/unit-804/home/185752932,Beaches MLS,RX-10896872,N,Y,26.699821,-80.0513967
PAST SALE,,Condo/Co-op,14701 Cumberland Dr #1050,Delray Beach,FL,33446,200000,1,2.0,,866,,1979,,231,,,,,https://www.redfin.com/FL/Delray-Beach/14701-Cumberland-Dr-33446/unit-1050/home/42219151,,,N,Y,26.458005,-80.156415
PAST SALE,,Condo/Co-op,1012 Villa Ln,Boynton Beach,FL,33435,210000,1,1.0,,750,,2002,,280,,,,,https://www.redfin.com/FL/Boynton-Beach/1012-Villa-Ln-33435/home/42576330,,,N,Y,26.5018429,-80.0631131
PAST SALE,,Condo/Co-op,6600 S Oriole Blvd #1060,Delray Beach,FL,33446,220000,2,2.0,,1005,,1980,,219,,,,,https://www.redfin.com/FL/Delray-Beach/6600-S-Oriole-Blvd-33446/unit-1060/home/42224825,,,N,Y,26.4562097,-80.1565954
PAST SALE,,Condo/Co-op,7099 Rain Forest Dr Unit B-3-L,Boca Raton,FL,33434,290000,2,2.0,,1248,,1983,,232,,,,,https://www.redfin.com/FL/Boca-Raton/7099-Rain-Forest-Dr-33434/unit-B-3-L/home/42248509,,,N,Y,26.3811523,-80.1534602
PAST SALE,,Condo/Co-op,13334 Polo Club Rd #324,Wellington,FL,33414,675000,1,2.0,,1400,,1979,,482,,,,,https://www.redfin.com/FL/Wellington/13334-Polo-Club-Rd-33414/unit-324/home/42502513,,,N,Y,26.6430278,-80.2570701
PAST SALE,May-19-2023,Condo/Co-op,1625 S Ocean 14 Blvd Unit A-3 North,Delray Beach,FL,33448,6794100,3,3.5,.,3681,,2021,,1846,4056,Sold,,,https://www.redfin.com/FL/Delray-Beach/1625-S-Ocean-Blvd-33483/unit-A-3-North/home/183808971,Beaches MLS,RX-10858270,N,Y,26.4409222,-80.0617215
PAST SALE,,Condo/Co-op,704 Burgundy O,Delray Beach,FL,33484,107500,1,1.5,,760,,1979,,141,,,,,https://www.redfin.com/FL/Delray-Beach/704-Burgundy-O-33484/home/42228446,,,N,Y,26.445271,-80.131475
PAST SALE,,Condo/Co-op,371 Burgundy H,Delray Beach,FL,33484,122000,2,2.0,,907,,1979,,135,,,,,https://www.redfin.com/FL/Delray-Beach/371-Burgundy-H-33484/home/42230528,,,N,Y,26.445271,-80.131475
PAST SALE,May-19-2023,Condo/Co-op,1625 S Ocean Blvd Unit B-1 North 2/8,Delray Beach,FL,33483,10898999,3,3.5,0,5855,51070,2022,,1861,4056,Sold,,,https://www.redfin.com/FL/Delray-Beach/1625-S-Ocean-Blvd-33483/unit-B-1-North-2-8/home/183021153,Beaches MLS,RX-10848061,N,Y,26.4409181,-80.0617068
PAST SALE,,Condo/Co-op,350 S Ocean Blvd #0131,Boca Raton,FL,33432,2900000,3,3.0,,2523,,1977,,1149,,,,,https://www.redfin.com/FL/Boca-Raton/350-S-Ocean-Blvd-33432/unit-0131/home/42325643,,,N,Y,26.3472728,-80.0702119
PAST SALE,,Condo/Co-op,1000 Spanish River Rd Unit 2L,Boca Raton,FL,33432,314000,2,2.0,,1375,,1972,,228,,,,,https://www.redfin.com/FL/Boca-Raton/1000-Spanish-River-Rd-33432/unit-2L/home/42648039,,,N,Y,26.3383859,-80.0761591
PAST SALE,July-11-2023,Condo/Co-op,200 Arkona Ct #1702,West Palm Beach,FL,33401,2418234,2,2.5,La Clara,1516,,2023,,1595,1579,Sold,,,https://www.redfin.com/FL/West-Palm-Beach/200-Arkona-Ct-33401/unit-1702/home/186145249,Beaches MLS,RX-10905170,N,Y,26.699821,-80.0513967
PAST SALE,July-6-2023,Condo/Co-op,200 Arkona Ct #1604,West Palm Beach,FL,33401,3944150,3,3.5,La Clara,3094,,2023,,1275,3153,Sold,,,https://www.redfin.com/FL/West-Palm-Beach/200-Arkona-Ct-33401/unit-1604/home/186065150,Beaches MLS,RX-10903333,N,Y,26.699821,-80.0513967
PAST SALE,,Condo/Co-op,3212 Renaissance Way #212,Boynton Beach,FL,33426,319000,2,2.0,,1240,,2006,,257,,,,,https://www.redfin.com/FL/Boynton-Beach/3212-Renaissance-Way-33426/unit-212/home/42610509,,,N,Y,26.5404487,-80.0897997
PAST SALE,June-28-2023,Condo/Co-op,200 Arkona Ct #1501,West Palm Beach,FL,33401,3092900,3,3.5,La Clara,3158,,2023,,979,3245,Sold,,,https://www.redfin.com/FL/West-Palm-Beach/200-Arkona-Ct-33401/unit-1501/home/185966115,Beaches MLS,RX-10900974,N,Y,26.699821,-80.0513967
PAST SALE,July-5-2023,Condo/Co-op,200 Arkona Ct #601,West Palm Beach,FL,33401,3291707,3,3.5,La Clara,3158,,2023,,1042,3245,Sold,,,https://www.redfin.com/FL/West-Palm-Beach/200-Arkona-Ct-33401/unit-601/home/186065113,Beaches MLS,RX-10896834,N,Y,26.699821,-80.0513967
PAST SALE,,Condo/Co-op,1701 S Flagler Dr #502,West Palm Beach,FL,33401,1260000,3,2.0,,1776,,1973,,709,,,,,https://www.redfin.com/FL/West-Palm-Beach/1701-S-Flagler-Dr-33401/unit-502/home/42518823,,,N,Y,26.6987773,-80.0508291
PAST SALE,July-11-2023,Condo/Co-op,200 Arkona Ct #1601,West Palm Beach,FL,33401,4651480,3,3.5,La Clara,3158,,2023,,1473,3245,Sold,,,https://www.redfin.com/FL/West-Palm-Beach/200-Arkona-Ct-33401/unit-1601/home/176986474,Beaches MLS,RX-10903184,N,Y,26.699821,-80.0513967
PAST SALE,,Condo/Co-op,101 N Clematis St #420,West Palm Beach,FL,33401,552500,1,1.5,,948,,2001,,583,,,,,https://www.redfin.com/FL/West-Palm-Beach/101-N-Clematis-St-33401/unit-420/home/42615944,,,N,Y,26.7140136,-80.0504362
PAST SALE,,Condo/Co-op,2700 Fiore Way #2100,Delray Beach,FL,33445,245000,2,2.0,,1023,,1978,,239,,,,,https://www.redfin.com/FL/Delray-Beach/2700-Fiore-Way-33445/unit-2100/home/42366138,,,N,Y,26.4476555,-80.1033984
PAST SALE,,Condo/Co-op,2717 Ponce de Leon Blvd #23,Delray Beach,FL,33445,210000,2,2.0,,1050,,1983,,200,,,,,https://www.redfin.com/FL/Delray-Beach/2717-Ponce-de-Leon-Blvd-33445/unit-23/home/42373843,,,N,Y,26.4458031,-80.1042352
PAST SALE,,Condo/Co-op,1395 SW 27th Ave #101,Delray Beach,FL,33445,300000,2,2.0,,1167,,1979,,257,,,,,https://www.redfin.com/FL/Delray-Beach/1395-SW-27th-Ave-33445/unit-101/home/42369904,,,N,Y,26.4418029,-80.1032623
PAST SALE,,Condo/Co-op,2615 NE 1st Ct #207,Boynton Beach,FL,33435,36000,1,1.5,,758,,1976,,47,,,,,https://www.redfin.com/FL/Boynton-Beach/2615-NE-1st-Ct-33435/unit-207/home/42338983,,,N,Y,26.552939,-80.0644281
PAST SALE,,Condo/Co-op,6200 NW 2nd Ave #1110,Boca Raton,FL,33487,360000,2,2.5,,1750,,1977,,206,,,,,https://www.redfin.com/FL/Boca-Raton/6200-NW-2nd-Ave-33487/unit-1110/home/42311164,,,N,Y,26.4052963,-80.0817347
PAST SALE,,Condo/Co-op,2600 N Flagler Dr #1003,West Palm Beach,FL,33407,550000,3,2.0,,1480,,1969,,372,,,,,https://www.redfin.com/FL/West-Palm-Beach/2600-N-Flagler-Dr-33407/unit-1003/home/42514550,,,N,Y,26.7369736,-80.0497815
PAST SALE,July-24-2023,Condo/Co-op,200 Arkona Ct #1802,West Palm Beach,FL,33401,2506000,2,2.5,La Clara,1516,,2023,,1653,1579,Sold,,,https://www.redfin.com/FL/West-Palm-Beach/200-Arkona-Ct-33401/unit-1802/home/186195898,Beaches MLS,RX-10906485,N,Y,26.699821,-80.0513967
PAST SALE,July-24-2023,Condo/Co-op,200 Arkona Ct #1803,West Palm Beach,FL,33401,2708750,2,2.5,Tmi 3 Subdivision,2044,107815,2023,,1325,2150,Sold,,,https://www.redfin.com/FL/West-Palm-Beach/200-Arkona-Ct-33401/unit-1803/home/186195906,Beaches MLS,RX-10906487,N,Y,26.699821,-80.0513967
PAST SALE,July-18-2023,Condo/Co-op,200 Arkona Ct #1804,West Palm Beach,FL,33401,4186250,3,3.5,La Clara,3094,,2023,,1353,3153,Sold,,,https://www.redfin.com/FL/West-Palm-Beach/200-Arkona-Ct-33401/unit-1804/home/186195913,Beaches MLS,RX-10906489,N,Y,26.699821,-80.0513967
PAST SALE,,Condo/Co-op,19811 Boca West Dr,Boca Raton,FL,33434,250000,2,2.0,,1400,,1981,,179,,,,,https://www.redfin.com/FL/Boca-Raton/19811-Boca-West-Dr-33434/home/42250390,,,N,Y,26.383315,-80.1639345
PAST SALE,May-10-2023,Condo/Co-op,501 Lakeshore Dr #101,Lake Park,FL,33403,415000,2,2.0,Lake Harbour Towers,1316,,1970,,315,626,Sold,,,https://www.redfin.com/FL/Lake-Park/501-Lake-Shore-Dr-33403/unit-101/home/42416361,Beaches MLS,RX-10864465,N,Y,26.7970313,-80.0528535
PAST SALE,,Condo/Co-op,143 Yacht Club Dr #4,North Palm Beach,FL,33408,200000,2,1.0,,704,,1973,,284,,,,,https://www.redfin.com/FL/North-Palm-Beach/143-Yacht-Club-Dr-33408/unit-4/home/42480998,,,N,Y,26.8265995,-80.0593178
PAST SALE,,Condo/Co-op,5380 N Ocean Dr Unit 14E,Riviera Beach,FL,33404,450000,2,2.0,,1580,,1975,,285,,,,,https://www.redfin.com/FL/Riviera-Beach/5380-N-Ocean-Dr-33404/unit-14E/home/42456137,,,N,Y,26.8077208,-80.0345886
PAST SALE,,Condo/Co-op,1605 S US Highway 1 Unit V6-306,Jupiter,FL,33477,365000,2,2.0,,1200,,1979,,304,,,,,https://www.redfin.com/FL/Jupiter/1605-S-US-Highway-1-33477/unit-V6-306/home/42407074,,,N,Y,26.9208795,-80.0731259
PAST SALE,,Condo/Co-op,221 Ocean Grande Blvd Unit LN-7,Jupiter,FL,33477,1450000,2,2.5,,2064,,2002,,703,,,,,https://www.redfin.com/FL/Jupiter/221-Ocean-Grande-Blvd-33477/unit-LN-7/home/42570895,,,N,Y,26.9188315,-80.0661087
PAST SALE,July-14-2023,Condo/Co-op,34 Colonial Club Dr #100,Boynton Beach,FL,33435,200000,2,2.0,Colonial Club Condo Sec 1,1200,365,1974,,167,796,Sold,,,https://www.redfin.com/FL/Boynton-Beach/34-Colonial-Club-Dr-33435/unit-100/home/42348245,Beaches MLS,RX-10902435,N,Y,26.5008248,-80.0599754
PAST SALE,,Condo/Co-op,4475 N Ocean Blvd Unit 31E,Delray Beach,FL,33483,1050000,2,2.0,,1300,,1973,,808,,,,,https://www.redfin.com/FL/Delray-Beach/4475-N-Ocean-Blvd-33483/unit-31E/home/42359871,,,N,Y,26.5038011,-80.0530526
PAST SALE,,Condo/Co-op,4100 N Ocean Dr #2204,Riviera Beach,FL,33404,1250000,2,3.5,,2011,,1986,,622,,,,,https://www.redfin.com/FL/Riviera-Beach/4100-N-Ocean-Dr-33404/unit-2204/home/42462225,,,N,Y,26.796137,-80.032796
PAST SALE,,Condo/Co-op,1002 Captains Way #1002,Jupiter,FL,33477,1850000,2,2.0,,1952,,1988,,948,,,,,https://www.redfin.com/FL/Jupiter/1002-Captains-Way-33477/unit-1002/home/42417488,,,N,Y,26.909835,-80.086178
PAST SALE,,Condo/Co-op,100 Scotia Dr #203,Hypoluxo,FL,33462,390000,3,2.0,,1298,,2001,,300,,,,,https://www.redfin.com/FL/Hypoluxo/100-Scotia-Dr-33462/unit-203/home/42570480,,,N,Y,26.5624659,-80.0530121
PAST SALE,June-1-2023,Condo/Co-op,16551 Traders Xing #143,Jupiter,FL,33477,699000,2,2.0,Traders Crossing AT Jonathans Landing,1478,,1988,,473,945,Sold,,,https://www.redfin.com/FL/Jupiter/16551-Traders-Xing-S-33477/unit-143/home/42274281,Beaches MLS,RX-10893957,N,Y,26.9195509,-80.0917722
PAST SALE,August-1-2023,Condo/Co-op,900 Dogwood Dr #535,Delray Beach,FL,33483,335000,2,2.0,Tropic Bay Condo,1200,,1974,,279,778,Sold,,,https://www.redfin.com/FL/Delray-Beach/900-Dogwood-Dr-33483/unit-535/home/42368759,Beaches MLS,RX-10908534,N,Y,26.4303959,-80.069416
PAST SALE,,Condo/Co-op,216 Oak Harbour Dr,Juno Beach,FL,33408,460000,3,2.0,,1609,,1985,,286,,,,,https://www.redfin.com/FL/Juno-Beach/216-Oak-Harbour-Dr-33408/home/42395777,,,N,Y,26.8597697,-80.0656826
PAST SALE,,Condo/Co-op,1 Harbourside Dr #1303,Delray Beach,FL,33483,412000,2,2.0,,1085,,1975,,380,,,,,https://www.redfin.com/FL/Delray-Beach/1-Harbourside-Dr-33483/unit-1303/home/42369179,,,N,Y,26.4433135,-80.0668944
PAST SALE,July-27-2023,Condo/Co-op,1000 Lowry St Unit 1g,Delray Beach,FL,33483,550000,1,1.5,Delray Summit Condo,1015,,1966,,542,932,Sold,,,https://www.redfin.com/FL/Delray-Beach/1000-Lowry-St-33483/unit-1G/home/42361910,Beaches MLS,RX-10889514,N,Y,26.4632533,-80.0628463
PAST SALE,,Condo/Co-op,3301 S Ocean Blvd #1009,Highland Beach,FL,33487,760000,2,2.0,,1050,,1975,,724,,,,,https://www.redfin.com/FL/Highland-Beach/3301-S-Ocean-Blvd-33487/unit-1009/home/42397953,,,N,Y,26.4161115,-80.0641007
PAST SALE,May-12-2023,Condo/Co-op,287 Norwich L #287,West Palm Beach,FL,33417,80000,2,1.5,Century Village,819,43560,1970,,98,480,Sold,,,https://www.redfin.com/FL/West-Palm-Beach/287-Norwich-L-33417/unit-287/home/77462565,Beaches MLS,RX-10889445,N,Y,26.7200405,-80.1201729
PAST SALE,,Condo/Co-op,120 Sparrow Dr #114,Royal Palm Beach,FL,33411,215000,2,2.0,,1146,,1975,,188,,,,,https://www.redfin.com/FL/Royal-Palm-Beach/120-Sparrow-Dr-33411/unit-114/home/42613660,,,N,Y,26.7002976,-80.2280795
PAST SALE,May-26-2023,Condo/Co-op,3525 Village Blvd #404,West Palm Beach,FL,33409,230000,2,2.0,Whitehall Village,1385,,1985,,166,598,Sold,,,https://www.redfin.com/FL/West-Palm-Beach/3525-Village-Blvd-33409/unit-404/home/42517701,Beaches MLS,RX-10889958,N,Y,26.7422982,-80.0917722
PAST SALE,,Condo/Co-op,87 Hastings F,West Palm Beach,FL,33417,60000,1,1.5,,738,,1971,,81,,,,,https://www.redfin.com/FL/West-Palm-Beach/87-Hastings-F-33417/home/42138534,,,N,Y,26.722612,-80.1257689
PAST SALE,May-12-2023,Condo/Co-op,215 Sussex K,West Palm Beach,FL,33417,80000,1,1.0,Century Village,570,,1974,,140,480,Sold,,,https://www.redfin.com/FL/West-Palm-Beach/215-Sussex-K-33417/home/42623526,Beaches MLS,RX-10889305,N,Y,26.7201608,-80.1341952
PAST SALE,May-20-2023,Condo/Co-op,81 Waltham D,West Palm Beach,FL,33417,40000,1,1.5,Century Village,684,,1969,,58,500,Sold,,,https://www.redfin.com/FL/West-Palm-Beach/81-Waltham-D-33417/home/42141590,Beaches MLS,RX-10891372,N,Y,26.716811,-80.122574
PAST SALE,,Condo/Co-op,1500 N Congress Ave Unit C13,West Palm Beach,FL,33401,140000,1,1.0,,625,,1980,,224,,,,,https://www.redfin.com/FL/West-Palm-Beach/1500-N-Congress-Ave-33401/unit-C13/home/42520633,,,N,Y,26.7273451,-80.08899
PAST SALE,,Condo/Co-op,19183 Sabal Lake Dr,Boca Raton,FL,33434,128000,1,1.5,,1104,,1989,,116,,,,,https://www.redfin.com/FL/Boca-Raton/19183-Sabal-Lake-Dr-33434/home/42246551,,,N,Y,26.3927399,-80.1578103
PAST SALE,,Condo/Co-op,8831 Okeechobee Blvd #207,West Palm Beach,FL,33411,200000,2,2.0,,1085,,1999,,184,,,,,https://www.redfin.com/FL/West-Palm-Beach/8831-Okeechobee-Blvd-33411/unit-207/home/42616264,,,N,Y,26.7104416,-80.1810985
PAST SALE,,Condo/Co-op,1100 E Indiantown Rd #106,Jupiter,FL,33477,340000,2,2.0,,1052,,1973,,323,,,,,https://www.redfin.com/FL/Jupiter/1100-E-Indiantown-Rd-33477/unit-106/home/42402795,,,N,Y,26.9329814,-80.0730927
PAST SALE,,Condo/Co-op,353 S US Highway 1 Unit A303,Jupiter,FL,33477,472700,1,1.5,,821,,1984,,576,,,,,https://www.redfin.com/FL/Jupiter/353-S-US-Highway-1-33477/unit-A303/home/42411067,,,N,Y,26.9310124,-80.0768436
PAST SALE,,Condo/Co-op,2310 Myrtlewood Cir E,Palm Beach Gardens,FL,33418,265000,1,1.0,,636,,2004,,417,,,,,https://www.redfin.com/FL/Palm-Beach-Gardens/2310-Myrtlewood-Cir-E-33418/home/42599708,,,N,Y,26.87368,-80.106316
PAST SALE,May-12-2023,Condo/Co-op,25 Windsor B,West Palm Beach,FL,33417,80000,1,1.0,Century Village,585,,1972,,137,480,Sold,,,https://www.redfin.com/FL/West-Palm-Beach/25-Windsor-B-33417/home/42152988,Beaches MLS,RX-10889452,N,Y,26.7100569,-80.1360615
PAST SALE,,Condo/Co-op,300 Croton Ave #302,Lantana,FL,33462,375000,2,2.0,,1039,,1980,,361,,,,,https://www.redfin.com/FL/Lantana/300-Croton-Ave-33462/unit-302/home/42429755,,,N,Y,26.5873014,-80.0493441
PAST SALE,,Condo/Co-op,3500 Whitehall Dr #104,West Palm Beach,FL,33401,210000,2,2.0,,1385,,1984,,152,,,,,https://www.redfin.com/FL/West-Palm-Beach/3500-Whitehall-Dr-33401/unit-104/home/42646138,,,N,Y,26.7452652,-80.0860117
PAST SALE,,Condo/Co-op,3450 S Ocean Blvd #6200,Palm Beach,FL,33480,375000,1,1.5,,1008,,1971,,372,,,,,https://www.redfin.com/FL/Palm-Beach/3450-S-Ocean-Blvd-33480/unit-6200/home/42439624,,,N,Y,26.5948341,-80.037302
PAST SALE,,Condo/Co-op,4175 N Haverhill Rd #903,West Palm Beach,FL,33417,220000,2,2.0,,1021,,2000,,215,,,,,https://www.redfin.com/FL/West-Palm-Beach/4175-N-Haverhill-Rd-33417/unit-903/home/42653920,,,N,Y,26.738831,-80.1216162
PAST SALE,August-1-2023,Condo/Co-op,200 Waterway Rd #308,Tequesta,FL,33469,677500,2,2.0,TEQUESTA COVE CONDO,1283,,1985,,528,633,Sold,,,https://www.redfin.com/FL/Tequesta/200-Waterway-Rd-33469/unit-308/home/42470399,Stellar MLS,J964648,N,Y,26.9606723,-80.0820184
PAST SALE,August-1-2023,Condo/Co-op,550 Okeechobee Blvd #1507,West Palm Beach,FL,33401,820000,2,2.0,Cityplace South Tower Condo,1192,,2008,,688,934,Sold,,,https://www.redfin.com/FL/West-Palm-Beach/550-Okeechobee-Blvd-33401/unit-1507/home/42663785,Beaches MLS,RX-10907842,N,Y,26.7051244,-80.0561991
PAST SALE,July-25-2023,Condo/Co-op,200 Arkona Ct #1903,West Palm Beach,FL,33401,2912000,2,2.5,Tmi 3 Subdivision,2044,107815,2023,,1425,2150,Sold,,,https://www.redfin.com/FL/West-Palm-Beach/200-Arkona-Ct-33401/unit-1903/home/186263389,Beaches MLS,RX-10908097,N,Y,26.699821,-80.0513967
PAST SALE,July-24-2023,Condo/Co-op,200 Arkona Ct #1704,West Palm Beach,FL,33401,3910450,3,3.5,Tmi 3 Subdivision,3094,107815,2023,,1264,3153,Sold,,,https://www.redfin.com/FL/West-Palm-Beach/200-Arkona-Ct-33401/unit-1704/home/186263368,Beaches MLS,RX-10908095,N,Y,26.699821,-80.0513967
PAST SALE,,Condo/Co-op,211 Sheffield I,West Palm Beach,FL,33417,81000,1,1.0,,615,,1971,,132,,,,,https://www.redfin.com/FL/West-Palm-Beach/211-Sheffield-I-33417/home/42154012,,,N,Y,26.720176,-80.1261024
PAST SALE,,Condo/Co-op,297 Preston H,Boca Raton,FL,33434,152000,1,1.5,,715,,1981,,213,,,,,https://www.redfin.com/FL/Boca-Raton/297-Preston-H-33434/home/42242904,,,N,Y,26.3931991,-80.1776136
PAST SALE,June-1-2023,Condo/Co-op,16695 Traders Xing N #120,Jupiter,FL,33477,825000,3,2.0,Traders Crossing AT Jonathans Landing,1796,,1988,,459,1090,Sold,,,https://www.redfin.com/FL/Jupiter/16695-Traders-Xing-N-33477/unit-120/home/42273785,Beaches MLS,RX-10893974,N,Y,26.9236419,-80.091685
PAST SALE,,Condo/Co-op,700 S US Highway 1 #501,Jupiter,FL,33477,3500000,4,4.5,,3135,,2005,,1116,,,,,https://www.redfin.com/FL/Jupiter/700-S-US-Highway-1-33477/unit-501/home/42607711,,,N,Y,26.927761,-80.078329
PAST SALE,,Condo/Co-op,3682 Quail Ridge Dr N,Boynton Beach,FL,33436,525000,2,2.0,,1300,,1979,,404,,,,,https://www.redfin.com/FL/Boynton-Beach/3682-Quail-Ridge-Dr-N-33436/home/42296571,,,N,Y,26.5114244,-80.0995082
PAST SALE,,Condo/Co-op,41 Norwich B,West Palm Beach,FL,33417,63401,1,1.5,,738,,1970,,86,,,,,https://www.redfin.com/FL/West-Palm-Beach/41-Norwich-B-33417/home/42144584,,,N,Y,26.718523,-80.1212539
PAST SALE,,Condo/Co-op,1302 New World Ave #3,Lantana,FL,33462,68760,1,1.0,,655,,1984,,105,,,,,https://www.redfin.com/FL/Lantana/1302-New-World-Ave-33462/unit-3/home/42431044,,,N,Y,26.590503,-80.0659593
PAST SALE,,Condo/Co-op,4101 Oak Terrace Dr,Greenacres,FL,33463,172500,2,2.0,,883,,1981,,195,,,,,https://www.redfin.com/FL/Greenacres/4101-Oak-Terrace-Dr-33463/home/42387270,,,N,Y,26.610922,-80.139373
PAST SALE,July-25-2023,Condo/Co-op,200 Arkona Ct #1603,West Palm Beach,FL,33401,3489855,2,2.5,Tmi 3 Subdivision,2044,107815,2023,,1707,2150,Sold,,,https://www.redfin.com/FL/West-Palm-Beach/200-Arkona-Ct-33401/unit-1603/home/186263246,Beaches MLS,RX-10899342,N,Y,26.699821,-80.0513967
PAST SALE,,Condo/Co-op,6486 Via Regina #1,Boca Raton,FL,33433,290000,2,2.0,,1108,,1985,,262,,,,,https://www.redfin.com/FL/Boca-Raton/6486-Via-Regina-33433/unit-1/home/42275349,,,N,Y,26.3329034,-80.1458657
PAST SALE,,Condo/Co-op,450 NW 20th St #1060,Boca Raton,FL,33431,269000,2,2.0,,936,,1980,,287,,,,,https://www.redfin.com/FL/Boca-Raton/450-NW-20th-St-33431/unit-1060/home/42321875,,,N,Y,26.3674154,-80.0947396
PAST SALE,,Condo/Co-op,1825 Bridgewood Dr,Boca Raton,FL,33434,235000,2,2.0,,1255,,1974,,187,,,,,https://www.redfin.com/FL/Boca-Raton/1825-Bridgewood-Dr-33434/home/42248953,,,N,Y,26.3738936,-80.1644199
PAST SALE,,Condo/Co-op,538 Mansfield M,Boca Raton,FL,33434,130000,1,1.5,,715,,1980,,182,,,,,https://www.redfin.com/FL/Boca-Raton/538-Mansfield-M-33434/home/42632373,,,N,Y,26.3912209,-80.1747361
PAST SALE,,Condo/Co-op,3140 S Ocean Blvd #502,Palm Beach,FL,33480,1150000,2,2.0,,2220,,1982,,518,,,,,https://www.redfin.com/FL/Palm-Beach/3140-S-Ocean-Blvd-33480/unit-502/home/42443379,,,N,Y,26.606269,-80.0373372
PAST SALE,,Condo/Co-op,1801 N Flagler Dr #501,West Palm Beach,FL,33407,650000,2,2.0,,1334,,2001,,487,,,,,https://www.redfin.com/FL/West-Palm-Beach/1801-N-Flagler-Dr-33407/unit-501/home/42592330,,,N,Y,26.7293708,-80.0504798
PAST SALE,May-5-2023,Condo/Co-op,14773 Cumberland Dr Unit 102 D,Delray Beach,FL,33446,130000,2,2.0,Villages OF Oriole Deauville Condo,1006,,1980,,129,606,Sold,,,https://www.redfin.com/FL/Delray-Beach/14773-Cumberland-Dr-33446/unit-102-D/home/185342381,Beaches MLS,RX-10887377,N,Y,26.4578845,-80.1570928
PAST SALE,July-1-2023,Condo/Co-op,1700 Windorah Way Unit E,West Palm Beach,FL,33417,200000,2,2.0,Palm Beach Place Condo,904,,1989,,221,315,Sold,,,https://www.redfin.com/FL/West-Palm-Beach/1700-Windorah-Way-33411/unit-E/home/42617653,Beaches MLS,RX-10898478,N,Y,26.7033338,-80.1725929
PAST SALE,,Condo/Co-op,706 Executive Center Dr #32,West Palm Beach,FL,33401,179000,2,2.0,,753,,1986,,238,,,,,https://www.redfin.com/FL/West-Palm-Beach/706-Executive-Center-Dr-33401/unit-32/home/42652197,,,N,Y,26.7114261,-80.0748605
PAST SALE,,Condo/Co-op,23395 Carolwood Ln #206,Boca Raton,FL,33428,280000,2,2.0,,1160,,1980,,241,,,,,https://www.redfin.com/FL/Boca-Raton/23395-Carolwood-Ln-33428/unit-206/home/42268091,,,N,Y,26.3290748,-80.1978408
PAST SALE,May-11-2023,Condo/Co-op,32 Clubhouse Ln,Boynton Beach,FL,33436,680000,2,2.0,Essex AT Hunters Run Condo,2765,,1989,,246,1412,Sold,,,https://www.redfin.com/FL/Boynton-Beach/32-Clubhouse-Ln-33436/home/42669543,Beaches MLS,RX-10886105,N,Y,26.4943906,-80.0981231
PAST SALE,June-27-2023,Condo/Co-op,200 Arkona Ct #1503,West Palm Beach,FL,33401,2582600,2,2.5,Tmi 3 Subdivision,2044,107815,2023,,1264,2150,Sold,,,https://www.redfin.com/FL/West-Palm-Beach/200-Arkona-Ct-33401/unit-1503/home/185966159,Beaches MLS,RX-10900976,N,Y,26.699821,-80.0513967
PAST SALE,July-6-2023,Condo/Co-op,200 Arkona Ct #1504,West Palm Beach,FL,33401,3792250,3,3.5,La Clara,3094,,2023,,1226,3153,Sold,,,https://www.redfin.com/FL/West-Palm-Beach/200-Arkona-Ct-33401/unit-1504/home/186065117,Beaches MLS,RX-10903183,N,Y,26.699821,-80.0513967
PAST SALE,,Condo/Co-op,228 Fanshaw F,Boca Raton,FL,33434,163000,2,1.5,,835,,1980,,195,,,,,https://www.redfin.com/FL/Boca-Raton/228-Fanshaw-F-33434/home/42246448,,,N,Y,26.3845989,-80.1747395
PAST SALE,,Condo/Co-op,110 Fanshaw C,Boca Raton,FL,33434,125000,1,1.5,,715,,1979,,175,,,,,https://www.redfin.com/FL/Boca-Raton/110-Fanshaw-C-33434/home/42632261,,,N,Y,26.384826,-80.174459
PAST SALE,,Condo/Co-op,502 Waterside Dr Unit 502BLD,Hypoluxo,FL,33462,210000,2,2.0,,850,,1991,,247,,,,,https://www.redfin.com/FL/Hypoluxo/502-Waterside-Dr-33462/unit-502BLD/home/42392481,,,N,Y,26.555796,-80.056969
PAST SALE,July-17-2023,Condo/Co-op,524 Fanshaw M,Boca Raton,FL,33434,110000,1,1.5,Century Village,715,,1980,,154,273,Sold,,,https://www.redfin.com/FL/Boca-Raton/524-Fanshaw-M-33434/home/42631632,Beaches MLS,RX-10895106,N,Y,26.3845989,-80.1747395
PAST SALE,,Condo/Co-op,1100 S Flagler Dr #2003,West Palm Beach,FL,33401,19000000,,,,,,,,,,,,,https://www.redfin.com/FL/West-Palm-Beach/1100-S-Flagler-Dr-33401/unit-2003/home/168183460,,,N,Y,26.7037336,-80.0493883
PAST SALE,July-18-2023,Condo/Co-op,200 Arkona Ct #1701,West Palm Beach,FL,33401,4089100,3,3.5,La Clara,3158,,2023,,1295,3245,Sold,,,https://www.redfin.com/FL/West-Palm-Beach/200-Arkona-Ct-33401/unit-1701/home/186195867,Beaches MLS,RX-10906483,N,Y,26.699821,-80.0513967
PAST SALE,July-18-2023,Condo/Co-op,200 Arkona Ct #1001,West Palm Beach,FL,33401,4100000,3,3.5,Tmi 3 Subdivision,3158,107815,2023,,1298,3245,Sold,,,https://www.redfin.com/FL/West-Palm-Beach/200-Arkona-Ct-33401/unit-1001/home/186195869,Beaches MLS,RX-10906479,N,Y,26.699821,-80.0513967
PAST SALE,July-25-2023,Condo/Co-op,200 Arkona Ct #1902,West Palm Beach,FL,33401,2519382,2,2.5,La Clara,1516,,2023,,1662,1579,Sold,,,https://www.redfin.com/FL/West-Palm-Beach/200-Arkona-Ct-33401/unit-1902/home/186263378,Beaches MLS,RX-10908096,N,Y,26.699821,-80.0513967
PAST SALE,,Condo/Co-op,4087 Exeter E,Boca Raton,FL,33434,178000,2,1.5,,880,,1980,,202,,,,,https://www.redfin.com/FL/Boca-Raton/4087-Exeter-E-33434/home/42244030,,,N,Y,26.384612,-80.1781
PAST SALE,,Condo/Co-op,1116 Green Pine Blvd Unit F1,West Palm Beach,FL,33409,199500,2,2.0,,1111,,1984,,180,,,,,https://www.redfin.com/FL/West-Palm-Beach/1116-Green-Pine-Blvd-33409/unit-F1/home/42507979,,,N,Y,26.7253355,-80.1034832
PAST SALE,,Condo/Co-op,2200 S Ocean Blvd #1104,Delray Beach,FL,33483,740000,2,2.0,,1290,,1970,,574,,,,,https://www.redfin.com/FL/Delray-Beach/2200-S-Ocean-Blvd-33483/unit-1104/home/42370098,,,N,Y,26.4335325,-80.0640134
PAST SALE,May-12-2023,Condo/Co-op,236 Canterbury K,West Palm Beach,FL,33417,90000,1,1.5,Century Village,646,,1973,,139,480,Sold,,,https://www.redfin.com/FL/West-Palm-Beach/236-Canterbury-K-33417/home/42141737,Beaches MLS,RX-10889297,N,Y,26.720227,-80.132277
PAST SALE,May-19-2023,Condo/Co-op,1625 S Ocean Blvd Unit A-2 North 10,Delray Beach,FL,33483,6074100,3,3.5,.,3331,,2021,,1824,4056,Sold,,,https://www.redfin.com/FL/Delray-Beach/1625-S-Ocean-Blvd-33483/unit-A-2-North-10/home/183378691,Beaches MLS,RX-10852538,N,Y,26.4409181,-80.0617068
PAST SALE,May-5-2023,Condo/Co-op,1625 S Ocean Blvd Unit C2-North,Delray Beach,FL,33483,4250000,3,3.5,.,2758,,2022,,1541,4056,Sold,,,https://www.redfin.com/FL/Delray-Beach/1625-S-Ocean-Blvd-33483/unit-C2-North/home/183141175,Beaches MLS,RX-10849448,N,Y,26.4409222,-80.0617215
PAST SALE,May-19-2023,Condo/Co-op,1625 S Ocean Blvd Unit B2-South 7,Delray Beach,FL,33483,5999000,3,3.5,.,3002,,2022,,1998,4056,Sold,,,https://www.redfin.com/FL/Delray-Beach/1625-S-Ocean-Blvd-33483/unit-B2-South-7/home/183290032,Beaches MLS,RX-10851003,N,Y,26.4409222,-80.0617215
PAST SALE,May-19-2023,Condo/Co-op,1625 S Ocean Blvd Unit A-1 North,Delray Beach,FL,33483,5804100,3,3.5,.,3329,,2021,,1743,4056,Sold,,,https://www.redfin.com/FL/Delray-Beach/1625-S-Ocean-Blvd-33483/unit-A1-North/home/177181714,Beaches MLS,RX-10853748,N,Y,26.4409222,-80.0617215
PAST SALE,May-19-2023,Condo/Co-op,1625 S Ocean Blvd Unit A3-South 13,Delray Beach,FL,33483,7499000,3,3.5,no,3695,51070,2022,,2029,4056,Sold,,,https://www.redfin.com/FL/Delray-Beach/1625-S-Ocean-Blvd-33483/unit-A3-South/home/182901886,Beaches MLS,RX-10846805,N,Y,26.4409222,-80.0617215
PAST SALE,,Condo/Co-op,2070 Homewood Blvd #1110,Delray Beach,FL,33445,287000,2,2.0,,1155,,1985,,248,,,,,https://www.redfin.com/FL/Delray-Beach/2070-Homewood-Blvd-33445/unit-1110/home/42376269,,,N,Y,26.4365063,-80.1037369
PAST SALE,,Condo/Co-op,1500 N Congress Ave Unit A301,West Palm Beach,FL,33401,195000,1,1.0,,495,,1980,,394,,,,,https://www.redfin.com/FL/West-Palm-Beach/1500-N-Congress-Ave-33401/unit-A301/home/42518254,,,N,Y,26.7273451,-80.08899
PAST SALE,,Condo/Co-op,2581 Village Blvd #105,West Palm Beach,FL,33409,265000,2,2.0,,1385,,1987,,191,,,,,https://www.redfin.com/FL/West-Palm-Beach/2581-Village-Blvd-33409/unit-105/home/42516611,,,N,Y,26.7360053,-80.0929941
PAST SALE,June-9-2023,Condo/Co-op,99 SE Mizner Blvd #724,Boca Raton,FL,33432,532500,1,1.0,Palmetto Place Condo,890,,2003,,598,751,Sold,,,https://www.redfin.com/FL/Boca-Raton/99-SE-Mizner-Blvd-33432/unit-724/home/42571118,Beaches MLS,RX-10895728,N,Y,26.3489491,-80.0839454
PAST SALE,,Condo/Co-op,5220 Las Verdes Cir #306,Delray Beach,FL,33484,240000,2,2.0,,1050,,1981,,229,,,,,https://www.redfin.com/FL/Delray-Beach/5220-Las-Verdes-Cir-33484/unit-306/home/42230354,,,N,Y,26.4432958,-80.1275924
PAST SALE,,Condo/Co-op,635 SW 20th Ct #0090,Delray Beach,FL,33445,105000,1,1.0,,566,,1977,,186,,,,,https://www.redfin.com/FL/Delray-Beach/635-SW-20th-Ct-33445/unit-0090/home/42372755,,,N,Y,26.4504845,-80.0928313
PAST SALE,May-19-2023,Condo/Co-op,1625 S Ocean #3 Blvd Unit A-1 South,Delray Beach,FL,33448,6499000,3,3.5,.,3344,,2021,,1943,4056,Sold,,,https://www.redfin.com/FL/Delray-Beach/1625-S-Ocean-Blvd-33483/unit-A-1-South/home/185658710,Beaches MLS,RX-10857310,N,Y,26.4409181,-80.0617068
PAST SALE,,Condo/Co-op,14709 Canalview Dr Unit C,Delray Beach,FL,33484,110000,1,1.5,,1068,,1981,,103,,,,,https://www.redfin.com/FL/Delray-Beach/14709-Canalview-Dr-33484/unit-C/home/42216188,,,N,Y,26.4603619,-80.1295544
PAST SALE,,Condo/Co-op,6885 N Ocean Blvd #4020,Ocean Ridge,FL,33435,1625000,3,3.0,,1645,,1974,,988,,,,,https://www.redfin.com/FL/Ocean-Ridge/6885-N-Ocean-Blvd-33435/unit-4020/home/42435497,,,N,Y,26.5423689,-80.0444701
PAST SALE,May-16-2023,Condo/Co-op,6845 Willow Wood Dr #3061,Boca Raton,FL,33434,450000,2,2.0,Willow Wood Midrise Condo,1255,,1981,,359,734,Sold,,,https://www.redfin.com/FL/Boca-Raton/6845-Willow-Wood-Dr-33434/unit-3061/home/42249402,Beaches MLS,RX-10871183,N,Y,26.375667,-80.150429
PAST SALE,,Condo/Co-op,6875 Willow Wood Dr #2081,Boca Raton,FL,33434,225000,2,2.0,,1255,,1980,,179,,,,,https://www.redfin.com/FL/Boca-Raton/6875-Willow-Wood-Dr-33434/unit-2081/home/42254981,,,N,Y,26.3756673,-80.1504292
PAST SALE,,Condo/Co-op,97 Seville D,Delray Beach,FL,33446,160000,2,2.0,,883,,1974,,181,,,,,https://www.redfin.com/FL/Delray-Beach/97-Seville-D-33446/home/42225173,,,N,Y,26.452865,-80.150871
PAST SALE,,Condo/Co-op,21 Piedmont a,Delray Beach,FL,33484,240000,2,2.0,,1023,,1980,,235,,,,,https://www.redfin.com/FL/Delray-Beach/21-Piedmont-a-33484/home/42230091,,,N,Y,26.444214,-80.1432828
PAST SALE,,Condo/Co-op,98 Normandy C,Delray Beach,FL,33484,250000,2,2.0,,907,,1980,,276,,,,,https://www.redfin.com/FL/Delray-Beach/98-Normandy-C-33484/home/42235114,,,N,Y,26.4459077,-80.1454208
PAST SALE,,Condo/Co-op,1111 S Ocean Blvd #3170,Boca Raton,FL,33432,486763,3,2.5,,1534,,1973,,317,,,,,https://www.redfin.com/FL/Boca-Raton/1111-S-Ocean-Blvd-33432/unit-3170/home/42334601,,,N,Y,26.3351693,-80.074664
PAST SALE,May-5-2023,Condo/Co-op,1915 Lavers Cir Unit E409,Delray Beach,FL,33444,420000,2,2.0,Lakeside Condo,1160,90,1984,,362,200,Sold,,,https://www.redfin.com/FL/Delray-Beach/1915-Lavers-Cir-33444/unit-E409/home/42581287,Beaches MLS,RX-10887330,N,Y,26.4373114,-80.0828694
PAST SALE,June-13-2023,Condo/Co-op,200 Arkona Ct #404,West Palm Beach,FL,33401,2166961,2,2.5,La Clara,2044,,2023,,1060,2149,Sold,,,https://www.redfin.com/FL/West-Palm-Beach/200-Arkona-Ct-33401/unit-404/home/185753723,Beaches MLS,RX-10896928,N,Y,26.699821,-80.0513967
PAST SALE,June-12-2023,Condo/Co-op,200 Arkona Ct #501,West Palm Beach,FL,33401,1499000,1,1.5,La Clara,1202,,2023,,1247,1224,Sold,,,https://www.redfin.com/FL/West-Palm-Beach/200-Arkona-Ct-33401/unit-501/home/176986472,Beaches MLS,RX-10898918,N,Y,26.699821,-80.0513967
PAST SALE,June-27-2023,Condo/Co-op,200 Arkona Ct #1502,West Palm Beach,FL,33401,2511414,2,2.5,La Clara,1516,,2023,,1657,1579,Sold,,,https://www.redfin.com/FL/West-Palm-Beach/200-Arkona-Ct-33401/unit-1502/home/176986479,Beaches MLS,RX-10900975,N,Y,26.699821,-80.0513967
PAST SALE,June-13-2023,Condo/Co-op,100 Worth Ave #421,Palm Beach,FL,33480,2340000,2,2.0,Winthrop House Condo,1580,84173,1970,,1481,1800,Sold,,,https://www.redfin.com/FL/Palm-Beach/100-Worth-Ave-33480/unit-421/home/42435289,Beaches MLS,RX-10864952,N,Y,26.7003852,-80.0337993
PAST SALE,July-11-2023,Condo/Co-op,200 Arkona Ct #1703,West Palm Beach,FL,33401,3950000,2,2.5,Tmi 3 Subdivision,2044,107815,2023,,1932,2150,Sold,,,https://www.redfin.com/FL/West-Palm-Beach/200-Arkona-Ct-33401/unit-1703/home/186145231,Beaches MLS,RX-10905174,N,Y,26.699821,-80.0513967
PAST SALE,June-9-2023,Condo/Co-op,2707 N Ocean Blvd Unit 502-D,Boca Raton,FL,33431,760000,2,2.0,Yacht & Racquet Club OF Boca Raton Condo,1020,,1978,,745,1790,Sold,,,https://www.redfin.com/FL/Boca-Raton/2707-N-Ocean-Blvd-33431/unit-502-D/home/185461491,Beaches MLS,RX-10890987,N,Y,26.3759007,-80.0710242
PAST SALE,,Condo/Co-op,420 Northlake Ct #6,North Palm Beach,FL,33408,435000,2,2.0,,1080,,1968,,403,,,,,https://www.redfin.com/FL/North-Palm-Beach/420-Northlake-Ct-33408/unit-6/home/42610987,,,N,Y,26.8109412,-80.0688505
PAST SALE,May-26-2023,Condo/Co-op,792 Normandy Q #792,Delray Beach,FL,33484,100000,1,1.5,KINGS POINT NORMANDY COND,760,,1979,,132,537,Sold,,,https://www.redfin.com/FL/Delray-Beach/792-Normandy-Trl-33484/unit-792/home/185482570,MARMLS,A11391049,N,Y,26.4447792,-80.1366577
PAST SALE,,Condo/Co-op,6 Royal Palm Way #111,Boca Raton,FL,33432,475000,2,2.0,,1130,,1976,,420,,,,,https://www.redfin.com/FL/Boca-Raton/6-Royal-Palm-Way-33432/unit-111/home/42332145,,,N,Y,26.326959,-80.093642
PAST SALE,,Condo/Co-op,13 Royal Palm Way #2010,Boca Raton,FL,33432,382000,2,2.0,,1130,,1977,,338,,,,,https://www.redfin.com/FL/Boca-Raton/13-Royal-Palm-Way-33432/unit-2010/home/42332733,,,N,Y,26.3263231,-80.093496
PAST SALE,,Condo/Co-op,230 NE 26th Ave #2150,Boynton Beach,FL,33435,126000,1,1.5,,758,,1978,,166,,,,,https://www.redfin.com/FL/Boynton-Beach/230-NE-26th-Ave-33435/unit-2150/home/42637924,,,N,Y,26.553688,-80.0649184
PAST SALE,,Condo/Co-op,2851 S Ocean Blvd #0013,Boca Raton,FL,33432,557500,2,2.0,,1535,,1980,,363,,,,,https://www.redfin.com/FL/Boca-Raton/2851-S-Ocean-Blvd-33432/unit-0013/home/42328176,,,N,Y,26.323315,-80.0761481
PAST SALE,July-8-2023,Condo/Co-op,1180 S Ocean Blvd Unit 14a,Boca Raton,FL,33432,1700000,3,2.5,Cloister Del Mar Condo,1916,,1969,,887,1200,Sold,,,https://www.redfin.com/FL/Boca-Raton/1180-S-Ocean-Blvd-33432/unit-14-A/home/104348462,Beaches MLS,RX-10902744,N,Y,26.3330689,-80.0731654
PAST SALE,,Condo/Co-op,1401 S Ocean Blvd #3070,Boca Raton,FL,33432,775000,3,3.0,,2281,,1982,,340,,,,,https://www.redfin.com/FL/Boca-Raton/1401-S-Ocean-Blvd-33432/unit-3070/home/42326773,,,N,Y,26.3307453,-80.0753624
PAST SALE,,Condo/Co-op,242 Village Blvd #2304,Tequesta,FL,33469,329000,2,2.0,,1200,,1999,,274,,,,,https://www.redfin.com/FL/Tequesta/242-Village-Blvd-33469/unit-2304/home/42585106,,,N,Y,26.963778,-80.089329
PAST SALE,,Condo/Co-op,275 Palm Ave Unit B101,Jupiter,FL,33477,630000,2,2.0,,1250,,1988,,504,,,,,https://www.redfin.com/FL/Jupiter/275-Palm-Ave-33477/unit-B101/home/42413036,,,N,Y,26.931336,-80.073757
PAST SALE,,Condo/Co-op,3915 S Flagler Dr #203,West Palm Beach,FL,33405,265000,1,1.0,,602,,1981,,440,,,,,https://www.redfin.com/FL/West-Palm-Beach/3915-S-Flagler-Dr-33405/unit-203/home/42523252,,,N,Y,26.6758821,-80.0491076
PAST SALE,,Condo/Co-op,174 Northampton I,West Palm Beach,FL,33417,75000,1,1.0,,615,,1973,,122,,,,,https://www.redfin.com/FL/West-Palm-Beach/174-Northampton-I-33417/home/42160182,,,N,Y,26.7169068,-80.1342062
PAST SALE,,Condo/Co-op,1500 N Congress Ave Unit B31,West Palm Beach,FL,33401,140000,1,1.0,,625,,1980,,224,,,,,https://www.redfin.com/FL/West-Palm-Beach/1500-N-Congress-Ave-33401/unit-B31/home/42516717,,,N,Y,26.7273451,-80.08899
PAST SALE,,Condo/Co-op,1638 Embassy Dr #405,West Palm Beach,FL,33401,128750,2,2.0,,835,,1973,,154,,,,,https://www.redfin.com/FL/West-Palm-Beach/1638-Embassy-Dr-33401/unit-405/home/42516225,,,N,Y,26.7280183,-80.0816682
PAST SALE,,Condo/Co-op,792 Normandy Q,Delray Beach,FL,33484,100000,1,1.5,,760,,1979,,132,,,,,https://www.redfin.com/FL/Delray-Beach/792-Normandy-Q-33484/home/42230455,,,N,Y,26.4447792,-80.1366577
PAST SALE,June-1-2023,Condo/Co-op,6245 Graycliff Dr Unit A,Boca Raton,FL,33496,775000,3,2.0,Solana / Polo Club,2008,,1995,,386,666,Sold,,,https://www.redfin.com/FL/Boca-Raton/6245-Graycliff-Dr-33496/unit-A/home/42244588,Beaches MLS,RX-10885952,N,Y,26.4236819,-80.1441231
PAST SALE,May-31-2023,Condo/Co-op,6748 Palmetto Cir S #102,Boca Raton,FL,33433,175000,2,2.0,Casa Nueva Condo,857,,1984,,204,300,Sold,,,https://www.redfin.com/FL/Boca-Raton/6748-Palmetto-Cir-S-33433/unit-102/home/42258624,Beaches MLS,RX-10893757,N,Y,26.3510062,-80.1504939
PAST SALE,,Condo/Co-op,1029 Rexford B,Boca Raton,FL,33434,270000,2,2.0,,916,,1981,,295,,,,,https://www.redfin.com/FL/Boca-Raton/1029-Rexford-B-33434/home/42247955,,,N,Y,26.389519,-80.178621
PAST SALE,,Condo/Co-op,441 Mansfield K,Boca Raton,FL,33434,130000,1,1.0,,601,,1980,,216,,,,,https://www.redfin.com/FL/Boca-Raton/441-Mansfield-K-33434/home/42630839,,,N,Y,26.3912209,-80.1747361
PAST SALE,,Condo/Co-op,3915 S Flagler Dr #214,West Palm Beach,FL,33405,230000,1,1.0,,602,,1981,,382,,,,,https://www.redfin.com/FL/West-Palm-Beach/3915-S-Flagler-Dr-33405/unit-214/home/42669260,,,N,Y,26.6758821,-80.0491076
PAST SALE,,Condo/Co-op,240 Horizons W #104,Boynton Beach,FL,33435,99900,2,1.5,,815,,1967,,123,,,,,https://www.redfin.com/FL/Boynton-Beach/240-Horizons-W-33435/unit-104/home/42347655,,,N,Y,26.5247319,-80.0572032
PAST SALE,,Condo/Co-op,2014 S Federal Hwy #409,Boynton Beach,FL,33435,205000,2,2.0,,963,,1973,,213,,,,,https://www.redfin.com/FL/Boynton-Beach/2014-S-Federal-Hwy-33435/unit-409/home/42634405,,,N,Y,26.510099,-80.058048
PAST SALE,,Condo/Co-op,711 NE Harbour Ter #412,Boca Raton,FL,33431,430000,1,1.0,,899,,1964,,478,,,,,https://www.redfin.com/FL/Boca-Raton/711-NE-Harbour-Ter-33431/unit-412/home/42326796,,,N,Y,26.3728899,-80.0741984
PAST SALE,,Condo/Co-op,300 NE 20th St #5030,Boca Raton,FL,33431,155000,1,1.0,,727,,1965,,213,,,,,https://www.redfin.com/FL/Boca-Raton/300-NE-20th-St-33431/unit-5030/home/42319240,,,N,Y,26.3660487,-80.0816474
PAST SALE,,Condo/Co-op,21675 Tall Palm Cir Unit C,Boca Raton,FL,33433,300000,3,2.0,,1411,,1980,,213,,,,,https://www.redfin.com/FL/Boca-Raton/21675-Tall-Palm-Cir-33433/unit-C/home/42629660,,,N,Y,26.353554,-80.18161
PAST SALE,,Condo/Co-op,175 N High Point Blvd Unit D,Boynton Beach,FL,33435,192500,2,2.0,,1104,,1970,,174,,,,,https://www.redfin.com/FL/Boynton-Beach/175-N-High-Point-Blvd-33435/unit-D/home/42348549,,,N,Y,26.5105392,-80.0677453
PAST SALE,May-11-2023,Condo/Co-op,21791 Arriba Real Unit H,Boca Raton,FL,33433,355000,2,2.0,Glades OF Boca Lago Condo,1216,,1979,,292,611,Sold,,,https://www.redfin.com/FL/Boca-Raton/21791-Arriba-Real-33433/unit-H/home/42253297,Beaches MLS,RX-10882496,N,Y,26.3514588,-80.1850872
PAST SALE,,Condo/Co-op,4078 Quail Ridge Dr N Unit A,Boynton Beach,FL,33436,350000,2,2.0,,1359,,1977,,258,,,,,https://www.redfin.com/FL/Boynton-Beach/4078-Quail-Ridge-Dr-N-33436/unit-A/home/42215942,,,N,Y,26.511833,-80.1079199
PAST SALE,,Condo/Co-op,20037 Boca West Dr #3041,Boca Raton,FL,33434,239000,2,2.0,,1229,,1980,,194,,,,,https://www.redfin.com/FL/Boca-Raton/20037-Boca-West-Dr-33434/unit-3041/home/42254805,,,N,Y,26.3792642,-80.1635275
PAST SALE,,Condo/Co-op,10788 Bahama Palm Way #101,Boynton Beach,FL,33437,315000,3,2.0,,1330,,1986,,237,,,,,https://www.redfin.com/FL/Boynton-Beach/10788-Bahama-Palm-Way-33437/unit-101/home/42205606,,,N,Y,26.5165242,-80.1303386
PAST SALE,,Condo/Co-op,7832 Sonoma Springs Cir #104,Lake Worth,FL,33463,210000,2,2.0,,1076,,1999,,195,,,,,https://www.redfin.com/FL/Lake-Worth/7832-Sonoma-Springs-Cir-33463/unit-104/home/42609823,,,N,Y,26.5632942,-80.1458676
PAST SALE,,Condo/Co-op,7832 Sonoma Springs Cir #203,Lake Worth,FL,33463,205000,2,2.0,,1076,,1999,,191,,,,,https://www.redfin.com/FL/Lake-Worth/7832-Sonoma-Springs-Cir-33463/unit-203/home/42602324,,,N,Y,26.5632942,-80.1458676
PAST SALE,,Condo/Co-op,23370 Carolwood Ln #202,Boca Raton,FL,33428,268000,2,2.0,,1160,,1979,,231,,,,,https://www.redfin.com/FL/Boca-Raton/23370-Carolwood-Ln-33428/unit-202/home/42271611,,,N,Y,26.3290748,-80.1978408
PAST SALE,July-11-2023,Condo/Co-op,300 N Highway A1a Unit F-205,Jupiter,FL,33477,450000,2,2.0,Ocean Parks Condo,1520,,1981,,296,858,Sold,,,https://www.redfin.com/FL/Jupiter/300-N-Hwy-A1A-33477/unit-F-205/home/181725525,Beaches MLS,RX-10902590,N,Y,26.9374648,-80.0795306
PAST SALE,,Condo/Co-op,9205 Pecky Cypress Ln Unit 8E,Boca Raton,FL,33428,265000,2,2.0,,1266,,1979,,209,,,,,https://www.redfin.com/FL/Boca-Raton/9205-Pecky-Cypress-Ln-33428/unit-8E/home/42254338,,,N,Y,26.357778,-80.190357
PAST SALE,May-31-2023,Condo/Co-op,2 Water Club Way #1401,North Palm Beach,FL,33408,3825000,3,4.0,Water Club North Palm Beach Condo,2445,,2016,,1564,1936,Sold,,,https://www.redfin.com/FL/North-Palm-Beach/2-Water-Club-Way-33408/unit-1401/home/64099877,Beaches MLS,RX-10893582,N,Y,26.837471,-80.0597334
PAST SALE,,Condo/Co-op,420 Northlake Ct #9,North Palm Beach,FL,33408,425000,2,2.0,,1080,,1968,,394,,,,,https://www.redfin.com/FL/North-Palm-Beach/420-Northlake-Ct-33408/unit-9/home/42613487,,,N,Y,26.8109412,-80.0688505
PAST SALE,May-15-2023,Condo/Co-op,1403 Captains Way,Jupiter,FL,33477,1818000,2,2.0,Admirals Cove,1952,180,1987,,931,2128,Sold,,,https://www.redfin.com/FL/Jupiter/1403-Captains-Way-33477/home/42411997,Beaches MLS,RX-10881076,N,Y,26.90938,-80.086781
PAST SALE,,Condo/Co-op,3400 Springdale Blvd #312,Palm Springs,FL,33461,75000,1,1.0,,660,,1980,,114,,,,,https://www.redfin.com/FL/Palm-Springs/3400-Springdale-Blvd-33461/unit-312/home/42489018,,,N,Y,26.6472905,-80.1029431
PAST SALE,,Condo/Co-op,4115 Oak Terrace Dr,Greenacres,FL,33463,220000,2,2.0,,883,,1981,,249,,,,,https://www.redfin.com/FL/Greenacres/4115-Oak-Terrace-Dr-33463/home/42392729,,,N,Y,26.610922,-80.139373
PAST SALE,,Condo/Co-op,10861 Quail Covey Rd,Boynton Beach,FL,33436,400000,2,2.0,,1300,,1980,,308,,,,,https://www.redfin.com/FL/Boynton-Beach/10861-Quail-Covey-Rd-33436/home/42294504,,,N,Y,26.5167787,-80.1009022
PAST SALE,,Condo/Co-op,4475 N Ocean Blvd #309,Delray Beach,FL,33483,1397500,2,2.5,,2125,,1979,,658,,,,,https://www.redfin.com/FL/Delray-Beach/4475-N-Ocean-Blvd-33483/unit-309/home/42360579,,,N,Y,26.5038011,-80.0530526
PAST SALE,,Condo/Co-op,188 Lake Evelyn Dr,West Palm Beach,FL,33411,144000,1,1.5,,704,,1978,,205,,,,,https://www.redfin.com/FL/West-Palm-Beach/188-Lake-Evelyn-Dr-33411/home/42156084,,,N,Y,26.706611,-80.1673969
PAST SALE,July-6-2023,Condo/Co-op,3707 Quail Ridge Dr Unit Bobwhite B,Boynton Beach,FL,33436,340000,3,2.0,Quail Ridge,1958,,1978,,174,1332,Sold,,,https://www.redfin.com/FL/Boynton-Beach/3707-Quail-Ridge-Dr-33436/unit-Bobwhite-B/home/182302076,Beaches MLS,RX-10902274,N,Y,26.509504,-80.100843
PAST SALE,,Condo/Co-op,11302 Quail Covey Rd,Boynton Beach,FL,33436,595000,3,2.0,,1560,,1979,,381,,,,,https://www.redfin.com/FL/Boynton-Beach/11302-Quail-Covey-Rd-33436/home/42293534,,,N,Y,26.5123858,-80.1011105
PAST SALE,,Condo/Co-op,13212 Lucinda Palm Ct Unit B,Delray Beach,FL,33484,125000,2,2.0,,1381,,1980,,91,,,,,https://www.redfin.com/FL/Delray-Beach/13212-Lucinda-Palm-Ct-33484/unit-B/home/42213460,,,N,Y,26.4827311,-80.1341988
PAST SALE,,Condo/Co-op,795 High Point Dr W Unit B,Delray Beach,FL,33445,200000,1,1.5,,970,,1973,,206,,,,,https://www.redfin.com/FL/Delray-Beach/795-High-Point-Dr-W-33445/unit-B/home/42366459,,,N,Y,26.466527,-80.102921
PAST SALE,May-12-2023,Condo/Co-op,150 Berkshire G,West Palm Beach,FL,33417,80000,1,1.0,Century Village,615,,1972,,130,480,Sold,,,https://www.redfin.com/FL/West-Palm-Beach/150-Berkshire-G-33417/home/42154355,Beaches MLS,RX-10889458,N,Y,26.7142794,-80.1324798
PAST SALE,June-30-2023,Condo/Co-op,14111 Royal Vista Dr #302,Delray Beach,FL,33484,229000,2,2.0,Huntington Pointe,1392,,1993,,165,730,Sold,,,https://www.redfin.com/FL/Delray-Beach/14111-Royal-Vista-Dr-33484/unit-302/home/42224378,Beaches MLS,RX-10894604,N,Y,26.4666672,-80.1415936
PAST SALE,May-12-2023,Condo/Co-op,371 Northampton S,West Palm Beach,FL,33417,80000,1,1.5,Century Village,684,,1972,,117,480,Sold,,,https://www.redfin.com/FL/West-Palm-Beach/371-Northampton-S-33417/home/42157605,Beaches MLS,RX-10889441,N,Y,26.7165784,-80.1338921
PAST SALE,,Condo/Co-op,113 Wellington a,West Palm Beach,FL,33417,175000,2,2.0,,1092,,1970,,160,,,,,https://www.redfin.com/FL/West-Palm-Beach/113-Wellington-a-33417/home/42142953,,,N,Y,26.7109462,-80.1322543
PAST SALE,May-12-2023,Condo/Co-op,244 Windsor K,West Palm Beach,FL,33417,56400,1,1.0,Century Village,585,,1972,,96,480,Sold,,,https://www.redfin.com/FL/West-Palm-Beach/244-Windsor-K-33417/home/42136138,Beaches MLS,RX-10889288,N,Y,26.7107738,-80.1346348
PAST SALE,,Condo/Co-op,14 Golfs Edge Unit E,West Palm Beach,FL,33417,100000,1,1.5,,750,,1970,,133,,,,,https://www.redfin.com/FL/West-Palm-Beach/14-Golfs-Edge-33417/unit-E/home/42144013,,,N,Y,26.7123144,-80.1232957
PAST SALE,,Condo/Co-op,460 Southampton C,West Palm Beach,FL,33417,170000,2,1.5,,814,,1974,,209,,,,,https://www.redfin.com/FL/West-Palm-Beach/460-Southampton-C-33417/home/42158188,,,N,Y,26.707749,-80.123253
PAST SALE,,Condo/Co-op,475 Tequesta Dr #10,Jupiter,FL,33469,318000,2,2.0,,730,,1964,,436,,,,,https://www.redfin.com/FL/Jupiter/475-Tequesta-Dr-33469/unit-10/home/42465599,,,N,Y,26.9584261,-80.1046884
PAST SALE,,Condo/Co-op,101 Normandy C #101,Delray Beach,FL,33484,170000,2,2.0,,907,,1980,,187,,,,,https://www.redfin.com/FL/Delray-Beach/101-Normandy-C-33484/unit-101/home/42235600,,,N,Y,26.4461452,-80.1422777
PAST SALE,,Condo/Co-op,17 Royal Palm Way #2030,Boca Raton,FL,33432,405000,2,2.0,,1095,,1979,,370,,,,,https://www.redfin.com/FL/Boca-Raton/17-Royal-Palm-Way-33432/unit-2030/home/42330515,,,N,Y,26.3258296,-80.0952633
PAST SALE,,Condo/Co-op,550 Monaco L,Delray Beach,FL,33446,136000,1,1.5,,726,,1974,,187,,,,,https://www.redfin.com/FL/Delray-Beach/550-Monaco-L-33446/home/42633714,,,N,Y,26.4427104,-80.150933
PAST SALE,,Condo/Co-op,568 Brittany L,Delray Beach,FL,33446,148000,2,2.0,,883,,1974,,168,,,,,https://www.redfin.com/FL/Delray-Beach/568-Brittany-L-33446/home/42226483,,,N,Y,26.444317,-80.153314
PAST SALE,,Condo/Co-op,258 Brittany F,Delray Beach,FL,33446,79000,1,1.5,,726,,1973,,109,,,,,https://www.redfin.com/FL/Delray-Beach/258-Brittany-F-33446/home/42223020,,,N,Y,26.444317,-80.153314
PAST SALE,,Condo/Co-op,202 Brittany E,Delray Beach,FL,33446,117500,1,1.5,,726,,1973,,162,,,,,https://www.redfin.com/FL/Delray-Beach/202-Brittany-E-33446/home/42226538,,,N,Y,26.4458704,-80.1540676
PAST SALE,,Condo/Co-op,51 Eastgate Dr Unit A,Boynton Beach,FL,33436,167800,2,2.0,,1759,,1984,,95,,,,,https://www.redfin.com/FL/Boynton-Beach/51-Eastgate-Dr-33436/unit-A/home/42360877,,,N,Y,26.4887659,-80.098733
PAST SALE,,Condo/Co-op,5203 Europa Dr Unit G,Boynton Beach,FL,33437,255000,3,2.0,,1578,,1993,,162,,,,,https://www.redfin.com/FL/Boynton-Beach/5203-Europa-Dr-33437/unit-G/home/42194961,,,N,Y,26.5348851,-80.1267643
PAST SALE,,Condo/Co-op,2851 S Ocean Blvd #0027,Boca Raton,FL,33432,585000,2,2.0,,1497,,1980,,391,,,,,https://www.redfin.com/FL/Boca-Raton/2851-S-Ocean-Blvd-33432/unit-0027/home/42328178,,,N,Y,26.323315,-80.0761481
PAST SALE,,Condo/Co-op,100 Village Green Cir E #317,Palm Springs,FL,33461,104000,1,1.0,,642,,1974,,162,,,,,https://www.redfin.com/FL/Palm-Springs/100-Village-Green-Cir-E-33461/unit-317/home/42480365,,,N,Y,26.6429822,-80.105212
PAST SALE,May-19-2023,Condo/Co-op,1625 S Ocean D-3n Blvd #12,Delray Beach,FL,33483,5795000,3,3.5,1625 Ocean,3051,,2022,,1899,3970,Sold,,,https://www.redfin.com/FL/Delray-Beach/1625-S-Ocean-Blvd-33483/unit-12/home/185138808,Beaches MLS,RX-10882297,N,Y,26.4409222,-80.0617215
PAST SALE,June-30-2023,Condo/Co-op,3101 S Ocean Blvd #612,Highland Beach,FL,33487,875000,2,2.0,Penthouse Towers,988,,1972,,886,850,Sold,,,https://www.redfin.com/FL/Highland-Beach/3101-S-Ocean-Blvd-33487/unit-612/home/42391676,Beaches MLS,RX-10900968,N,Y,26.4195605,-80.0638387
PAST SALE,,Condo/Co-op,555 Banyan Tree Ln #8,Delray Beach,FL,33483,162500,,1.0,,520,,1961,,313,,,,,https://www.redfin.com/FL/Delray-Beach/555-Banyan-Tree-Ln-33483/unit-8/home/42369549,,,N,Y,26.4421794,-80.0686186
PAST SALE,,Condo/Co-op,316 Southwind Ct #105,North Palm Beach,FL,33408,405000,2,2.0,,899,,1981,,451,,,,,https://www.redfin.com/FL/North-Palm-Beach/316-Southwind-Ct-33408/unit-105/home/42477667,,,N,Y,26.808843,-80.0666931
PAST SALE,,Condo/Co-op,470 NW 20th St #308,Boca Raton,FL,33431,215000,1,1.0,,715,,1980,,301,,,,,https://www.redfin.com/FL/Boca-Raton/470-NW-20th-St-33431/unit-308/home/42319992,,,N,Y,26.3672756,-80.0940414
PAST SALE,,Vacant Land,1625 S Ocean Blvd #10,Delray Beach,FL,33483,7499000,,,,,51070,,,,,,,,https://www.redfin.com/FL/Delray-Beach/1625-S-Ocean-Blvd-33483/unit-10/home/174320000,,,N,Y,26.4409181,-80.0617068
PAST SALE,May-23-2023,Condo/Co-op,21 Stratford Dr Unit D,Boynton Beach,FL,33436,210000,2,2.0,Stratford AT Hunters Run Condo,1647,,1980,,128,1042,Sold,,,https://www.redfin.com/FL/Boynton-Beach/21-Stratford-Dr-E-33436/unit-D/home/42338468,Beaches MLS,RX-10882593,N,Y,26.4857945,-80.1055562
PAST SALE,July-17-2023,Condo/Co-op,446 Pine Glen Ln Unit D-2,Greenacres,FL,33463,103000,1,1.0,Pine Ridge South IV Condo,632,,1981,,163,260,Sold,,,https://www.redfin.com/FL/Greenacres/446-Pine-Glen-Ln-33463/unit-D2/home/42391010,Beaches MLS,RX-10904988,N,Y,26.6077427,-80.1447555
PAST SALE,,Condo/Co-op,6031 10th Ave N #119,Greenacres,FL,33463,210000,3,2.0,,1078,,1985,,195,,,,,https://www.redfin.com/FL/Greenacres/6031-10th-Ave-N-33463/unit-119/home/42605090,,,N,Y,26.6326576,-80.1386852
PAST SALE,,Condo/Co-op,10111 Quail Covey Rd,Boynton Beach,FL,33436,475000,2,2.0,,1300,,1981,,365,,,,,https://www.redfin.com/FL/Boynton-Beach/10111-Quail-Covey-Rd-33436/home/42302787,,,N,Y,26.5248681,-80.1025049
PAST SALE,,Condo/Co-op,149 Coventry G,West Palm Beach,FL,33417,78000,1,1.5,,738,,1969,,106,,,,,https://www.redfin.com/FL/West-Palm-Beach/149-Coventry-G-33417/home/42153400,,,N,Y,26.7192741,-80.1222863
PAST SALE,July-23-2023,Condo/Co-op,955 Egret Cir #501,Delray Beach,FL,33444,262500,1,1.0,Lavers Resort & Racquet Club,724,,1985,,363,346,Sold,,,https://www.redfin.com/FL/Delray-Beach/955-Egret-Cir-33444/unit-501/home/42375315,Beaches MLS,RX-10906372,N,Y,26.4359928,-80.0805356
PAST SALE,,Condo/Co-op,1035 S Federal Hwy #23,Delray Beach,FL,33483,1125000,2,2.5,,2778,,1982,,405,,,,,https://www.redfin.com/FL/Delray-Beach/1035-S-Federal-Hwy-33483/unit-23/home/42642049,,,N,Y,26.4456855,-80.0668944
PAST SALE,,Condo/Co-op,629 Brittany N,Delray Beach,FL,33446,158000,2,2.0,,883,,1974,,179,,,,,https://www.redfin.com/FL/Delray-Beach/629-Brittany-N-33446/home/42223422,,,N,Y,26.450034,-80.150653
PAST SALE,,Condo/Co-op,315 Tuscany F,Delray Beach,FL,33446,113000,1,1.5,,726,,1973,,156,,,,,https://www.redfin.com/FL/Delray-Beach/315-Tuscany-F-33446/home/42231757,,,N,Y,26.448051,-80.153636
PAST SALE,,Condo/Co-op,370 Horizons E #308,Boynton Beach,FL,33435,177000,1,1.5,,700,,1967,,253,,,,,https://www.redfin.com/FL/Boynton-Beach/370-Horizons-E-33435/unit-308/home/42342050,,,N,Y,26.5241487,-80.0553362
PAST SALE,June-20-2023,Condo/Co-op,223 Somerset L,West Palm Beach,FL,33417,295000,2,2.0,Somerset Condos,874,,1972,,338,550,Sold,,,https://www.redfin.com/FL/West-Palm-Beach/223-Somerset-L-33417/home/42146110,Beaches MLS,RX-10879429,N,Y,26.7130999,-80.1308809
PAST SALE,,Condo/Co-op,41 Camden B,West Palm Beach,FL,33417,90000,1,1.0,,615,,1972,,146,,,,,https://www.redfin.com/FL/West-Palm-Beach/41-Camden-B-33417/home/42150829,,,N,Y,26.7138247,-80.1361616
PAST SALE,May-26-2023,Condo/Co-op,3044 Exeter Unit C,Boca Raton,FL,33434,165000,2,1.5,Century Village,861,,1980,,192,265,Sold,,,https://www.redfin.com/FL/Boca-Raton/3044-Exeter-C-33434/unit-C/home/131171161,Beaches MLS,RX-10868490,N,Y,26.386809,-80.178189
PAST SALE,,Condo/Co-op,9 Royal Palm Way #4040,Boca Raton,FL,33432,259999,1,1.0,,795,,1978,,327,,,,,https://www.redfin.com/FL/Boca-Raton/9-Royal-Palm-Way-33432/unit-4040/home/42328727,,,N,Y,26.326959,-80.093642
PAST SALE,,Condo/Co-op,10 Royal Palm Way #1020,Boca Raton,FL,33432,450100,2,2.0,,1095,,1978,,411,,,,,https://www.redfin.com/FL/Boca-Raton/10-Royal-Palm-Way-33432/unit-1020/home/42329739,,,N,Y,26.3270597,-80.0936697
PAST SALE,,Condo/Co-op,315 Palmwood Pl #1160,Boca Raton,FL,33431,349000,2,2.0,,935,,1984,,373,,,,,https://www.redfin.com/FL/Boca-Raton/315-Palmwood-Pl-33431/unit-1160/home/42320513,,,N,Y,26.3767984,-80.0867737
PAST SALE,,Condo/Co-op,293 Fanshaw G,Boca Raton,FL,33434,125000,1,1.5,,715,,1980,,175,,,,,https://www.redfin.com/FL/Boca-Raton/293-Fanshaw-G-33434/home/42244482,,,N,Y,26.3845989,-80.1747395
PAST SALE,,Condo/Co-op,101 Fanshaw C,Boca Raton,FL,33434,95000,1,1.5,,715,,1979,,133,,,,,https://www.redfin.com/FL/Boca-Raton/101-Fanshaw-C-33434/home/42246278,,,N,Y,26.384826,-80.174459
PAST SALE,May-12-2023,Condo/Co-op,2021 Guildford B #2021,Boca Raton,FL,33434,165000,2,1.5,Century Village,880,,1980,,188,,Sold,,,https://www.redfin.com/FL/Boca-Raton/2021-Guildford-E-33434/unit-2021/home/184443112,Beaches MLS,F10369112,N,Y,26.3868088,-80.1753673
PAST SALE,,Condo/Co-op,632 Marlboro Oval,Lake Worth,FL,33467,50000,1,1.0,,642,,1983,,78,,,,,https://www.redfin.com/FL/Lake-Worth/632-Marlboro-Oval-33467/home/42087347,,,N,Y,26.6240107,-80.1622003
PAST SALE,,Condo/Co-op,9872 Marina Blvd #1436,Boca Raton,FL,33428,110000,1,1.5,,718,,1973,,153,,,,,https://www.redfin.com/FL/Boca-Raton/9872-Marina-Blvd-33428/unit-1436/home/42271819,,,N,Y,26.328902,-80.20169
PAST SALE,,Condo/Co-op,859 Jeffery St #8150,Boca Raton,FL,33487,825000,2,2.0,,1385,,1979,,596,,,,,https://www.redfin.com/FL/Boca-Raton/859-Jeffery-St-33487/unit-8150/home/42309910,,,N,Y,26.4032218,-80.0702992
PAST SALE,,Condo/Co-op,55 SE 14th St #2130,Boca Raton,FL,33432,315000,2,2.0,,1053,,1974,,299,,,,,https://www.redfin.com/FL/Boca-Raton/55-SE-14th-St-33432/unit-2130/home/42335234,,,N,Y,26.3376115,-80.0888105
PAST SALE,,Condo/Co-op,3680 Quail Ridge Dr N,Boynton Beach,FL,33436,550000,3,2.0,,1560,,1979,,353,,,,,https://www.redfin.com/FL/Boynton-Beach/3680-Quail-Ridge-Dr-N-33436/home/42295572,,,N,Y,26.5114244,-80.0995082
PAST SALE,July-17-2023,Condo/Co-op,200 SE Mizner Blvd #417,Boca Raton,FL,33432,6000000,3,3.5,Alina Boca Raton Condo,3503,381815,2021,,1713,3258,Sold,,,https://www.redfin.com/FL/Boca-Raton/200-SE-Mizner-Blvd-33432/unit-417/home/171564499,Beaches MLS,RX-10889699,N,Y,26.3476361,-80.0832302
PAST SALE,,Condo/Co-op,2545 S Ocean Blvd #4040,Palm Beach,FL,33480,100000,1,1.0,,638,,1970,,157,,,,,https://www.redfin.com/FL/Palm-Beach/2545-S-Ocean-Blvd-33480/unit-4040/home/42437973,,,N,Y,26.6277254,-80.0381261
PAST SALE,,Condo/Co-op,2190 Ibis Isle Rd #5,Palm Beach,FL,33480,675000,1,1.0,,825,,1968,,818,,,,,https://www.redfin.com/FL/Palm-Beach/2190-Ibis-Isle-Rd-33480/unit-5/home/42434355,,,N,Y,26.6391284,-80.0421361
PAST SALE,,Condo/Co-op,3897 Quail Ridge Dr N,Boynton Beach,FL,33436,360000,2,2.0,,1300,,1980,,277,,,,,https://www.redfin.com/FL/Boynton-Beach/3897-Quail-Ridge-Dr-N-33436/home/42294128,,,N,Y,26.512068,-80.104512
PAST SALE,June-7-2023,Condo/Co-op,820 W Tiffany Dr #1,Mangonia Park,FL,33407,67860,2,1.0,Tiffany Lake Condo PH 3,800,,1973,,85,717,Sold,,,https://www.redfin.com/FL/Mangonia-Park/820-W-Tiffany-Dr-33407/unit-1/home/42426024,Beaches MLS,RX-10896505,N,Y,26.7574401,-80.0841445
PAST SALE,,Condo/Co-op,4201 N Ocean Blvd Unit C901,Boca Raton,FL,33431,30000,,,,1,,1988,,30000,,,,,https://www.redfin.com/FL/Boca-Raton/4201-N-Ocean-Blvd-33431/unit-C901/home/42321999,,,N,Y,26.3894164,-80.0694251
PAST SALE,,Condo/Co-op,170 Horizons E #209,Boynton Beach,FL,33435,198000,1,1.5,,705,,1967,,281,,,,,https://www.redfin.com/FL/Boynton-Beach/170-Horizons-E-33435/unit-209/home/42342513,,,N,Y,26.5259287,-80.0547584
PAST SALE,,Condo/Co-op,3200 Meridian Way S #7,Palm Beach Gardens,FL,33410,210000,2,2.0,,1095,,1970,,192,,,,,https://www.redfin.com/FL/Palm-Beach-Gardens/3200-Meridian-Way-S-33410/unit-7/home/42642565,,,N,Y,26.8249066,-80.084637
PAST SALE,,Condo/Co-op,1171 N Ocean Blvd #0412,Gulf Stream,FL,33483,4300000,3,4.5,,3270,,1982,,1315,,,,,https://www.redfin.com/FL/Gulf-Stream/1171-N-Ocean-Blvd-33483/unit-0412/home/42393729,,,N,Y,26.4773944,-80.0558988
PAST SALE,,Condo/Co-op,130 Sunrise Ave #6180,Palm Beach,FL,33480,2000000,1,1.5,,1097,,1977,,1823,,,,,https://www.redfin.com/FL/Palm-Beach/130-Sunrise-Ave-33480/unit-6180/home/42439143,,,N,Y,26.7195408,-80.0364202
PAST SALE,,Condo/Co-op,100 Worth Ave #607,Palm Beach,FL,33480,3965000,2,2.0,,1539,,1970,,2576,,,,,https://www.redfin.com/FL/Palm-Beach/100-Worth-Ave-33480/unit-607/home/42435281,,,N,Y,26.7003852,-80.0337993
PAST SALE,,Condo/Co-op,3605 S Ocean Blvd #118,South Palm Beach,FL,33480,185000,2,2.0,,1121,,1974,,165,,,,,https://www.redfin.com/FL/South-Palm-Beach/3605-S-Ocean-Blvd-33480/unit-118/home/42468908,,,N,Y,26.5872948,-80.0391275
PAST SALE,,Condo/Co-op,3400 S Ocean Blvd Unit 7BII,Palm Beach,FL,33480,1767500,3,2.5,,2119,,1979,,834,,,,,https://www.redfin.com/FL/Palm-Beach/3400-S-Ocean-Blvd-33480/unit-7BII/home/42442262,,,N,Y,26.5976974,-80.0373387
PAST SALE,May-30-2023,Condo/Co-op,250 NE 3 Ave #1209,Delray Beach,FL,33444,630000,2,2.0,Pineapple Grove Condo,1182,,2004,,533,398,Sold,,,https://www.redfin.com/FL/Delray-Beach/250-NE-3rd-Ave-33444/unit-1209/home/42608871,Beaches MLS,RX-10893287,N,Y,26.4661338,-80.0703428
PAST SALE,,Condo/Co-op,1500 N Congress Ave Unit B35,West Palm Beach,FL,33401,174000,2,1.0,,800,,1980,,218,,,,,https://www.redfin.com/FL/West-Palm-Beach/1500-N-Congress-Ave-33401/unit-B35/home/42519189,,,N,Y,26.7273451,-80.08899
PAST SALE,,Condo/Co-op,3605 Quail Ridge Dr S,Boynton Beach,FL,33436,475000,2,2.0,,1300,,1978,,365,,,,,https://www.redfin.com/FL/Boynton-Beach/3605-Quail-Ridge-Dr-S-33436/home/42301000,,,N,Y,26.508128,-80.1008905
PAST SALE,,Condo/Co-op,2778 S Ocean Blvd #107,Palm Beach,FL,33480,810000,2,2.0,,1830,,1981,,443,,,,,https://www.redfin.com/FL/Palm-Beach/2778-S-Ocean-Blvd-33480/unit-107/home/42437746,,,N,Y,26.6199647,-80.0394771
PAST SALE,,Condo/Co-op,3741 Quail Ridge Dr N,Boynton Beach,FL,33436,510000,2,2.0,,1300,,1978,,392,,,,,https://www.redfin.com/FL/Boynton-Beach/3741-Quail-Ridge-Dr-N-33436/home/42300519,,,N,Y,26.509504,-80.100843
PAST SALE,July-6-2023,Condo/Co-op,20241 Boca West Dr #2702,Boca Raton,FL,33434,320000,3,2.5,Courtside,1229,120,1979,,260,865,Sold,,,https://www.redfin.com/FL/Boca-Raton/20241-Boca-West-Dr-33434/unit-2702/home/42255031,Beaches MLS,RX-10902309,N,Y,26.37684,-80.161509
PAST SALE,,Condo/Co-op,6985 Rain Forest Dr Unit E-1-U,Boca Raton,FL,33434,270000,2,2.0,,1248,,1983,,216,,,,,https://www.redfin.com/FL/Boca-Raton/6985-Rain-Forest-Dr-33434/unit-E-1-U/home/42256002,,,N,Y,26.3811523,-80.1534602
PAST SALE,June-7-2023,Condo/Co-op,910 E Tiffany Dr #2,Mangonia Park,FL,33407,62258,2,1.0,Tiffany Lake Condo PH 1,980,,1973,,64,717,Sold,,,https://www.redfin.com/FL/Mangonia-Park/910-E-Tiffany-Dr-33407/unit-2/home/42431003,Beaches MLS,RX-10896522,N,Y,26.7575088,-80.0833503
PAST SALE,,Condo/Co-op,2011 Ainslie a,Boca Raton,FL,33434,280000,2,2.0,,1032,,1979,,271,,,,,https://www.redfin.com/FL/Boca-Raton/2011-Ainslie-a-33434/home/42246053,,,N,Y,26.3858047,-80.1841416
PAST SALE,,Condo/Co-op,5200 N Ocean Dr #905,Riviera Beach,FL,33404,1100000,3,3.0,,2147,,1982,,512,,,,,https://www.redfin.com/FL/Riviera-Beach/5200-N-Ocean-Dr-33404/unit-905/home/42457031,,,N,Y,26.8043486,-80.0337128
PAST SALE,June-2-2023,Condo/Co-op,19867 Planters Blvd Unit A,Boca Raton,FL,33434,667500,3,2.0,Charter Cay,1795,43560,1987,,372,1233,Sold,,,https://www.redfin.com/FL/Boca-Raton/19867-Planters-Blvd-33434/unit-A/home/42248679,Beaches MLS,RX-10870168,N,Y,26.3811016,-80.1565954
PAST SALE,June-8-2023,Condo/Co-op,1210 Old Boynton Rd #118,Boynton Beach,FL,33426,135000,2,1.0,Poinciana Condo,696,,1973,,194,243,Sold,,,https://www.redfin.com/FL/Boynton-Beach/1210-Old-Boynton-Rd-33426/unit-118/home/42342221,Beaches MLS,RX-10891281,N,Y,26.5313013,-80.0872337
PAST SALE,July-11-2023,Condo/Co-op,3230 S Ocean Blvd Unit A302,Palm Beach,FL,33480,649000,2,2.0,LA Renaissance,1176,,1968,,552,1041,Sold,,,https://www.redfin.com/FL/Palm-Beach/3230-S-Ocean-Blvd-33480/unit-A302/home/42439656,Beaches MLS,RX-10893345,N,Y,26.6037292,-80.0377702
PAST SALE,,Condo/Co-op,10173 Quail Covey Rd,Boynton Beach,FL,33436,601000,3,2.0,,1560,,1980,,385,,,,,https://www.redfin.com/FL/Boynton-Beach/10173-Quail-Covey-Rd-33436/home/42291802,,,N,Y,26.5248681,-80.1025049
PAST SALE,July-21-2023,Condo/Co-op,8204 Summerbreeze Ln,Boca Raton,FL,33496,230000,2,2.0,Whisper Walk,1310,,1988,,176,499,Sold,,,https://www.redfin.com/FL/Boca-Raton/8204-Summerbreeze-Ln-33496/home/42236472,Beaches MLS,RX-10893024,N,Y,26.3946777,-80.1759872
PAST SALE,May-26-2023,Condo/Co-op,315 Tuscany F #315,Delray Beach,FL,33446,113000,1,1.5,Kings Point Tuscany B-g,872,,1973,,130,525,Sold,,,https://www.redfin.com/FL/Delray-Beach/315-Tuscany-Ln-33446/unit-315/home/104379933,Beaches MLS,RX-10884565,N,Y,26.448051,-80.153636
PAST SALE,June-22-2023,Condo/Co-op,343 Seville O #343,Delray Beach,FL,33446,92000,1,1.5,Kings Point Seville Condos,726,,1973,,127,571,Sold,,,https://www.redfin.com/FL/Delray-Beach/343-Seville-Blvd-33446/unit-343/home/185512860,Beaches MLS,RX-10892244,N,Y,26.4476209,-80.1488707
PAST SALE,July-11-2023,Condo/Co-op,604 NW 13th St #26,Boca Raton,FL,33486,237000,2,2.0,Spanish Oaks Condo,847,,1970,,280,390,Sold,,,https://www.redfin.com/FL/Boca-Raton/604-NW-13th-St-33486/unit-26/home/185776967,Beaches MLS,RX-10897375,N,Y,26.3606402,-80.0981825
PAST SALE,,Condo/Co-op,13334 Polo Club Rd #224,Wellington,FL,33414,525000,1,2.0,,1400,,1979,,375,,,,,https://www.redfin.com/FL/Wellington/13334-Polo-Club-Rd-33414/unit-224/home/42506009,,,N,Y,26.6430278,-80.2570701
PAST SALE,May-31-2023,Condo/Co-op,353 Brittany H,Delray Beach,FL,33446,135000,2,2.0,Kings Point Brittany Condos,883,,1974,,153,501,Sold,,,https://www.redfin.com/FL/Delray-Beach/353-Brittany-H-33446/home/42223564,Beaches MLS,RX-10881554,N,Y,26.444317,-80.153314
PAST SALE,June-28-2023,Condo/Co-op,1715 Village Blvd #305,West Palm Beach,FL,33409,185000,2,1.0,Milano Condo,914,,1994,,202,389,Sold,,,https://www.redfin.com/FL/West-Palm-Beach/1715-Village-Blvd-33409/unit-305/home/42591137,Beaches MLS,RX-10885914,N,Y,26.7279044,-80.1011119
PAST SALE,July-28-2023,Condo/Co-op,1638 Embassy Dr #104,West Palm Beach,FL,33401,183000,2,2.0,JAMESTOWN CONDO,835,,1973,,219,490,Sold,,,https://www.redfin.com/FL/West-Palm-Beach/1638-Embassy-Dr-33401/unit-104/home/42520804,MARMLS,A11401044,N,Y,26.7280183,-80.0816682
PAST SALE,July-7-2023,Condo/Co-op,2806 Veronia Dr #304,Palm Beach Gardens,FL,33410,305000,2,2.0,San Matera,1057,,2003,,289,459,Sold,,,https://www.redfin.com/FL/Palm-Beach-Gardens/2806-Veronia-Dr-33410/unit-304/home/42615457,Beaches MLS,RX-10891413,N,Y,26.8522419,-80.0769091
PAST SALE,,Condo/Co-op,4096 Quail Ridge Dr N Unit B,Boynton Beach,FL,33436,315000,2,2.0,,1359,,1977,,232,,,,,https://www.redfin.com/FL/Boynton-Beach/4096-Quail-Ridge-Dr-N-33436/unit-B/home/42204930,,,N,Y,26.511833,-80.1079199
PAST SALE,May-12-2023,Condo/Co-op,203 Foxtail Dr Unit H2,Greenacres,FL,33415,225000,2,2.0,Charter Club OF Palm Beach Condo,1005,,1985,,224,345,Sold,,,https://www.redfin.com/FL/Greenacres/203-Foxtail-Dr-33415/unit-H2/home/42382972,Beaches MLS,RX-10884994,N,Y,26.6445728,-80.1449954
PAST SALE,June-30-2023,Condo/Co-op,210 E Tiffany Dr #2,Mangonia Park,FL,33407,70000,2,1.0,Tiffany Lake Condo PH 2,980,,1974,,71,547,Sold,,,https://www.redfin.com/FL/Mangonia-Park/210-E-Tiffany-Dr-33407/unit-2/home/42426230,Beaches MLS,RX-10898498,N,Y,26.7560084,-80.0823239
PAST SALE,June-22-2023,Condo/Co-op,1500 Presidential Way #703,West Palm Beach,FL,33401,233000,2,2.0,Yorktown Condo,1194,,1972,,195,628,Sold,,,https://www.redfin.com/FL/West-Palm-Beach/1500-Presidential-Way-33401/unit-703/home/42519905,Beaches MLS,RX-10896402,N,Y,26.7279501,-80.0833931
PAST SALE,June-16-2023,Condo/Co-op,4010 Cornwall A,Boca Raton,FL,33434,138000,1,1.5,Century Village,738,,1979,,187,270,Sold,,,https://www.redfin.com/FL/Boca-Raton/4010-Cornwall-a-33434/home/42251270,Beaches MLS,RX-10888991,N,Y,26.3863616,-80.181069
PAST SALE,June-5-2023,Condo/Co-op,11780 Saint Andrews Pl #304,Wellington,FL,33414,430000,2,2.0,ST ANDREWS AT POLO CLUB C,1223,,2001,,352,379,Sold,,,https://www.redfin.com/FL/Wellington/11780-Saint-Andrews-Pl-33414/unit-304/home/42593643,MARMLS,A11379600,N,Y,26.6509811,-80.2321749
PAST SALE,July-14-2023,Condo/Co-op,6590 N Ocean Blvd #2,Ocean Ridge,FL,33435,850000,2,2.5,Ridge Homes Cond,1474,,1971,,577,1024,Sold,,,https://www.redfin.com/FL/Ocean-Ridge/6590-N-Ocean-Blvd-33435/unit-2/home/42430963,Beaches MLS,RX-10895085,N,Y,26.5328664,-80.0482008
PAST SALE,June-1-2023,Condo/Co-op,2301 Bridgewood Dr,Boca Raton,FL,33434,599000,3,3.5,Bridgewood,1800,,1979,,333,798,Sold,,,https://www.redfin.com/FL/Boca-Raton/2301-Bridgewood-Dr-33434/home/42249382,Beaches MLS,RX-10876395,N,Y,26.3734569,-80.16408
PAST SALE,July-14-2023,Condo/Co-op,4500 N Flagler Dr Unit C8,West Palm Beach,FL,33407,160000,1,1.0,Regency Surf & Racquet Club Condo,600,,1980,,267,318,Sold,,,https://www.redfin.com/FL/West-Palm-Beach/4500-N-Flagler-Dr-33407/unit-C8/home/42511862,Beaches MLS,RX-10893961,N,Y,26.7522479,-80.051877
PAST SALE,May-4-2023,Condo/Co-op,1618 Meadows Cir W,Boynton Beach,FL,33436,175000,1,1.0,Meadows ON The Green Condo,704,,1986,,249,246,Sold,,,https://www.redfin.com/FL/Boynton-Beach/1618-Meadows-Cir-W-33436/unit-1618/home/42601244,Beaches MLS,RX-10882264,N,Y,26.568686,-80.093886
PAST SALE,June-30-2023,Condo/Co-op,2313 N Congress Ave #36,Boynton Beach,FL,33426,167000,2,1.0,Boynton Landings Condo,887,,1987,,188,429,Sold,,,https://www.redfin.com/FL/Boynton-Beach/2313-N-Congress-Ave-33426/unit-36/home/42581874,Beaches MLS,RX-10891811,N,Y,26.5492507,-80.0922086
PAST SALE,July-19-2023,Condo/Co-op,531 N J St #5,Lake Worth Beach,FL,33460,190000,2,2.0,Rita Apts IV Cond Decl Filed 12-28-79,1000,,1979,,190,302,Sold,,,https://www.redfin.com/FL/Lake-Worth/531-N-J-St-33460/unit-5/home/42417963,Beaches MLS,RX-10898072,N,Y,26.6225383,-80.0563507
PAST SALE,July-21-2023,Condo/Co-op,531 N J St #7,Lake Worth Beach,FL,33460,170000,1,1.0,Rita Apts IV Cond Decl Filed 12-28-79,663,,1979,,256,231,Sold,,,https://www.redfin.com/FL/Lake-Worth/531-N-J-St-33460/unit-7/home/42417965,Beaches MLS,RX-10898074,N,Y,26.6225383,-80.0563507
PAST SALE,July-6-2023,Condo/Co-op,9 Colonial Club Dr #305,Boynton Beach,FL,33435,310000,2,2.0,Colonial Club,1200,,1973,,258,796,Sold,,,https://www.redfin.com/FL/Boynton-Beach/9-Colonial-Club-Dr-33435/unit-305/home/42349713,Beaches MLS,RX-10894781,N,Y,26.5004898,-80.0584474
PAST SALE,May-16-2023,Condo/Co-op,490 NW 20th St #205,Boca Raton,FL,33431,250000,2,2.0,Casa Del Rio,936,,1980,,267,344,Sold,,,https://www.redfin.com/FL/Boca-Raton/490-NW-20th-St-33431/unit-205/home/42319934,Beaches MLS,RX-10883882,N,Y,26.3688453,-80.0943033
PAST SALE,July-7-2023,Condo/Co-op,2413 Lowson Blvd Unit B,Delray Beach,FL,33445,188000,1,1.5,Fairway Condo,821,,1978,,229,398,Sold,,,https://www.redfin.com/FL/Delray-Beach/2413-Lowson-Blvd-33445/unit-B/home/42366457,Beaches MLS,RX-10895448,N,Y,26.4464602,-80.098337
PAST SALE,June-28-2023,Condo/Co-op,3800 N Ocean Dr #919,Singer Island,FL,33404,670000,1,1.0,Resort AT Singer Island Hotel Condo,719,,2007,,932,1611,Sold,,,https://www.redfin.com/FL/Riviera-Beach/3800-N-Ocean-Dr-33404/unit-919/home/42659677,Beaches MLS,RX-10889518,N,Y,26.7922887,-80.0338438
PAST SALE,May-8-2023,Condo/Co-op,5530 N Ocean Blvd #306,Ocean Ridge,FL,33435,395000,2,2.0,Kings Bay House Condo,930,,1969,,425,611,Sold,,,https://www.redfin.com/FL/Ocean-Ridge/5530-N-Ocean-Blvd-33435/unit-306/home/42439407,Beaches MLS,RX-10882483,N,Y,26.5120292,-80.0554668
PAST SALE,May-5-2023,Condo/Co-op,1 Westgate Ln Unit A,Boynton Beach,FL,33436,135000,2,2.0,Westgate AT Hunters Run Condo,1808,,1981,,75,845,Sold,,,https://www.redfin.com/FL/Boynton-Beach/1-Westgate-Ln-33436/unit-A/home/45092038,Beaches MLS,RX-10855772,N,Y,26.4873181,-80.110535
PAST SALE,June-30-2023,Condo/Co-op,350 N Federal Hwy #503,Boynton Beach,FL,33435,285000,1,1.0,CASA COSTA CONDO,805,,2010,,354,575,Sold,,,https://www.redfin.com/FL/Boynton-Beach/350-N-Federal-Hwy-33435/unit-503/home/42672519,MARMLS,A11369696,N,Y,26.529837,-80.057551
PAST SALE,May-25-2023,Condo/Co-op,405 Executive Center Dr #212,West Palm Beach,FL,33401,140000,1,1.0,Clear Lake Palms Condo,713,,1971,,196,330,Sold,,,https://www.redfin.com/FL/West-Palm-Beach/405-Executive-Center-Dr-33401/unit-212/home/42655103,Beaches MLS,F10376801,N,Y,26.7116715,-80.0786795
PAST SALE,August-1-2023,Condo/Co-op,7786 Lakeside Blvd #633,Boca Raton,FL,33434,175000,2,2.0,Lakewood Midrise Condo,1050,,1976,,167,622,Sold,,,https://www.redfin.com/FL/Boca-Raton/7786-Lakeside-Blvd-33434/unit-633/home/42249375,Beaches MLS,RX-10892507,N,Y,26.3786714,-80.1676706
PAST SALE,July-24-2023,Condo/Co-op,600 Egret Cir #7505,Delray Beach,FL,33444,400000,2,2.0,Lavers Delray Racquet Club Condo,1290,,1981,,310,620,Sold,,,https://www.redfin.com/FL/Delray-Beach/600-Egret-Cir-33444/unit-7505/home/42371226,Beaches MLS,RX-10896145,N,Y,26.43524,-80.079628
PAST SALE,May-9-2023,Condo/Co-op,15 Royal Palm Way #306,Boca Raton,FL,33432,285000,1,1.5,Boca Bayou,795,,1979,,358,535,Sold,,,https://www.redfin.com/FL/Boca-Raton/15-Royal-Palm-Way-33432/unit-306/home/184917166,Beaches MLS,RX-10878414,N,Y,26.326959,-80.093642
PAST SALE,July-26-2023,Condo/Co-op,14360 Strathmore Ln #201,Delray Beach,FL,33446,188501,2,2.0,Huntington Lakes,1070,,1981,,176,743,Sold,,,https://www.redfin.com/FL/Delray-Beach/14360-Strathmore-Ln-33446/unit-201/home/42626059,Beaches MLS,RX-10900515,N,Y,26.4631483,-80.1487459
PAST SALE,July-19-2023,Condo/Co-op,196 Seville I,Delray Beach,FL,33446,115000,2,2.0,Kings Point Seville Condos,883,,1973,,130,660,Sold,,,https://www.redfin.com/FL/Delray-Beach/196-Seville-I-33446/home/42225726,Beaches MLS,RX-10895953,N,Y,26.4484984,-80.1474026
PAST SALE,June-5-2023,Condo/Co-op,5800 Camino Del Sol #301,Boca Raton,FL,33433,395000,2,2.0,Camino Real Village,1230,,1980,,321,498,Sold,,,https://www.redfin.com/FL/Boca-Raton/5800-Camino-del-Sol-33433/unit-301/home/42267912,Beaches MLS,RX-10888044,N,Y,26.3420782,-80.1347896
PAST SALE,July-11-2023,Condo/Co-op,170 Mansfield Unit E,Boca Raton,FL,33434,101000,1,1.5,MANSFIELD AT CENTURY VILL,720,,1980,,140,289,Sold,,,https://www.redfin.com/FL/Boca-Raton/170-Mansfield-F-33434/unit-E/home/185495480,MARMLS,A11391769,N,Y,26.3912209,-80.1747361
PAST SALE,May-18-2023,Condo/Co-op,14797 Cumberland Dr #2030,Delray Beach,FL,33446,194900,2,2.0,Villages OF Oriole Deauville Condo,1005,,1980,,194,600,Sold,,,https://www.redfin.com/FL/Delray-Beach/14797-Cumberland-Dr-33446/unit-2030/home/42226922,Beaches MLS,RX-10877575,N,Y,26.4571017,-80.1564948
PAST SALE,May-24-2023,Condo/Co-op,18860 Argosy Dr,Boca Raton,FL,33496,229000,2,2.0,Whisper Walk,1022,43560,1985,,224,442,Sold,,,https://www.redfin.com/FL/Boca-Raton/18860-Argosy-Dr-33496/home/42242267,Beaches MLS,RX-10885556,N,Y,26.3984,-80.185671
PAST SALE,July-14-2023,Condo/Co-op,6511 Emerald Dunes Dr #106,Royal Palm Beach,FL,33411,275000,2,2.0,Villas At Emerald Dunes,1141,,2006,,241,435,Sold,,,https://www.redfin.com/FL/Royal-Palm-Beach/6511-Emerald-Dunes-Dr-33411/unit-106/home/42613531,Beaches MLS,F10383242,N,Y,26.7103109,-80.143699
PAST SALE,August-1-2023,Condo/Co-op,14623 Bonaire Blvd #101,Delray Beach,FL,33446,210000,2,2.0,Bonaire,1145,,1979,,183,502,Sold,,,https://www.redfin.com/FL/Delray-Beach/14623-Bonaire-Blvd-33446/unit-101/home/42217977,Beaches MLS,RX-10898227,N,Y,26.4597838,-80.1498626
PAST SALE,June-9-2023,Condo/Co-op,419 Us Highway 1 #215,North Palm Beach,FL,33408,219000,2,2.0,Village Garden Condo Apts,886,,1969,,247,454,Sold,,,https://www.redfin.com/FL/North-Palm-Beach/419-US-Highway-1-33408/unit-215/home/42478778,Beaches MLS,RX-10885814,N,Y,26.809655,-80.0571102
PAST SALE,July-14-2023,Condo/Co-op,484 Capri K #484,Delray Beach,FL,33484,160000,2,2.0,Kings Point Capri K Condo 484,907,,1978,,176,560,Sold,,,https://www.redfin.com/FL/Delray-Beach/484-Capri-K-33484/unit-484/home/129851981,Beaches MLS,RX-10891787,N,Y,26.4394069,-80.1345447
PAST SALE,May-26-2023,Condo/Co-op,12616 Shoreline Dr Unit 102 A,Wellington,FL,33414,375000,3,2.0,Shores Of Wellington,1437,,2004,,261,431,Sold,,,https://www.redfin.com/FL/Wellington/12616-Shoreline-Dr-33414/unit-102A/home/42595585,Beaches MLS,RX-10883884,N,Y,26.6537733,-80.2459962
PAST SALE,May-11-2023,Condo/Co-op,802 Meadows Cir,Boynton Beach,FL,33436,242500,2,2.0,Meadows ON The Green Condominium,921,,1986,,263,313,Sold,,,https://www.redfin.com/FL/Boynton-Beach/802-Meadows-Cir-33436/home/42602788,Beaches MLS,RX-10883182,N,Y,26.568686,-80.093886
PAST SALE,May-12-2023,Condo/Co-op,2951 Ashley Dr W Unit D,West Palm Beach,FL,33415,110000,1,1.5,Cresthaven Villas NO 7 Cond Decl IN,661,,1968,,166,351,Sold,,,https://www.redfin.com/FL/West-Palm-Beach/2951-Ashley-Dr-W-33415/unit-D/home/180550470,Beaches MLS,RX-10878242,N,Y,26.6336709,-80.1203729
PAST SALE,May-5-2023,Condo/Co-op,500 SE Mizner Blvd Unit A909,Boca Raton,FL,33432,925000,2,2.5,Townsend Place Condo,1802,,1998,,513,1840,Sold,,,https://www.redfin.com/FL/Boca-Raton/500-SE-Mizner-Blvd-33432/unit-A909/home/42541937,Beaches MLS,RX-10880650,N,Y,26.344995,-80.0847024
PAST SALE,June-5-2023,Condo/Co-op,1473 Lake Crystal Dr Unit A,West Palm Beach,FL,33411,200000,2,2.0,PALM BEACH GRANDE CONDO,900,,1986,,222,420,Sold,,,https://www.redfin.com/FL/West-Palm-Beach/1473-Lake-Crystal-Dr-33411/unit-A/home/42614972,MARMLS,A11381262,N,Y,26.6999419,-80.1712347
PAST SALE,June-30-2023,Condo/Co-op,5187 Europa Dr Unit C,Boynton Beach,FL,33437,299000,2,2.0,Platina / Diamante Village,1578,,1993,,189,688,Sold,,,https://www.redfin.com/FL/Boynton-Beach/5187-Europa-Dr-33437/unit-C/home/42203480,Beaches MLS,RX-10883803,N,Y,26.5348973,-80.1255556
PAST SALE,May-22-2023,Condo/Co-op,1008 Green Pine Blvd Unit G2,West Palm Beach,FL,33409,250000,2,2.0,Palm Club Village I,1064,,1984,,235,408,Sold,,,https://www.redfin.com/FL/West-Palm-Beach/1008-Green-Pine-Blvd-33409/unit-G2/home/42505820,Beaches MLS,F10374611,N,Y,26.7300394,-80.1082278
PAST SALE,,Condo/Co-op,5201 NW 2nd Ave #3110,Boca Raton,FL,33487,340000,2,2.0,,1300,,1974,,262,,,,,https://www.redfin.com/FL/Boca-Raton/5201-NW-2nd-Ave-33487/unit-3110/home/42643186,,,N,Y,26.3967121,-80.0845933
PAST SALE,May-30-2023,Condo/Co-op,8 Colonial Club Dr #302,Boynton Beach,FL,33435,225000,1,1.5,Colonial Club Condo Sec 1,950,,1974,,237,642,Sold,,,https://www.redfin.com/FL/Boynton-Beach/8-Colonial-Club-Dr-33435/unit-302/home/42348678,Beaches MLS,RX-10884948,N,Y,26.5010188,-80.0585129
PAST SALE,June-30-2023,Condo/Co-op,20310 Fairway Oaks Dr #154,Boca Raton,FL,33434,1380000,2,3.0,FAIRWAY POINT CONDO,3348,,1988,,412,4133,Sold,,,https://www.redfin.com/FL/Boca-Raton/20310-Fairway-Oaks-Dr-33434/unit-154/home/42247998,MARMLS,A11375022,N,Y,26.380315,-80.159363
PAST SALE,June-30-2023,Condo/Co-op,7783 Lakeside Blvd Unit G701,Boca Raton,FL,33434,339000,2,2.0,Gardens of Lakewood,1225,,1978,,277,972,Sold,,,https://www.redfin.com/FL/Boca-Raton/7783-Lakeside-Blvd-33434/unit-G701/home/42253249,Beaches MLS,RX-10889157,N,Y,26.3798832,-80.1665474
PAST SALE,July-21-2023,Condo/Co-op,14500 Stirling Way #403,Delray Beach,FL,33446,212000,2,2.0,Huntington Lakes Sec Five Condos,1220,,1989,,174,743,Sold,,,https://www.redfin.com/FL/Delray-Beach/14500-Stirling-Way-33446/unit-403/home/42217810,Beaches MLS,RX-10898678,N,Y,26.4608354,-80.1627872
PAST SALE,,Condo/Co-op,3129 Millwood Ter #2380,Boca Raton,FL,33431,335000,2,2.0,,920,,1985,,364,,,,,https://www.redfin.com/FL/Boca-Raton/3129-Millwood-Ter-33431/unit-2380/home/42322402,,,N,Y,26.3801023,-80.089503
PAST SALE,June-7-2023,Condo/Co-op,7786 Lakeside Blvd #676,Boca Raton,FL,33434,310,2,2.0,Lakewood Midrise Condo,1050,,1976,,0,687,Sold,,,https://www.redfin.com/FL/Boca-Raton/7786-Lakeside-Blvd-33434/unit-676/home/42247852,Beaches MLS,RX-10885824,N,Y,26.3786714,-80.1676706
PAST SALE,May-26-2023,Condo/Co-op,41 Norwich B #41,West Palm Beach,FL,33417,63401,1,1.5,NORWICH CONDO,684,,1970,,93,400,Sold,,,https://www.redfin.com/FL/West-Palm-Beach/41-Norwich-B-33417/unit-41/home/180730369,MARMLS,A11248852,N,Y,26.718523,-80.1212539
PAST SALE,May-25-2023,Condo/Co-op,21935 Arriba Real Unit 20-A,Boca Raton,FL,33433,449900,2,2.0,Glades OF Boca Lago Condo,1520,1631579,1979,,296,780,Sold,,,https://www.redfin.com/FL/Boca-Raton/21935-Arriba-Real-33433/unit-20A/home/42253742,Beaches MLS,RX-10884137,N,Y,26.351994,-80.184211
PAST SALE,July-5-2023,Condo/Co-op,8310 Casa Del Lago Unit A,Boca Raton,FL,33433,369000,2,2.0,Fairways OF Boca Lago Condo,1216,,1978,,303,560,Sold,,,https://www.redfin.com/FL/Boca-Raton/8310-Casa-del-Lago-33433/unit-A/home/42252544,Beaches MLS,RX-10892865,N,Y,26.3563242,-80.1758671
PAST SALE,May-24-2023,Condo/Co-op,5851 Camino Del Sol #207,Boca Raton,FL,33433,350000,3,2.5,Camino Real Village,1597,,1986,,219,634,Sold,,,https://www.redfin.com/FL/Boca-Raton/5851-Camino-del-Sol-33433/unit-207/home/42265773,Beaches MLS,RX-10874102,N,Y,26.3400667,-80.1356064
PAST SALE,June-1-2023,Condo/Co-op,106 Capri C,Delray Beach,FL,33484,130000,1,1.5,Kings Point/isle OF Capri,792,,1979,,164,525,Sold,,,https://www.redfin.com/FL/Delray-Beach/106-Capri-C-33484/home/42235294,Beaches MLS,RX-10879830,N,Y,26.4429572,-80.136078
PAST SALE,May-31-2023,Condo/Co-op,4001 N Ocean Blvd #303,Gulf Stream,FL,33483,7550000,3,3.5,4001 North Ocean Condo,3122,,2013,,2418,3977,Sold,,,https://www.redfin.com/FL/Gulf-Stream/4001-N-Ocean-Blvd-33483/unit-303/home/64098622,Beaches MLS,RX-10887460,N,Y,26.5017322,-80.0523692
PAST SALE,June-2-2023,Condo/Co-op,1200 Crestwood Ct S #1202,Royal Palm Beach,FL,33411,307000,3,2.0,Grand View AT Crestwood,1290,,2001,,238,353,Sold,,,https://www.redfin.com/FL/Royal-Palm-Beach/1200-Crestwood-Ct-S-33411/unit-1202/home/42589442,Beaches MLS,RX-10878472,N,Y,26.6848482,-80.2441287
PAST SALE,July-17-2023,Condo/Co-op,6752 Heritage Grande #5305,Boynton Beach,FL,33437,250000,2,2.0,Green Cay Village Condo,939,,2007,,266,372,Sold,,,https://www.redfin.com/FL/Boynton-Beach/6752-Heritage-Grande-33437/unit-5305/home/42625112,Beaches MLS,RX-10887257,N,Y,26.49001,-80.15047
PAST SALE,June-30-2023,Condo/Co-op,7 Greenway Vlg N #109,Royal Palm Beach,FL,33411,115000,2,2.0,Greenway Village North,1030,,1970,,112,483,Sold,,,https://www.redfin.com/FL/Royal-Palm-Beach/7-Greenway-Vlg-N-33411/unit-109/home/42486509,Beaches MLS,RX-10890863,N,Y,26.6964673,-80.231166
PAST SALE,July-12-2023,Condo/Co-op,9981 Harbour Lake Cir #101,Boynton Beach,FL,33437,274000,3,2.0,"Palm Isles I, II And Iii Condos",1616,,1994,,170,697,Sold,,,https://www.redfin.com/FL/Boynton-Beach/9981-Harbour-Lake-Cir-33437/unit-101/home/42193144,Beaches MLS,RX-10894069,N,Y,26.5286557,-80.1605263
PAST SALE,June-19-2023,Condo/Co-op,113 Wellington B,West Palm Beach,FL,33417,260500,2,2.0,Century Village,1062,,1971,,245,529,Sold,,,https://www.redfin.com/FL/West-Palm-Beach/113-Wellington-B-33417/home/42155878,Beaches MLS,RX-10889992,N,Y,26.7104805,-80.1322432
PAST SALE,May-9-2023,Condo/Co-op,1638 Embassy Dr #410,West Palm Beach,FL,33401,152000,2,2.0,Jamestown Condo,835,,1973,,182,390,Sold,,,https://www.redfin.com/FL/West-Palm-Beach/1638-Embassy-Dr-33401/unit-410/home/42519279,Beaches MLS,RX-10875982,N,Y,26.7280183,-80.0816682
PAST SALE,May-23-2023,Condo/Co-op,135 Yacht Clb #102,Hypoluxo,FL,33462,265000,2,1.0,Yacht Club ON The Intracoastal Condominium,982,,1996,,270,678,Sold,,,https://www.redfin.com/FL/Hypoluxo/135-Yacht-Club-Way-33462/unit-102/home/42598101,Beaches MLS,RX-10883683,N,Y,26.5662827,-80.0515277
PAST SALE,May-22-2023,Condo/Co-op,10354 Fox Trail Rd S #1505,Royal Palm Beach,FL,33411,215000,1,1.0,Spa AT Sunset Isles Condo,781,,1999,,275,301,Sold,,,https://www.redfin.com/FL/West-Palm-Beach/10354-Fox-Trail-Rd-S-33411/unit-1505/home/42648122,Beaches MLS,RX-10878704,N,Y,26.7074439,-80.2062047
PAST SALE,May-17-2023,Condo/Co-op,149 Coventry G #149,West Palm Beach,FL,33417,78000,1,1.5,COVENTRY CONDO,646,,1969,,121,425,Sold,,,https://www.redfin.com/FL/West-Palm-Beach/149-Coventry-G-33417/unit-149/home/104440055,MARMLS,A11375490,N,Y,26.7192741,-80.1222863
PAST SALE,May-25-2023,Condo/Co-op,918 Flanders T,Delray Beach,FL,33484,115000,2,2.0,Kings Point Flanders Condos,907,,1978,,127,523,Sold,,,https://www.redfin.com/FL/Delray-Beach/918-Flanders-T-33484/home/42227013,Beaches MLS,RX-10883192,N,Y,26.4402361,-80.137665
PAST SALE,July-27-2023,Condo/Co-op,5209 Lake Catalina Dr N Unit D,Boca Raton,FL,33496,679000,3,2.5,Catalina / Polo Club,2374,,1989,,286,516,Sold,,,https://www.redfin.com/FL/Boca-Raton/5209-Lake-Catalina-Dr-N-33496/unit-D/home/42236188,Beaches MLS,RX-10885306,N,Y,26.4135787,-80.1260657
PAST SALE,June-8-2023,Condo/Co-op,14426 Amberly Ln #103,Delray Beach,FL,33446,200000,2,2.0,Huntington Lakes,1230,,1986,,163,726,Sold,,,https://www.redfin.com/FL/Delray-Beach/14426-Amberly-Ln-33446/unit-103/home/42224020,Beaches MLS,RX-10882407,N,Y,26.462612,-80.1567755
PAST SALE,June-26-2023,Condo/Co-op,4821 Sable Pine Cir Unit B1,West Palm Beach,FL,33417,180000,2,2.0,Pine Ridge AT Haverhill Condo,1115,,1984,,161,244,Sold,,,https://www.redfin.com/FL/West-Palm-Beach/4821-Sable-Pine-Cir-33417/unit-B1/home/42151263,Beaches MLS,RX-10890020,N,Y,26.7278202,-80.1153341
PAST SALE,May-15-2023,Condo/Co-op,13840 Via Flora Unit C,Delray Beach,FL,33484,163500,2,2.0,Palm Greens,1021,,1974,,160,430,Sold,,,https://www.redfin.com/FL/Delray-Beach/13840-Via-Flora-33484/unit-C/home/42219009,Beaches MLS,RX-10880558,N,Y,26.476983,-80.131724
PAST SALE,June-5-2023,Condo/Co-op,1745 Palm Cove Blvd Unit 3-201,Delray Beach,FL,33445,219000,1,1.0,Verano AT Delray Condo,636,,1992,,344,351,Sold,,,https://www.redfin.com/FL/Delray-Beach/1745-Palm-Cove-Blvd-33445/unit-3-201/home/42599250,Beaches MLS,RX-10886353,N,Y,26.4381251,-80.1037285
PAST SALE,June-14-2023,Condo/Co-op,5850 Camino Del Sol #106,Boca Raton,FL,33433,380000,2,2.0,Camino Real Village Condo,1230,,1992,,309,498,Sold,,,https://www.redfin.com/FL/Boca-Raton/5850-Camino-del-Sol-33433/unit-106/home/42262827,Beaches MLS,RX-10885616,N,Y,26.3399924,-80.1354618
PAST SALE,May-15-2023,Condo/Co-op,109 Monaco C Blvd Unit C,Delray Beach,FL,33446,170000,2,2.0,Kings Point Monaco Condos,883,,1974,,193,618,Sold,,,https://www.redfin.com/FL/Delray-Beach/109-Monaco-Ct-33446/unit-C/home/184729749,Beaches MLS,RX-10874356,N,Y,26.443607,-80.1498966
PAST SALE,June-28-2023,Condo/Co-op,1700 Dover Rd Unit 110-A,Delray Beach,FL,33445,205000,1,1.5,Lakeview Greens Condo 1,939,,1983,,218,332,Sold,,,https://www.redfin.com/FL/Delray-Beach/1700-Dover-Rd-33445/unit-110A/home/42640803,Beaches MLS,RX-10888208,N,Y,26.440065,-80.1066955
PAST SALE,May-22-2023,Condo/Co-op,2037 Cornwall B,Boca Raton,FL,33434,186005,2,1.5,Century Village,861,,1979,,216,302,Sold,,,https://www.redfin.com/FL/Boca-Raton/2037-Cornwall-B-33434/home/42244285,Beaches MLS,RX-10878444,N,Y,26.3848285,-80.1812956
PAST SALE,June-23-2023,Condo/Co-op,7370 S Oriole Blvd Unit 106c,Delray Beach,FL,33446,225000,3,2.0,Huntington Towers Condo,1500,,1989,,150,682,Sold,,,https://www.redfin.com/FL/Delray-Beach/7370-S-Oriole-Blvd-33446/unit-106c/home/185308531,Beaches MLS,RX-10886588,N,Y,26.4569921,-80.1606507
PAST SALE,June-30-2023,Condo/Co-op,71 East Ct,Royal Palm Beach,FL,33411,180000,2,1.0,Greenway Village North Condo 1,821,,1967,,219,325,Sold,,,https://www.redfin.com/FL/Royal-Palm-Beach/71-East-Ct-33411/home/42486166,Beaches MLS,RX-10894083,N,Y,26.695227,-80.231722
PAST SALE,May-31-2023,Condo/Co-op,2947 Hope Valley St #202,West Palm Beach,FL,33411,315000,3,3.0,LINKS AT EMERALD DUNES CO,1423,,2006,,221,400,Sold,,,https://www.redfin.com/FL/West-Palm-Beach/2947-Hope-Valley-St-33411/unit-202/home/42614635,MARMLS,A11372428,N,Y,26.7191142,-80.1437592
PAST SALE,June-13-2023,Condo/Co-op,6875 Willow Wood Dr #2043,Boca Raton,FL,33434,225000,2,2.0,Willowwood Midrise Condo,1150,,1980,,196,634,Sold,,,https://www.redfin.com/FL/Boca-Raton/6875-Willow-Wood-Dr-33434/unit-2043/home/42251988,Beaches MLS,RX-10884806,N,Y,26.3756673,-80.1504292
PAST SALE,June-12-2023,Condo/Co-op,1750 N Congress Ave #403,West Palm Beach,FL,33401,169000,1,1.0,PRESIDENTIAL GOLFVIEW CON,775,,1981,,218,360,Sold,,,https://www.redfin.com/FL/West-Palm-Beach/1750-N-Congress-Ave-33401/unit-403/home/42520364,MARMLS,A11382242,N,Y,26.7304076,-80.0885429
PAST SALE,May-30-2023,Condo/Co-op,801 Lake Shore Dr #202,Lake Park,FL,33403,455000,2,2.0,Lake Harbour Towers Condo,1316,,1974,,346,697,Sold,,,https://www.redfin.com/FL/Lake-Park/801-Lake-Shore-Dr-33403/unit-202/home/42414992,Beaches MLS,RX-10882151,N,Y,26.7998816,-80.0526841
PAST SALE,July-18-2023,Condo/Co-op,7290 Kinghurst Dr Unit P7-807,Delray Beach,FL,33446,324000,2,2.0,Huntington Lakes,1230,,1989,,263,743,Sold,,,https://www.redfin.com/FL/Delray-Beach/7290-Kinghurst-Dr-33446/unit-P7-807/home/185933791,Beaches MLS,RX-10900384,N,Y,26.4592247,-80.160607
PAST SALE,June-5-2023,Condo/Co-op,10360 S Fox Trail Rd S #1606,Royal Palm Beach,FL,33411,215000,1,1.0,SPA AT SUNSET ISLES CONDO,784,,1999,,274,235,Sold,,,https://www.redfin.com/FL/West-Palm-Beach/10360-Fox-Trail-Rd-S-33411/unit-1606/home/42605280,MARMLS,A11383089,N,Y,26.7079848,-80.2061176
PAST SALE,,Condo/Co-op,56 Brittany B,Delray Beach,FL,33446,193000,2,2.0,,883,,1973,,219,,,,,https://www.redfin.com/FL/Delray-Beach/56-Brittany-B-33446/home/42223215,,,N,Y,26.4451471,-80.1515071
PAST SALE,June-20-2023,Condo/Co-op,516 Shady Pine Way Unit D1,Greenacres,FL,33415,265000,2,2.0,Pine Ridge North I Condo,1115,,1985,,238,373,Sold,,,https://www.redfin.com/FL/Greenacres/516-Shady-Pine-Way-33415/unit-D1/home/42378659,Beaches MLS,RX-10880344,N,Y,26.6406494,-80.1452789
PAST SALE,May-31-2023,Condo/Co-op,1139 Lake Terry Dr Unit M,West Palm Beach,FL,33411,151000,2,1.0,ST Andrews Palm Beach Condo Iii,708,,1991,,213,349,Sold,,,https://www.redfin.com/FL/West-Palm-Beach/1139-Lake-Terry-Dr-33411/unit-M/home/42623865,Beaches MLS,RX-10884829,N,Y,26.6966097,-80.1700214
PAST SALE,July-5-2023,Condo/Co-op,5250 Europa Dr Unit A,Boynton Beach,FL,33437,290000,3,2.0,Platina/carrara,1578,,1992,,184,658,Sold,,,https://www.redfin.com/FL/Boynton-Beach/5250-Europa-Dr-33437/unit-A/home/42197004,Beaches MLS,RX-10894405,N,Y,26.5343298,-80.1300352
PAST SALE,June-30-2023,Condo/Co-op,20100 Boca West Dr #157,Boca Raton,FL,33434,750000,2,2.0,Laurel Oaks,1760,43560,1980,,426,1012,Sold,,,https://www.redfin.com/FL/Boca-Raton/20100-Boca-West-Dr-33434/unit-157/home/42257076,Beaches MLS,RX-10864930,N,Y,26.3823991,-80.1500828
PAST SALE,June-30-2023,Condo/Co-op,16880 Isle Of Palms Dr Unit B,Delray Beach,FL,33484,879000,3,2.5,Cypress Isle / Polo Club,2438,,1989,,361,903,Sold,,,https://www.redfin.com/FL/Delray-Beach/16880-Isle-of-Palms-Dr-33484/unit-B/home/42230547,Beaches MLS,RX-10885828,N,Y,26.4259489,-80.1360108
PAST SALE,May-23-2023,Condo/Co-op,470 Executive Center Dr Unit 2c,West Palm Beach,FL,33401,150000,1,1.0,Breakwaters OF The Palm Beaches Condo,704,,1979,,213,440,Sold,,,https://www.redfin.com/FL/West-Palm-Beach/470-Executive-Center-Dr-33401/unit-2C/home/42525186,Beaches MLS,RX-10880557,N,Y,26.7135843,-80.0772294
PAST SALE,,Condo/Co-op,132 Andover F,West Palm Beach,FL,33417,85000,1,1.5,,738,,1971,,115,,,,,https://www.redfin.com/FL/West-Palm-Beach/132-Andover-F-33417/home/42146996,,,N,Y,26.7103356,-80.1285161
PAST SALE,June-12-2023,Condo/Co-op,714 Northlake Ct #108,North Palm Beach,FL,33408,355000,2,2.0,Northlake Villas Condo,935,,1977,,380,475,Sold,,,https://www.redfin.com/FL/North-Palm-Beach/714-Northlake-Ct-33408/unit-108/home/42646622,Beaches MLS,RX-10883505,N,Y,26.8098705,-80.0695037
PAST SALE,May-22-2023,Condo/Co-op,1721 Village Blvd #305,West Palm Beach,FL,33409,220,2,2.0,Milano Condo,1075,,1994,,0,594,Sold,,,https://www.redfin.com/FL/West-Palm-Beach/1721-Village-Blvd-33409/unit-305/home/42595071,Beaches MLS,RX-10878498,N,Y,26.7272226,-80.1015419
PAST SALE,June-9-2023,Condo/Co-op,1605 S Us Highway 1 Unit 306v6,Jupiter,FL,33477,365000,2,2.0,"Jupiter Ocean And Racquet Club Tennis Villa 1,2,3,",1200,30,1979,,304,808,Sold,,,https://www.redfin.com/FL/Jupiter/1605-U-S-1-33477/unit-306v6/home/185325252,Beaches MLS,RX-10887192,N,Y,26.9208738,-80.0730924
PAST SALE,May-31-2023,Condo/Co-op,160 Burgundy D #160,Delray Beach,FL,33484,125000,1,1.5,Kings Point Saxony Condos,760,,1978,,164,458,Sold,,,https://www.redfin.com/FL/Delray-Beach/160-Burgandy-Way-33484/unit-160/home/185311151,Beaches MLS,F10379146,N,Y,26.4415672,-80.1321183
PAST SALE,June-1-2023,Condo/Co-op,1555 Bridgewood Dr,Boca Raton,FL,33434,200000,2,2.0,Bridgewood Mid-rise Condo,1255,,1974,,159,845,Sold,,,https://www.redfin.com/FL/Boca-Raton/1555-Bridgewood-Dr-33434/home/42249799,Beaches MLS,RX-10880607,N,Y,26.3738936,-80.1644199
PAST SALE,July-7-2023,Condo/Co-op,6021 10th Ave N #212,Greenacres,FL,33463,190000,2,2.0,Laurels AT Sherwood Condo,900,,1985,,211,263,Sold,,,https://www.redfin.com/FL/Greenacres/6021-10th-Ave-N-33463/unit-212/home/42614643,Beaches MLS,RX-10899443,N,Y,26.6326576,-80.1386852
PAST SALE,May-30-2023,Condo/Co-op,8878 Lake Worth Rd #216,Lake Worth,FL,33467,235277,2,2.5,Polo Legacy Mxpd Replat,1051,92160,2022,,224,321,Sold,,,https://www.redfin.com/FL/Lake-Worth/8878-Lake-Worth-Rd-33467/unit-216/home/184161989,Beaches MLS,RX-10864537,N,Y,26.6171069,-80.1871561
PAST SALE,May-31-2023,Condo/Co-op,19860 Sawgrass Dr #6001,Boca Raton,FL,33434,1100000,3,3.0,Peppertree,2250,43560,1980,,489,923,Sold,,,https://www.redfin.com/FL/Boca-Raton/19860-Sawgrass-Dr-33434/unit-6001/home/42249494,Beaches MLS,RX-10866295,N,Y,26.3846031,-80.1570302
PAST SALE,,Condo/Co-op,634 Waterside Dr,Hypoluxo,FL,33462,231000,2,2.0,,850,,1989,,272,,,,,https://www.redfin.com/FL/Hypoluxo/634-Waterside-Dr-33462/home/42388054,,,N,Y,26.555796,-80.056969
PAST SALE,May-15-2023,Condo/Co-op,6271 Chasewood Dr Unit F,Jupiter,FL,33458,295000,2,2.0,Chasewood OF Jupiter Condo,980,,1984,,301,379,Sold,,,https://www.redfin.com/FL/Jupiter/6271-Chasewood-Dr-33458/unit-F/home/42128601,Beaches MLS,RX-10881980,N,Y,26.9276864,-80.1310384
PAST SALE,,Condo/Co-op,1320 NW 20th Ave #201,Delray Beach,FL,33445,200000,2,2.0,,1335,,1980,,150,,,,,https://www.redfin.com/FL/Delray-Beach/1320-NW-20th-Ave-33445/unit-201/home/42638729,,,N,Y,26.4806409,-80.0925268
PAST SALE,June-8-2023,Condo/Co-op,2945 SW 22nd Ave #202,Delray Beach,FL,33445,340000,2,2.0,Sabal Pine East Condo,1109,365,1984,,307,345,Sold,,,https://www.redfin.com/FL/Delray-Beach/2945-SW-22nd-Ave-33445/unit-202/home/185283962,Beaches MLS,RX-10886020,N,Y,26.429677,-80.0955804
PAST SALE,July-17-2023,Condo/Co-op,815 W Boynton Beach Blvd Unit 9-102,Boynton Beach,FL,33426,235000,2,2.0,Casablanca Isles,,,1991,,,403,Sold,,,https://www.redfin.com/FL/Boynton-Beach/815-W-Boynton-Beach-Blvd-33426/unit-9102/home/42604412,Beaches MLS,F10386134,N,Y,26.5285281,-80.0840914
PAST SALE,May-10-2023,Condo/Co-op,300 N Highway A1a Unit 104d,Jupiter,FL,33477,650000,2,2.0,Ocean Parks Condo,1520,,1979,,428,780,Sold,,,https://www.redfin.com/FL/Jupiter/300-N-Highway-A1A-33477/unit-104D/home/42402479,Beaches MLS,RX-10872358,N,Y,26.9374648,-80.0795306
PAST SALE,June-13-2023,Condo/Co-op,16922 Isle Of Palms Dr Unit A,Delray Beach,FL,33484,495000,3,2.5,Cypress Isle / Polo Club,2038,,1989,,243,903,Sold,,,https://www.redfin.com/FL/Delray-Beach/16922-Isle-of-Palms-Dr-33484/unit-A/home/42230541,Beaches MLS,RX-10890692,N,Y,26.4253711,-80.1355747
PAST SALE,July-6-2023,Condo/Co-op,3056 Exeter D #3056,Boca Raton,FL,33434,214000,2,1.5,Exeter @ Century Village,1008,,1979,,212,292,Sold,,,https://www.redfin.com/FL/Boca-Raton/3056-Exeter-33434/unit-3056/home/131026670,Beaches MLS,RX-10892039,N,Y,26.386809,-80.178189
PAST SALE,June-20-2023,Condo/Co-op,628 Sea Pine Way Unit E1,Greenacres,FL,33415,245000,2,2.0,Pine Ridge North II Condo,1005,,1984,,244,319,Sold,,,https://www.redfin.com/FL/Greenacres/628-Sea-Pine-Way-33415/unit-E1/home/42377333,Beaches MLS,RX-10879171,N,Y,26.6384341,-80.1380172
PAST SALE,July-24-2023,Condo/Co-op,21179 Juego Cir Unit 15-B,Boca Raton,FL,33433,589900,3,2.0,Vistas OF Boca Lago Condo,2625,,1975,,225,819,Sold,,,https://www.redfin.com/FL/Boca-Raton/21179-Juego-Cir-33433/unit-15-B/home/185190233,Beaches MLS,RX-10883522,N,Y,26.356775,-80.18452
PAST SALE,July-21-2023,Condo/Co-op,4693 E Lucerne Lakes Blvd E #204,,FL,33467,229000,2,2.0,Lucerne Greens Condo,1244,,1989,,184,554,Sold,,,https://www.redfin.com/FL/Lake-Worth/4693-Lucerne-Lakes-Blvd-E-33467/unit-204/home/42089297,Beaches MLS,F10382942,N,Y,26.6056306,-80.1580111
PAST SALE,May-30-2023,Condo/Co-op,3000 N Ocean Dr Unit 9-C,Riviera Beach,FL,33404,850000,2,2.0,Tiara Condo,1600,,1977,,531,1557,Sold,,,https://www.redfin.com/FL/Riviera-Beach/3000-N-Ocean-Dr-33404/unit-9C/home/42460975,Beaches MLS,RX-10885220,N,Y,26.7868613,-80.0332519
PAST SALE,June-9-2023,Condo/Co-op,9802 Marina Blvd #121,Boca Raton,FL,33428,164000,2,2.0,Sandalfoot South,955,,1972,,172,545,Sold,,,https://www.redfin.com/FL/Boca-Raton/9802-Marina-Blvd-33428/unit-121/home/42269428,Beaches MLS,RX-10876782,N,Y,26.3293042,-80.1994749
PAST SALE,June-6-2023,Condo/Co-op,801 S Olive Ave #1523,West Palm Beach,FL,33401,485000,1,1.5,One City Plaza Condo,876,365,2006,,554,682,Sold,,,https://www.redfin.com/FL/West-Palm-Beach/801-S-Olive-Ave-33401/unit-1523/home/42611640,Beaches MLS,RX-10882757,N,Y,26.70582,-80.0524882
PAST SALE,June-29-2023,Condo/Co-op,16933 Isle Of Palms Dr Unit B,Delray Beach,FL,33484,900000,3,2.5,Cypress Isle / Polo Club,2612,43560,1996,,345,903,Sold,,,https://www.redfin.com/FL/Delray-Beach/16933-Isle-of-Palms-Dr-33484/unit-B/home/42231539,Beaches MLS,RX-10884065,N,Y,26.4249996,-80.1353042
PAST SALE,July-7-2023,Condo/Co-op,367 Northampton R,West Palm Beach,FL,33417,99000,1,1.0,Century Village,570,,1973,,174,408,Sold,,,https://www.redfin.com/FL/West-Palm-Beach/367-Northampton-R-33417/home/42151603,Beaches MLS,RX-10891095,N,Y,26.7170528,-80.1334525
PAST SALE,July-6-2023,Condo/Co-op,610 Clematis St #630,West Palm Beach,FL,33401,512000,2,2.0,610 Clematis Condo,1130,,2006,,453,872,Sold,,,https://www.redfin.com/FL/West-Palm-Beach/610-Clematis-St-33401/unit-630/home/42611578,Beaches MLS,RX-10889639,N,Y,26.7128739,-80.0576205
PAST SALE,May-10-2023,Condo/Co-op,7201 Promenade Drive Dr #701,Boca Raton,FL,33433,436000,3,2.5,"Subdivisionpromenade AT Boca Pointe Conds NO 1,2 & 3",1870,,1986,,233,1095,Sold,,,https://www.redfin.com/FL/Boca-Raton/7201-Promenade-Dr-33433/unit-701/home/42639928,Beaches MLS,RX-10878000,N,Y,26.3337464,-80.1568546
PAST SALE,May-23-2023,Condo/Co-op,6753 Heritage Grande #4306,Boynton Beach,FL,33437,225000,2,2.0,Green Cay Village,939,,2007,,240,372,Sold,,,https://www.redfin.com/FL/Boynton-Beach/6753-Heritage-Grande-33437/unit-4306/home/42619137,Beaches MLS,RX-10885401,N,Y,26.49001,-80.15047
PAST SALE,,Condo/Co-op,1051 Sugar Sands Blvd #356,Riviera Beach,FL,33404,625000,2,2.0,,1143,,1973,,547,,,,,https://www.redfin.com/FL/Riviera-Beach/1051-Sugar-Sands-Blvd-33404/unit-356/home/42463617,,,N,Y,26.7887331,-80.0418566
PAST SALE,June-20-2023,Condo/Co-op,6121 Pointe Regal Cir #205,Delray Beach,FL,33484,305000,2,2.0,Huntington Pointe,1392,,1992,,219,710,Sold,,,https://www.redfin.com/FL/Delray-Beach/6121-Pointe-Regal-Cir-33484/unit-205/home/42220922,Beaches MLS,RX-10885211,N,Y,26.4625516,-80.1437742
PAST SALE,June-2-2023,Condo/Co-op,4700 Oak Terrace Dr,Greenacres,FL,33463,175000,2,2.0,Pine Court Condo,883,,1980,,198,421,Sold,,,https://www.redfin.com/FL/Greenacres/4700-Oak-Terrace-Dr-33463/home/42386710,Beaches MLS,RX-10884307,N,Y,26.608735,-80.1398169
PAST SALE,May-12-2023,Condo/Co-op,315 7th Ave S Unit 6a,Lake Worth Beach,FL,33460,85000,1,1.0,Clairhouse Condo,560,,1969,,152,100,Sold,,,https://www.redfin.com/FL/Lake-Worth-Beach/315-7th-Ave-S-33460/unit-6A/home/42424288,Beaches MLS,RX-10884438,N,Y,26.607018,-80.0528593
PAST SALE,June-16-2023,Condo/Co-op,7340 Amberly Ln #307,Delray Beach,FL,33446,190000,2,2.0,Huntington Lakes,1220,,1987,,156,588,Sold,,,https://www.redfin.com/FL/Delray-Beach/7340-Amberly-Ln-33446/unit-307/home/42219528,Beaches MLS,RX-10888560,N,Y,26.462305,-80.160807
PAST SALE,June-22-2023,Condo/Co-op,10 Royal Palm Way Unit 102,Boca Raton,FL,33432,450100,2,2.0,Boca Bayou Condo,1095,,1978,,411,610,Sold,,,https://www.redfin.com/FL/Boca-Raton/10-Royal-Palm-Way-33432/unit-102/home/184717746,Beaches MLS,RX-10873988,N,Y,26.3270597,-80.0936697
PAST SALE,June-6-2023,Condo/Co-op,7186 Promenade Dr #302,Boca Raton,FL,33433,495000,3,2.0,PROMENADE AT BOCA POINTE,1530,,1985,,324,1066,Sold,,,https://www.redfin.com/FL/Boca-Raton/7186-Promenade-Dr-33433/unit-302/home/42270014,MARMLS,A11386843,N,Y,26.3351786,-80.1565169
PAST SALE,,Condo/Co-op,300 Piedmont G,Delray Beach,FL,33484,160000,2,2.0,,907,,1980,,176,,,,,https://www.redfin.com/FL/Delray-Beach/300-Piedmont-G-33484/home/42227187,,,N,Y,26.443096,-80.142903
PAST SALE,July-25-2023,Condo/Co-op,830 Greensward Ct Unit 209-H,Delray Beach,FL,33445,520000,2,2.0,Greensward Village Condo,1731,,1975,,300,857,Sold,,,https://www.redfin.com/FL/Delray-Beach/830-Greensward-Ct-33445/unit-209-H/home/42356407,Beaches MLS,RX-10897843,N,Y,26.4476985,-80.1092043
PAST SALE,,Condo/Co-op,20100 Boca West Dr #187,Boca Raton,FL,33434,649000,2,2.0,,1760,,1980,,369,,,,,https://www.redfin.com/FL/Boca-Raton/20100-Boca-West-Dr-33434/unit-187/home/42253602,,,N,Y,26.3823991,-80.1500828
PAST SALE,May-6-2023,Condo/Co-op,2013 Guildford A #2013,Boca Raton,FL,33434,155000,2,1.5,Century Village,880,,1980,,176,558,Sold,,,https://www.redfin.com/FL/Boca-Raton/2013-Guildford-E-33434/unit-2013/home/184781151,Beaches MLS,F10373048,N,Y,26.3868133,-80.1753678
PAST SALE,May-4-2023,Condo/Co-op,7430 Victory Ln #9901,Delray Beach,FL,33446,385000,2,2.0,Gleneagles Condo IV,1705,,1987,,226,512,Sold,,,https://www.redfin.com/FL/Delray-Beach/7430-Victory-Ln-33446/unit-9901/home/42220532,Beaches MLS,RX-10878880,N,Y,26.439988,-80.162431
PAST SALE,,Condo/Co-op,790 Andrews Ave Unit I104,Delray Beach,FL,33483,2814222,4,3.0,,3681,,2001,,765,,,,,https://www.redfin.com/FL/Delray-Beach/790-Andrews-Ave-33483/unit-I104/home/42565017,,,N,Y,26.4734065,-80.0593475
PAST SALE,,Condo/Co-op,689 NE 6th Ct #4010,Boynton Beach,FL,33435,455000,2,2.0,,899,,1978,,506,,,,,https://www.redfin.com/FL/Boynton-Beach/689-NE-6th-Ct-33435/unit-4010/home/42338960,,,N,Y,26.5328116,-80.0544944
PAST SALE,June-5-2023,Condo/Co-op,7802 Lakeside Blvd #712,Boca Raton,FL,33434,377500,2,2.0,Lakewood Midrise Condo,1255,90,1976,,301,714,Sold,,,https://www.redfin.com/FL/Boca-Raton/7802-Lakeside-Blvd-33434/unit-712/home/42255842,Beaches MLS,RX-10881125,N,Y,26.379621,-80.1674479
PAST SALE,June-2-2023,Condo/Co-op,7847 Lakeside Blvd #1072,Boca Raton,FL,33434,337000,2,2.0,Lakewood Midrise,1255,,1976,,269,718,Sold,,,https://www.redfin.com/FL/Boca-Raton/7847-Lakeside-Blvd-33434/unit-1072/home/42249137,Beaches MLS,RX-10872798,N,Y,26.3811173,-80.168063
PAST SALE,May-12-2023,Condo/Co-op,2009 NW 18th St #103,Delray Beach,FL,33445,230000,2,2.0,Pines OF Delray North Condo,1335,,1981,,172,458,Sold,,,https://www.redfin.com/FL/Delray-Beach/2009-NW-18th-St-33445/unit-103/home/42364630,Beaches MLS,RX-10879872,N,Y,26.4831042,-80.0945651
PAST SALE,,Condo/Co-op,334 Monaco G,Delray Beach,FL,33446,150000,2,2.0,,907,,1977,,165,,,,,https://www.redfin.com/FL/Delray-Beach/334-Monaco-G-33446/home/42627148,,,N,Y,26.4427104,-80.150933
PAST SALE,June-21-2023,Condo/Co-op,7101 Mrytlewood Cir W,Palm Beach Gardens,FL,33418,395000,3,2.0,Fiore AT The Gardens Condo,1338,,2004,,295,416,Sold,,,https://www.redfin.com/FL/Palm-Beach-Gardens/7101-Myrtlewood-Cir-W-33418/home/42606569,Beaches MLS,RX-10888758,N,Y,26.87368,-80.106316
PAST SALE,June-29-2023,Condo/Co-op,3338 Perimeter Dr #1423,Greenacres,FL,33467,224900,2,2.0,Park Pointe,1128,,1986,,199,577,Sold,,,https://www.redfin.com/FL/Greenacres/3338-Perimeter-Dr-33467/unit-1423/home/185044675,Beaches MLS,RX-10880750,N,Y,26.6271498,-80.1485593
PAST SALE,May-24-2023,Condo/Co-op,2220 Tuscany Way,Boynton Beach,FL,33435,365000,2,2.0,Tuscany ON The Intracoastal Condo,1118,,2002,,326,859,Sold,,,https://www.redfin.com/FL/Boynton-Beach/2220-Tuscany-Way-33435/home/42580709,Beaches MLS,RX-10876243,N,Y,26.508021,-80.058289
PAST SALE,May-12-2023,Condo/Co-op,275 Palm Ave Unit A207,Jupiter,FL,33477,640000,2,2.0,Jupiter Bay Condo East,1250,,1990,,512,700,Sold,,,https://www.redfin.com/FL/Jupiter/275-Palm-Ave-33477/unit-A207/home/42407555,Beaches MLS,RX-10883944,N,Y,26.931336,-80.073757
