SALE TYPE,SOLD DATE,PROPERTY TYPE,ADDRESS,CITY,STATE OR PROVINCE,ZIP OR POSTAL CODE,PRICE,BEDS,BATHS,LOCATION,SQUARE FEET,LOT SIZE,YEAR BUILT,DAYS ON MARKET,$/SQUARE FEET,HOA/MONTH,STATUS,NEXT OPEN HOUSE START TIME,NEXT OPEN HOUSE END TIME,URL (SEE https://www.redfin.com/buy-a-home/comparative-market-analysis FOR INFO ON PRICING),SOURCE,MLS#,FAVORITE,INTERESTED,LATITUDE,LONGITUDE
PAST SALE,January-26-2023,Condo/Co-op,410 Evernia St #628,West Palm Beach,FL,33401,500000,2,2.0,Whitney Condo,1160,43560,2007,,431,683,Sold,,,https://www.redfin.com/FL/West-Palm-Beach/410-Evernia-St-33401/unit-628/home/42657905,Beaches MLS,RX-10855343,N,Y,26.7110036,-80.0542782
PAST SALE,December-27-2022,Condo/Co-op,21695 Tall Palm Cir Unit 4c,Boca Raton,FL,33433,272000,2,2.0,Palms OF Boca Lago,1919,43560,1980,,142,644,Sold,,,https://www.redfin.com/FL/Boca-Raton/21695-Tall-Palm-Cir-33433/unit-4c/home/179399344,Beaches MLS,RX-10848239,N,Y,26.3531941,-80.1814564
PAST SALE,November-18-2022,Condo/Co-op,147 Lake Anne Dr,West Palm Beach,FL,33411,231000,2,2.0,Golden Lakes Village Condo 1 Thru 13-a,1197,,1974,,193,394,Sold,,,https://www.redfin.com/FL/Royal-Palm-Beach/147-Lake-Anne-Dr-33411/home/42165758,Beaches MLS,RX-10822464,N,Y,26.706611,-80.1673969
PAST SALE,,Condo/Co-op,1089 N Benoist Farms Rd #203,West Palm Beach,FL,33411,35900,2,1.0,,708,,1991,,51,,,,,https://www.redfin.com/FL/West-Palm-Beach/1089-N-Benoist-Farms-Rd-33411/unit-203/home/42603913,,,N,Y,26.6936219,-80.1738617
PAST SALE,,Condo/Co-op,4349 Quail Ridge Dr N Unit B,Boynton Beach,FL,33436,365000,2,2.0,,1325,,1983,,275,,,,,https://www.redfin.com/FL/Boynton-Beach/4349-Quail-Ridge-Dr-N-33436/unit-B/home/42215866,,,N,Y,26.512021,-80.11116
PAST SALE,January-6-2023,Condo/Co-op,4056 Lake Osborne Dr #14,Lake Worth,FL,33461,65000,1,1.0,Park Towers Apartments Condo,644,,1962,,101,158,Sold,,,https://www.redfin.com/FL/Lake-Worth/4056-Lake-Osborne-Dr-33461/unit-14/home/42575327,Beaches MLS,RX-10856066,N,Y,26.6161222,-80.0741974
PAST SALE,,Condo/Co-op,1801 S Flagler Dr #1208,West Palm Beach,FL,33401,480000,1,1.5,,950,,1973,,505,,,,,https://www.redfin.com/FL/West-Palm-Beach/1801-S-Flagler-Dr-33401/unit-1208/home/42521691,,,N,Y,26.6974042,-80.0507418
PAST SALE,,Condo/Co-op,51 Sheffield C,West Palm Beach,FL,33417,150000,2,1.5,,814,,1971,,184,,,,,https://www.redfin.com/FL/West-Palm-Beach/51-Sheffield-C-33417/home/42142543,,,N,Y,26.7200182,-80.1266586
PAST SALE,February-1-2023,Condo/Co-op,11 Canterbury A,West Palm Beach,FL,33417,65000,1,1.5,Century Village,646,43560,1972,,101,380,Sold,,,https://www.redfin.com/FL/West-Palm-Beach/11-Canterbury-a-33417/home/42666361,Beaches MLS,RX-10862726,N,Y,26.720227,-80.132277
PAST SALE,,Condo/Co-op,739 Monaco P,Delray Beach,FL,33446,75000,1,1.5,,726,,1974,,103,,,,,https://www.redfin.com/FL/Delray-Beach/739-Monaco-P-33446/home/42223175,,,N,Y,26.4424063,-80.149171
PAST SALE,January-26-2023,Condo/Co-op,68 Salisbury C,West Palm Beach,FL,33417,94000,1,1.5,Century Village,646,,1969,,146,475,Sold,,,https://www.redfin.com/FL/West-Palm-Beach/68-Salisbury-C-33417/home/42624638,Beaches MLS,RX-10862128,N,Y,26.715825,-80.1216162
PAST SALE,,Condo/Co-op,101 Palm Beach Trace Dr,Royal Palm Beach,FL,33411,168000,2,2.0,,1201,,1990,,140,,,,,https://www.redfin.com/FL/Royal-Palm-Beach/101-Palm-Beach-Trace-Dr-33411/home/42486778,,,N,Y,26.7136895,-80.2273782
PAST SALE,,Condo/Co-op,129 Somerset G,West Palm Beach,FL,33417,145750,2,1.5,,814,,1972,,179,,,,,https://www.redfin.com/FL/West-Palm-Beach/129-Somerset-G-33417/home/42155845,,,N,Y,26.7141841,-80.1302618
PAST SALE,,Condo/Co-op,2784 Dudley Dr E Unit J,West Palm Beach,FL,33415,145000,2,2.0,,895,,1972,,162,,,,,https://www.redfin.com/FL/West-Palm-Beach/2784-Dudley-Dr-E-33415/unit-J/home/42178189,,,N,Y,26.6370604,-80.1262483
PAST SALE,January-13-2023,Condo/Co-op,296 Mansfield H,Boca Raton,FL,33434,150000,1,1.5,Century Village,715,,1980,,210,238,Sold,,,https://www.redfin.com/FL/Boca-Raton/296-Mansfield-H-33434/home/42245721,Beaches MLS,RX-10850202,N,Y,26.393597,-80.175797
PAST SALE,January-25-2023,Condo/Co-op,5700 NW 24th Ave #601,Boca Raton,FL,33496,550000,3,2.0,Nassau Bay Condo,2040,,1988,,270,600,Sold,,,https://www.redfin.com/FL/Boca-Raton/5700-NW-24th-Ave-33496/unit-601/home/42306437,Beaches MLS,RX-10845789,N,Y,26.3995936,-80.134964
PAST SALE,,Condo/Co-op,302 N L St #5,Lake Worth,FL,33460,110000,1,1.0,,591,,1977,,186,,,,,https://www.redfin.com/FL/Lake-Worth/302-N-L-St-33460/unit-5/home/42419794,,,N,Y,26.619102,-80.053999
PAST SALE,,Condo/Co-op,188 Lake Evelyn Dr,West Palm Beach,FL,33411,68000,1,1.5,,704,,1978,,97,,,,,https://www.redfin.com/FL/West-Palm-Beach/188-Lake-Evelyn-Dr-33411/home/42156084,,,N,Y,26.706611,-80.1673969
PAST SALE,,Condo/Co-op,4056 Rexford C,Boca Raton,FL,33434,235000,2,2.0,,1168,,1981,,201,,,,,https://www.redfin.com/FL/Boca-Raton/4056-Rexford-C-33434/home/42244361,,,N,Y,26.389519,-80.178621
PAST SALE,,Condo/Co-op,770 Horizons E #111,Boynton Beach,FL,33435,149900,1,1.0,,587,,1967,,255,,,,,https://www.redfin.com/FL/Boynton-Beach/770-Horizons-E-33435/unit-111/home/42341294,,,N,Y,26.5215086,-80.0551295
PAST SALE,,Condo/Co-op,275 Palm Ave Unit B503,Jupiter,FL,33477,550000,2,2.0,,1250,,1988,,440,,,,,https://www.redfin.com/FL/Jupiter/275-Palm-Ave-33477/unit-B503/home/42406222,,,N,Y,26.931336,-80.073757
PAST SALE,,Condo/Co-op,2750 Emory Dr E Unit H,West Palm Beach,FL,33415,130000,2,2.0,,895,,1973,,145,,,,,https://www.redfin.com/FL/West-Palm-Beach/2750-Emory-Dr-E-33415/unit-H/home/42160469,,,N,Y,26.6374401,-80.1299697
PAST SALE,,Condo/Co-op,4951 Wedgewood Way #2,West Palm Beach,FL,33417,118000,1,1.0,,600,,1969,,197,,,,,https://www.redfin.com/FL/West-Palm-Beach/4951-Wedgewood-Way-33417/unit-2/home/42146013,,,N,Y,26.702785,-80.1186296
PAST SALE,,Condo/Co-op,339 Camden O,West Palm Beach,FL,33417,78000,1,1.0,,615,,1972,,127,,,,,https://www.redfin.com/FL/West-Palm-Beach/339-Camden-O-33417/home/42138390,,,N,Y,26.7127392,-80.1348841
PAST SALE,,Condo/Co-op,1024 Villa Ln #1024,Boynton Beach,FL,33435,268000,2,2.0,,1074,,2002,,250,,,,,https://www.redfin.com/FL/Boynton-Beach/1024-Villa-Ln-33435/unit-1024/home/42587448,,,N,Y,26.501294,-80.062274
PAST SALE,,Condo/Co-op,7 Dorset a,Boca Raton,FL,33434,95000,1,1.0,,601,,1979,,158,,,,,https://www.redfin.com/FL/Boca-Raton/7-Dorset-a-33434/home/42243858,,,N,Y,26.382722,-80.179023
PAST SALE,,Condo/Co-op,105 Monaco C,Delray Beach,FL,33446,160000,2,2.0,,883,,1974,,181,,,,,https://www.redfin.com/FL/Delray-Beach/105-Monaco-C-33446/home/42637736,,,N,Y,26.450034,-80.150653
PAST SALE,,Condo/Co-op,257 Bedford K,West Palm Beach,FL,33417,127500,1,1.5,,738,,1971,,173,,,,,https://www.redfin.com/FL/West-Palm-Beach/257-Bedford-K-33417/home/42141133,,,N,Y,26.7103212,-80.1269461
PAST SALE,,Condo/Co-op,101 Normandy C,Delray Beach,FL,33484,140000,2,2.0,,907,,1980,,154,,,,,https://www.redfin.com/FL/Delray-Beach/101-Normandy-C-33484/home/42235600,,,N,Y,26.4461452,-80.1422777
PAST SALE,,Condo/Co-op,3500 Briar Bay Blvd #204,West Palm Beach,FL,33411,200000,2,2.0,,910,,2003,,220,,,,,https://www.redfin.com/FL/West-Palm-Beach/3500-Briar-Bay-Blvd-33411/unit-204/home/42598979,,,N,Y,26.7290762,-80.1380513
PAST SALE,,Condo/Co-op,820 Lavers Cir Unit G306,Delray Beach,FL,33444,233000,1,1.0,,763,,1985,,305,,,,,https://www.redfin.com/FL/Delray-Beach/820-Lavers-Cir-33444/unit-G306/home/42580238,,,N,Y,26.4380393,-80.0810068
PAST SALE,,Condo/Co-op,401 E Ocean Ave #4,Boynton Beach,FL,33435,150000,1,1.0,,578,,1971,,260,,,,,https://www.redfin.com/FL/Boynton-Beach/401-E-Ocean-Ave-33435/unit-4/home/42345338,,,N,Y,26.5273227,-80.0605477
PAST SALE,,Condo/Co-op,2420 SW 22nd Ave #609,Delray Beach,FL,33445,36000,2,2.0,,1013,,1972,,36,,,,,https://www.redfin.com/FL/Delray-Beach/2420-SW-22nd-Ave-33445/unit-609/home/42379781,,,N,Y,26.432469,-80.098194
PAST SALE,,Condo/Co-op,121 Canterbury E,West Palm Beach,FL,33417,84000,1,1.5,,738,,1973,,114,,,,,https://www.redfin.com/FL/West-Palm-Beach/121-Canterbury-E-33417/home/42155427,,,N,Y,26.720227,-80.132277
PAST SALE,,Condo/Co-op,1111 Green Pine Blvd Unit C1,West Palm Beach,FL,33409,190000,2,2.0,,1064,,1985,,179,,,,,https://www.redfin.com/FL/West-Palm-Beach/1111-Green-Pine-Blvd-33409/unit-C1/home/42508009,,,N,Y,26.7285199,-80.1032049
PAST SALE,,Condo/Co-op,401 E Ocean Ave #3,Boynton Beach,FL,33435,150000,1,1.0,,578,,1971,,260,,,,,https://www.redfin.com/FL/Boynton-Beach/401-E-Ocean-Ave-33435/unit-3/home/42347855,,,N,Y,26.5273227,-80.0605477
PAST SALE,February-13-2023,Condo/Co-op,1102 Bridgewood Pl,Boca Raton,FL,33434,340000,2,2.5,Bridgewood,1400,,1979,,243,764,Sold,,,https://www.redfin.com/FL/Boca-Raton/1102-Bridgewood-Pl-33434/home/42249916,Beaches MLS,RX-10866409,N,Y,26.3734569,-80.16408
PAST SALE,,Condo/Co-op,7235 Promenade Dr #502,Boca Raton,FL,33433,870000,3,2.5,,3385,,1989,,257,,,,,https://www.redfin.com/FL/Boca-Raton/7235-Promenade-Dr-33433/unit-502/home/42276699,,,N,Y,26.3340515,-80.1600008
PAST SALE,,Condo/Co-op,15 Northampton a,West Palm Beach,FL,33417,81000,1,1.0,,615,,1972,,132,,,,,https://www.redfin.com/FL/West-Palm-Beach/15-Northampton-a-33417/home/42154637,,,N,Y,26.7160201,-80.1336953
PAST SALE,,Condo/Co-op,1500 N Congress Ave Unit A16,West Palm Beach,FL,33401,130000,2,1.0,,800,,1980,,163,,,,,https://www.redfin.com/FL/West-Palm-Beach/1500-N-Congress-Ave-33401/unit-A16/home/42520763,,,N,Y,26.7273387,-80.0890011
PAST SALE,,Condo/Co-op,2070 Homewood Blvd #2020,Delray Beach,FL,33445,325000,2,2.0,,1155,,1985,,281,,,,,https://www.redfin.com/FL/Delray-Beach/2070-Homewood-Blvd-33445/unit-2020/home/42375333,,,N,Y,26.4365063,-80.1037369
PAST SALE,,Condo/Co-op,770 Nantucket Cir,Lake Worth,FL,33467,170000,2,2.0,,941,,1983,,181,,,,,https://www.redfin.com/FL/Lake-Worth/770-Nantucket-Cir-33467/home/42164533,,,N,Y,26.6204257,-80.1615657
PAST SALE,December-16-2022,Condo/Co-op,216 Canterbury J,West Palm Beach,FL,33417,82000,1,1.5,Century Village,646,43560,1973,,127,400,Sold,,,https://www.redfin.com/FL/West-Palm-Beach/216-Canterbury-J-33417/home/42140268,Beaches MLS,RX-10852497,N,Y,26.720227,-80.132277
PAST SALE,,Condo/Co-op,2455 Lindell Blvd #3303,Delray Beach,FL,33444,300000,2,2.0,,1175,,1980,,255,,,,,https://www.redfin.com/FL/Delray-Beach/2455-Lindell-Blvd-33444/unit-3303/home/42375512,,,N,Y,26.4339659,-80.0819965
PAST SALE,,Townhouse,2323 Waterside Dr Unit 36A,Lake Worth,FL,33461,269000,2,2.5,,1328,1353,1980,,203,,,,,https://www.redfin.com/FL/Lake-Worth/2323-Waterside-Dr-33461/unit-36A/home/42288203,,,N,Y,26.6307532,-80.0801528
PAST SALE,,Condo/Co-op,371 SW 8th St #0011,Boca Raton,FL,33432,185000,2,1.0,,863,,1978,,214,,,,,https://www.redfin.com/FL/Boca-Raton/371-SW-8th-St-33432/unit-0011/home/42327137,,,N,Y,26.3429978,-80.0928331
PAST SALE,,Condo/Co-op,7915 Willow Spring Dr #1218,Lake Worth,FL,33467,145000,2,2.0,,1360,,1986,,107,,,,,https://www.redfin.com/FL/Lake-Worth/7915-Willow-Spring-Dr-33467/unit-1218/home/42166070,,,N,Y,26.6223371,-80.1723195
PAST SALE,,Condo/Co-op,2736 Ponce de Leon Blvd #2736,Delray Beach,FL,33445,247000,2,2.0,,1050,,1983,,235,,,,,https://www.redfin.com/FL/Delray-Beach/2736-Ponce-de-Leon-Blvd-33445/unit-2736/home/42365119,,,N,Y,26.4442323,-80.1043905
PAST SALE,,Condo/Co-op,859 Jeffery St #2010,Boca Raton,FL,33487,600000,3,2.0,,1682,,1979,,357,,,,,https://www.redfin.com/FL/Boca-Raton/859-Jeffery-St-33487/unit-2010/home/42311815,,,N,Y,26.4032218,-80.0702992
PAST SALE,,Condo/Co-op,6161 NW 2nd Ave #6190,Boca Raton,FL,33487,192900,1,2.0,,1050,,1971,,184,,,,,https://www.redfin.com/FL/Boca-Raton/6161-NW-2nd-Ave-33487/unit-6190/home/42312121,,,N,Y,26.4046635,-80.0831313
PAST SALE,,Condo/Co-op,20241 Boca West Dr #2701,Boca Raton,FL,33434,275000,2,2.0,,1229,,1979,,224,,,,,https://www.redfin.com/FL/Boca-Raton/20241-Boca-West-Dr-33434/unit-2701/home/42256557,,,N,Y,26.37684,-80.161509
PAST SALE,,Condo/Co-op,1401 Village Blvd #1827,West Palm Beach,FL,33409,162500,2,2.0,,1042,,1990,,156,,,,,https://www.redfin.com/FL/West-Palm-Beach/1401-Village-Blvd-33409/unit-1827/home/42656719,,,N,Y,26.7242874,-80.1096718
PAST SALE,,Condo/Co-op,3000 N Ocean Dr Unit 30B,Riviera Beach,FL,33404,433000,1,1.5,,909,,1977,,476,,,,,https://www.redfin.com/FL/Riviera-Beach/3000-N-Ocean-Dr-33404/unit-30B/home/42462552,,,N,Y,26.7868613,-80.0332519
PAST SALE,,Condo/Co-op,5601 Coach House Cir Unit D,Boca Raton,FL,33486,335000,2,2.0,,1400,,1985,,239,,,,,https://www.redfin.com/FL/Boca-Raton/5601-Coach-House-Cir-33486/unit-D/home/42582793,,,N,Y,26.3532822,-80.1323318
PAST SALE,,Condo/Co-op,170 Northampton I,West Palm Beach,FL,33417,122000,2,1.5,,814,,1973,,150,,,,,https://www.redfin.com/FL/West-Palm-Beach/170-Northampton-I-33417/home/42145691,,,N,Y,26.716817,-80.134203
PAST SALE,,Condo/Co-op,4701 Lucerne Lakes Blvd E #102,Lake Worth,FL,33467,110000,2,2.0,,815,,1987,,135,,,,,https://www.redfin.com/FL/Lake-Worth/4701-Lucerne-Lakes-Blvd-E-33467/unit-102/home/42088897,,,N,Y,26.6052275,-80.1576978
PAST SALE,January-11-2023,Condo/Co-op,108 Lakeshore Dr Unit 38-Ph,North Palm Beach,FL,33408,1100000,3,2.5,Old Port Cove Condo Five,2200,,1975,,500,1395,Sold,,,https://www.redfin.com/FL/North-Palm-Beach/108-Lakeshore-Dr-33408/unit-38-PH/home/42475731,Beaches MLS,RX-10857339,N,Y,26.8309865,-80.0553545
PAST SALE,December-13-2022,Condo/Co-op,290 W Palmetto Park Rd #106,Boca Raton,FL,33432,229900,2,2.0,Boca Palms,945,,1972,,243,329,Sold,,,https://www.redfin.com/FL/Boca-Raton/290-W-Palmetto-Park-Rd-33432/unit-106/home/42322139,Beaches MLS,F10304010,N,Y,26.350105,-80.0912486
PAST SALE,,Condo/Co-op,173 Cypress Point Dr,Palm Beach Gardens,FL,33418,255000,2,2.0,,770,,1982,,331,,,,,https://www.redfin.com/FL/Palm-Beach-Gardens/173-Cypress-Point-Dr-33418/home/42449611,,,N,Y,26.813984,-80.132585
PAST SALE,December-9-2022,Condo/Co-op,3003 Fairway Dr N,Jupiter,FL,33477,650000,2,2.5,Estuary AT Jupiter Dunes Condo,1195,,1990,,544,577,Sold,,,https://www.redfin.com/FL/Jupiter/3003-Fairway-Dr-N-33477/home/42412665,Beaches MLS,RX-10833016,N,Y,26.939979,-80.074842
PAST SALE,,Condo/Co-op,3203 Glenmoor Dr,West Palm Beach,FL,33409,205000,2,2.0,,1120,,1989,,183,,,,,https://www.redfin.com/FL/West-Palm-Beach/3203-Glenmoor-Dr-33409/home/42652980,,,N,Y,26.718922,-80.101012
PAST SALE,December-26-2022,Condo/Co-op,234 Norwich J,West Palm Beach,FL,33417,62000,2,1.0,Century Village,819,,1970,,76,385,Sold,,,https://www.redfin.com/FL/West-Palm-Beach/234-Norwich-J-33417/home/42137742,Beaches MLS,RX-10823780,N,Y,26.7200405,-80.1201729
PAST SALE,January-18-2023,Condo/Co-op,2001 N Ocean Blvd #902,Boca Raton,FL,33431,1100000,3,2.5,LA Fontana Condo,2038,,1980,,540,1883,Sold,,,https://www.redfin.com/FL/Boca-Raton/2001-N-Ocean-Blvd-33431/unit-902/home/42318311,Beaches MLS,RX-10859401,N,Y,26.368815,-80.069997
PAST SALE,,Condo/Co-op,2965 SW 22nd Ave #1040,Delray Beach,FL,33445,179000,1,1.5,,908,,1984,,197,,,,,https://www.redfin.com/FL/Delray-Beach/2965-SW-22nd-Ave-33445/unit-1040/home/42375009,,,N,Y,26.4296769,-80.0955797
PAST SALE,,Condo/Co-op,190 Tuscany C,Delray Beach,FL,33446,60000,1,1.5,,726,,1973,,83,,,,,https://www.redfin.com/FL/Delray-Beach/190-Tuscany-C-33446/home/42230981,,,N,Y,26.448051,-80.153636
PAST SALE,,Condo/Co-op,1141 Lake Victoria Dr Unit J,West Palm Beach,FL,33411,143000,2,1.0,,708,,1991,,202,,,,,https://www.redfin.com/FL/West-Palm-Beach/1141-Lake-Victoria-Dr-33411/unit-J/home/42623786,,,N,Y,26.6965768,-80.1714676
PAST SALE,,Condo/Co-op,2600 Fiore Way #2100,Delray Beach,FL,33445,235000,2,2.0,,1023,,1978,,230,,,,,https://www.redfin.com/FL/Delray-Beach/2600-Fiore-Way-33445/unit-2100/home/42371682,,,N,Y,26.4477299,-80.1025923
PAST SALE,,Condo/Co-op,21501 Juego Cir Unit D,Boca Raton,FL,33433,232500,2,2.0,,1216,,1976,,191,,,,,https://www.redfin.com/FL/Boca-Raton/21501-Juego-Cir-33433/unit-D/home/42254656,,,N,Y,26.357852,-80.183798
PAST SALE,,Condo/Co-op,337 Dover B,West Palm Beach,FL,33417,150000,1,1.5,,738,,1973,,203,,,,,https://www.redfin.com/FL/West-Palm-Beach/337-Dover-B-33417/home/42152398,,,N,Y,26.7129504,-80.1240237
PAST SALE,,Condo/Co-op,4 Royal Palm Way #4020,Boca Raton,FL,33432,285000,2,1.0,,1010,,1977,,282,,,,,https://www.redfin.com/FL/Boca-Raton/4-Royal-Palm-Way-33432/unit-4020/home/42328335,,,N,Y,26.3295604,-80.0921141
PAST SALE,,Condo/Co-op,2724 Anzio Ct #104,Palm Beach Gardens,FL,33410,233000,1,1.0,,872,,2005,,267,,,,,https://www.redfin.com/FL/Palm-Beach-Gardens/2724-Anzio-Ct-33410/unit-104/home/42618619,,,N,Y,26.8492937,-80.0794652
PAST SALE,,Condo/Co-op,1401 S Ocean Blvd #4020,Boca Raton,FL,33432,524900,2,2.5,,1864,,1982,,282,,,,,https://www.redfin.com/FL/Boca-Raton/1401-S-Ocean-Blvd-33432/unit-4020/home/42330764,,,N,Y,26.3307453,-80.0753624
PAST SALE,,Condo/Co-op,3372 Jog Park Dr #4421,Greenacres,FL,33467,212000,3,2.0,,1262,,1990,,168,,,,,https://www.redfin.com/FL/Greenacres/3372-Jog-Park-Dr-33467/unit-4421/home/42378252,,,N,Y,26.631608,-80.147807
PAST SALE,,Condo/Co-op,525 S Flagler Dr #1101,West Palm Beach,FL,33401,1750000,3,2.5,,2091,,1986,,837,,,,,https://www.redfin.com/FL/West-Palm-Beach/525-S-Flagler-Dr-33401/unit-1101/home/42520772,,,N,Y,26.708413,-80.0511347
PAST SALE,,Condo/Co-op,698 Brittany O,Delray Beach,FL,33446,110000,1,1.5,,726,,1974,,152,,,,,https://www.redfin.com/FL/Delray-Beach/698-Brittany-O-33446/home/42221763,,,N,Y,26.450034,-80.150653
PAST SALE,January-5-2023,Condo/Co-op,2729 Anzio Ct #108,Palm Beach Gardens,FL,33410,245000,1,1.0,San Matera The Gardens Condo,872,43560,2005,,281,361,Sold,,,https://www.redfin.com/FL/Palm-Beach-Gardens/2729-Anzio-Ct-33410/unit-108/home/42615587,Beaches MLS,RX-10850113,N,Y,26.8497159,-80.0764099
PAST SALE,,Condo/Co-op,315 Palmwood Pl #1160,Boca Raton,FL,33431,265000,2,2.0,,935,,1984,,283,,,,,https://www.redfin.com/FL/Boca-Raton/315-Palmwood-Pl-33431/unit-1160/home/42320513,,,N,Y,26.3767984,-80.0867737
PAST SALE,,Condo/Co-op,400 S Ocean Blvd #4060,Palm Beach,FL,33480,3750000,2,2.5,,1716,,1965,,2185,,,,,https://www.redfin.com/FL/Palm-Beach/400-S-Ocean-Blvd-33480/unit-4060/home/42585761,,,N,Y,26.7018966,-80.0336692
PAST SALE,January-20-2023,Condo/Co-op,790 Andrews Ave Unit H101,Delray Beach,FL,33483,1700000,3,3.0,Landings OF Delray Beach Condo,2172,,1982,,783,1331,Sold,,,https://www.redfin.com/FL/Delray-Beach/790-Andrews-Ave-33483/unit-H101/home/42367641,Beaches MLS,RX-10859817,N,Y,26.4734065,-80.0593475
PAST SALE,,Condo/Co-op,3860 Quail Ridge Dr N,Boynton Beach,FL,33436,480000,3,2.0,,1560,,1979,,308,,,,,https://www.redfin.com/FL/Boynton-Beach/3860-Quail-Ridge-Dr-N-33436/home/42638111,,,N,Y,26.5106292,-80.103793
PAST SALE,,Condo/Co-op,3130 Millwood Ter #1150,Boca Raton,FL,33431,260000,2,2.0,,920,,1985,,283,,,,,https://www.redfin.com/FL/Boca-Raton/3130-Millwood-Ter-33431/unit-1150/home/42316578,,,N,Y,26.3804979,-80.0886302
PAST SALE,,Condo/Co-op,610 Clematis St #507,West Palm Beach,FL,33401,436000,2,2.0,,1130,,2006,,386,,,,,https://www.redfin.com/FL/West-Palm-Beach/610-Clematis-St-33401/unit-507/home/42611012,,,N,Y,26.7128739,-80.0576205
PAST SALE,,Condo/Co-op,673 Saxony O,Delray Beach,FL,33446,135000,2,2.0,,907,,1974,,149,,,,,https://www.redfin.com/FL/Delray-Beach/673-Saxony-O-33446/home/42223527,,,N,Y,26.440263,-80.150386
PAST SALE,,Condo/Co-op,550 SE Mizner Blvd Unit B410,Boca Raton,FL,33432,1250000,2,3.0,,1968,,2003,,635,,,,,https://www.redfin.com/FL/Boca-Raton/550-SE-Mizner-Blvd-33432/unit-B410/home/42580344,,,N,Y,26.3453657,-80.0845701
PAST SALE,,Condo/Co-op,4301 N Ocean Blvd #206,Boca Raton,FL,33431,800000,2,2.0,,1915,,1981,,418,,,,,https://www.redfin.com/FL/Boca-Raton/4301-N-Ocean-Blvd-33431/unit-206/home/42314755,,,N,Y,26.3892514,-80.0678683
PAST SALE,,Condo/Co-op,7235 Promenade Dr #602,Boca Raton,FL,33433,675000,3,2.5,,3385,,1989,,199,,,,,https://www.redfin.com/FL/Boca-Raton/7235-Promenade-Dr-33433/unit-602/home/42276223,,,N,Y,26.3340515,-80.1600008
PAST SALE,,Condo/Co-op,300 SE 5th Ave #7150,Boca Raton,FL,33432,1050000,3,4.5,,2660,,1989,,395,,,,,https://www.redfin.com/FL/Boca-Raton/300-SE-5th-Ave-33432/unit-7150/home/42326059,,,N,Y,26.345757,-80.0766282
PAST SALE,,Condo/Co-op,3250 S Ocean Blvd #505,Palm Beach,FL,33480,800000,2,2.0,,1621,,1979,,494,,,,,https://www.redfin.com/FL/Palm-Beach/3250-S-Ocean-Blvd-33480/unit-505/home/42448248,,,N,Y,26.602914,-80.037511
PAST SALE,,Condo/Co-op,5201 NW 2nd Ave #4090,Boca Raton,FL,33487,245000,2,2.0,,1300,,1974,,188,,,,,https://www.redfin.com/FL/Boca-Raton/5201-NW-2nd-Ave-33487/unit-4090/home/42313692,,,N,Y,26.3967121,-80.0845933
PAST SALE,,Condo/Co-op,8694 Via Reale Unit 61L,Boca Raton,FL,33496,460000,3,2.0,,1477,,1989,,311,,,,,https://www.redfin.com/FL/Boca-Raton/8694-Via-Reale-33496/unit-61L/home/42240831,,,N,Y,26.4016248,-80.1815344
PAST SALE,,Condo/Co-op,924 SW 9th Street Cir #102,Boca Raton,FL,33486,245000,2,2.0,,957,,1981,,256,,,,,https://www.redfin.com/FL/Boca-Raton/924-SW-9th-Street-Cir-33486/unit-102/home/42314284,,,N,Y,26.3394278,-80.1236068
PAST SALE,January-6-2023,Condo/Co-op,901 E Camino Real Ph 2-D,Boca Raton,FL,33432,1950000,3,3.0,Carlton,2430,,1980,,802,2323,Sold,,,https://www.redfin.com/FL/Boca-Raton/901-E-Camino-Real-33432/unit-2-D/home/172873198,Beaches MLS,RX-10853025,N,Y,26.3395751,-80.0737038
PAST SALE,,Condo/Co-op,510 Lake Shore Dr #0260,Lake Park,FL,33403,160000,2,1.0,,698,,1973,,229,,,,,https://www.redfin.com/FL/Lake-Park/510-Lake-Shore-Dr-33403/unit-0260/home/42416394,,,N,Y,26.7968224,-80.053536
PAST SALE,,Condo/Co-op,9880 Marina Blvd #1535,Boca Raton,FL,33428,80000,2,2.0,,955,,1973,,84,,,,,https://www.redfin.com/FL/Boca-Raton/9880-Marina-Blvd-33428/unit-1535/home/42634833,,,N,Y,26.328902,-80.20169
PAST SALE,,Condo/Co-op,8838 Bella Vista Dr #343,Boca Raton,FL,33433,222500,1,1.0,,908,,1978,,245,,,,,https://www.redfin.com/FL/Boca-Raton/8838-Bella-Vista-Dr-33433/unit-343/home/42254509,,,N,Y,26.365295,-80.182776
PAST SALE,,Condo/Co-op,446 Normandy J,Delray Beach,FL,33484,223000,2,2.0,,907,,1979,,246,,,,,https://www.redfin.com/FL/Delray-Beach/446-Normandy-J-33484/home/42228758,,,N,Y,26.446145,-80.14227
PAST SALE,,Condo/Co-op,137 Easthampton F,West Palm Beach,FL,33417,85000,1,1.5,,738,,1969,,115,,,,,https://www.redfin.com/FL/West-Palm-Beach/137-Easthampton-F-33417/home/42150845,,,N,Y,26.716714,-80.119845
PAST SALE,,Condo/Co-op,1912 Palmland Dr #4,Boynton Beach,FL,33436,259000,3,2.0,,1080,,1975,,240,,,,,https://www.redfin.com/FL/Boynton-Beach/1912-Palmland-Dr-33436/unit-4/home/42353398,,,N,Y,26.4976572,-80.0978815
PAST SALE,,Condo/Co-op,362 Flanders H,Delray Beach,FL,33484,105000,1,1.5,,726,,1975,,145,,,,,https://www.redfin.com/FL/Delray-Beach/362-Flanders-H-33484/home/42231881,,,N,Y,26.4402662,-80.1413896
PAST SALE,,Condo/Co-op,1089 N Benoist Farms Rd #104,West Palm Beach,FL,33411,132500,2,1.0,,708,,1991,,187,,,,,https://www.redfin.com/FL/West-Palm-Beach/1089-N-Benoist-Farms-Rd-33411/unit-104/home/42604904,,,N,Y,26.6936219,-80.1738617
PAST SALE,December-7-2022,Condo/Co-op,13368 Polo Rd W #102,Wellington,FL,33414,525000,3,3.0,LA Quinta Condo,1800,43560,1979,,292,899,Sold,,,https://www.redfin.com/FL/Wellington/13368-Polo-Rd-W-33414/unit-102/home/42502531,Beaches MLS,RX-10864304,N,Y,26.6423735,-80.2589087
PAST SALE,,Condo/Co-op,9887 Baywinds Dr #4305,West Palm Beach,FL,33411,225000,1,1.0,,932,,2004,,241,,,,,https://www.redfin.com/FL/West-Palm-Beach/9887-Baywinds-Dr-33411/unit-4305/home/42596840,,,N,Y,26.7107315,-80.1994797
PAST SALE,,Other,940 Ridge Rd #1,Lantana,FL,33462,610000,8,4.0,,2160,6899,1971,,282,,,,,https://www.redfin.com/FL/Lantana/940-Ridge-Rd-33462/unit-1/home/42608433,,,N,Y,26.5926869,-80.0675126
PAST SALE,,Condo/Co-op,2400 NE 1st Ln #2090,Boynton Beach,FL,33435,160000,2,2.0,,982,,1978,,163,,,,,https://www.redfin.com/FL/Boynton-Beach/2400-NE-1st-Ln-33435/unit-2090/home/42635629,,,N,Y,26.5516204,-80.0661087
PAST SALE,,Condo/Co-op,790 Andrews Ave Unit A301,Delray Beach,FL,33483,950000,3,2.0,,1808,,1990,,525,,,,,https://www.redfin.com/FL/Delray-Beach/790-Andrews-Ave-33483/unit-A301/home/42361603,,,N,Y,26.4734065,-80.0593475
PAST SALE,,Condo/Co-op,1104 Meadows Cir,Boynton Beach,FL,33436,200000,2,2.0,,900,,1986,,222,,,,,https://www.redfin.com/FL/Boynton-Beach/1104-Meadows-Cir-33436/home/42604271,,,N,Y,26.568686,-80.093886
PAST SALE,,Townhouse,944 Kokomo Key Ln,Delray Beach,FL,33483,430000,2,2.5,,1184,1151,1997,,363,,,,,https://www.redfin.com/FL/Delray-Beach/944-Kokomo-Key-Ln-33483/home/42362458,,,N,Y,26.4831261,-80.0631467
PAST SALE,,Condo/Co-op,1171 N Ocean Blvd Unit 1AS,Gulf Stream,FL,33483,2850000,2,3.5,,3076,,1982,,927,,,,,https://www.redfin.com/FL/Gulf-Stream/1171-N-Ocean-Blvd-33483/unit-1AS/home/42391230,,,N,Y,26.4773944,-80.0558988
PAST SALE,,Condo/Co-op,404 Mansfield J #404,Boca Raton,FL,33434,130000,1,1.5,,715,,1980,,182,,,,,https://www.redfin.com/FL/Boca-Raton/404-Mansfield-J-33434/unit-404/home/42632289,,,N,Y,26.393597,-80.175797
PAST SALE,,Condo/Co-op,1630 NW 18th Ave #204,Delray Beach,FL,33445,130000,2,2.0,,1148,,1980,,113,,,,,https://www.redfin.com/FL/Delray-Beach/1630-NW-18th-Ave-33445/unit-204/home/42646396,,,N,Y,26.4806409,-80.0925268
PAST SALE,,Condo/Co-op,550 S Ocean Blvd #1003,Boca Raton,FL,33432,1150000,2,2.0,,1446,,1974,,795,,,,,https://www.redfin.com/FL/Boca-Raton/550-S-Ocean-Blvd-33432/unit-1003/home/42324881,,,N,Y,26.3444311,-80.070692
PAST SALE,,Condo/Co-op,817 Club Dr Unit D,Delray Beach,FL,33445,135000,2,2.0,,1070,,1973,,126,,,,,https://www.redfin.com/FL/Delray-Beach/817-Club-Dr-33445/unit-D/home/42641997,,,N,Y,26.466527,-80.102921
PAST SALE,December-1-2022,Condo/Co-op,16885 Waterbend Dr #177,Jupiter,FL,33477,640000,2,2.0,Waterbend AT Jonathans Landing Condo,1452,,1985,,441,927,Sold,,,https://www.redfin.com/FL/Jupiter/16885-Waterbend-Dr-33477/unit-177/home/42273009,Beaches MLS,RX-10839517,N,Y,26.9254061,-80.0895903
PAST SALE,,Condo/Co-op,5500 NW 2nd Ave #516,Boca Raton,FL,33487,171500,2,2.0,,1200,,1970,,143,,,,,https://www.redfin.com/FL/Boca-Raton/5500-NW-2nd-Ave-33487/unit-516/home/42311427,,,N,Y,26.3983609,-80.083044
PAST SALE,January-16-2023,Condo/Co-op,8073 Aberdeen Dr #102,Boynton Beach,FL,33472,125000,2,2.0,Stratford AT Aberdeen Condo,1054,43560,1988,,119,575,Sold,,,https://www.redfin.com/FL/Boynton-Beach/8073-Aberdeen-Dr-33472/unit-102/home/42195706,Beaches MLS,RX-10859628,N,Y,26.554471,-80.1523349
PAST SALE,,Condo/Co-op,2505 S Ocean Blvd #3040,Palm Beach,FL,33480,375000,1,1.0,,788,,1970,,476,,,,,https://www.redfin.com/FL/Palm-Beach/2505-S-Ocean-Blvd-33480/unit-3040/home/42436754,,,N,Y,26.6288936,-80.039193
PAST SALE,,Condo/Co-op,6515 Kensington Ln #301,Delray Beach,FL,33446,220000,2,2.0,,1070,,1981,,206,,,,,https://www.redfin.com/FL/Delray-Beach/6515-Kensington-Ln-33446/unit-301/home/42626529,,,N,Y,26.4631791,-80.1478737
PAST SALE,,Condo/Co-op,1500 Crestwood Ct S #1501,Royal Palm Beach,FL,33411,245000,2,2.0,,1247,,2001,,196,,,,,https://www.redfin.com/FL/Royal-Palm-Beach/1500-Crestwood-Ct-S-33411/unit-1501/home/42593726,,,N,Y,26.6826488,-80.2431532
PAST SALE,February-1-2023,Condo/Co-op,45 Andover B,West Palm Beach,FL,33417,80000,1,1.5,Century Village,684,43560,1971,,117,380,Sold,,,https://www.redfin.com/FL/West-Palm-Beach/45-Andover-B-33417/home/42146583,Beaches MLS,RX-10862730,N,Y,26.7114985,-80.1288142
PAST SALE,,Condo/Co-op,315 S Lake Dr Unit 4A,Palm Beach,FL,33480,1650000,2,2.0,,1816,,1969,,909,,,,,https://www.redfin.com/FL/Palm-Beach/315-S-Lake-Dr-33480/unit-4A/home/42435860,,,N,Y,26.7051741,-80.0433193
PAST SALE,,Condo/Co-op,3388 Lucerne Park Dr,Greenacres,FL,33467,162500,2,2.0,,1059,,1985,,153,,,,,https://www.redfin.com/FL/Greenacres/3388-Lucerne-Park-Dr-33467/home/42378788,,,N,Y,26.631608,-80.147807
PAST SALE,,Condo/Co-op,326 Oak Harbour Dr,Juno Beach,FL,33408,650000,3,3.0,,1606,,1985,,405,,,,,https://www.redfin.com/FL/Juno-Beach/326-Oak-Harbour-Dr-33408/home/42400733,,,N,Y,26.8597697,-80.0656826
PAST SALE,,Condo/Co-op,237 High Point Ct W Unit C,Delray Beach,FL,33445,122000,1,1.5,,970,,1971,,126,,,,,https://www.redfin.com/FL/Delray-Beach/237-High-Point-Ct-W-33445/unit-C/home/42363696,,,N,Y,26.4612704,-80.1053702
PAST SALE,,Condo/Co-op,6460 Aspen Glen Cir,Boynton Beach,FL,33437,283000,2,2.0,,1427,,1985,,198,,,,,https://www.redfin.com/FL/Boynton-Beach/6460-Aspen-Glen-Cir-33437/home/42635871,,,N,Y,26.511396,-80.144239
PAST SALE,,Condo/Co-op,799 Jeffery St #4080,Boca Raton,FL,33487,329000,1,1.0,,881,,1979,,373,,,,,https://www.redfin.com/FL/Boca-Raton/799-Jeffery-St-33487/unit-4080/home/42310289,,,N,Y,26.40373,-80.069661
PAST SALE,,Condo/Co-op,3450 S Ocean Blvd #5190,Palm Beach,FL,33480,325000,2,2.0,,1293,,1971,,251,,,,,https://www.redfin.com/FL/Palm-Beach/3450-S-Ocean-Blvd-33480/unit-5190/home/42441604,,,N,Y,26.594835,-80.0373029
PAST SALE,,Condo/Co-op,5701 NW 2nd Ave #1020,Boca Raton,FL,33487,80000,1,1.5,,850,,1968,,94,,,,,https://www.redfin.com/FL/Boca-Raton/5701-NW-2nd-Ave-33487/unit-1020/home/42313270,,,N,Y,26.4001495,-80.0838296
PAST SALE,,Condo/Co-op,6500 NW 2nd Ave #5090,Boca Raton,FL,33487,300000,2,2.0,,1414,,1980,,212,,,,,https://www.redfin.com/FL/Boca-Raton/6500-NW-2nd-Ave-33487/unit-5090/home/42314474,,,N,Y,26.4086005,-80.0820305
PAST SALE,,Condo/Co-op,2730 Banyan Rd Unit 32B,Boca Raton,FL,33432,425000,2,2.0,,905,,1965,,470,,,,,https://www.redfin.com/FL/Boca-Raton/2730-Banyan-Rd-33432/unit-32B/home/42330042,,,N,Y,26.3244286,-80.0764099
PAST SALE,,Condo/Co-op,11740 Saint Andrews Pl #206,Wellington,FL,33414,100000,2,2.0,,1223,,2001,,82,,,,,https://www.redfin.com/FL/Wellington/11740-Saint-Andrews-Pl-33414/unit-206/home/42595595,,,N,Y,26.6505021,-80.2305193
PAST SALE,,Condo/Co-op,9307 Pecky Cypress Ln Unit 17F,Boca Raton,FL,33428,209000,2,2.0,,1266,,1979,,165,,,,,https://www.redfin.com/FL/Boca-Raton/9307-Pecky-Cypress-Ln-33428/unit-17F/home/42639848,,,N,Y,26.3577009,-80.1932167
PAST SALE,,Condo/Co-op,500 Village Green Cir W #106,Palm Springs,FL,33461,55000,1,1.0,,642,,1974,,86,,,,,https://www.redfin.com/FL/Palm-Springs/500-Village-Green-Cir-W-33461/unit-106/home/42485455,,,N,Y,26.6430371,-80.1059974
PAST SALE,,Condo/Co-op,25 Abbey Ln #305,Delray Beach,FL,33446,150000,2,2.0,,1006,,1979,,149,,,,,https://www.redfin.com/FL/Delray-Beach/25-Abbey-Ln-33446/unit-305/home/42214549,,,N,Y,26.4593026,-80.1523122
PAST SALE,,Condo/Co-op,400 Uno Lago Dr #303,Juno Beach,FL,33408,305000,1,1.0,,920,,1996,,332,,,,,https://www.redfin.com/FL/Juno-Beach/400-Uno-Lago-Dr-33408/unit-303/home/42594173,,,N,Y,26.8581941,-80.0622844
PAST SALE,,Condo/Co-op,148 Northampton H,West Palm Beach,FL,33417,119000,2,1.5,,814,,1973,,146,,,,,https://www.redfin.com/FL/West-Palm-Beach/148-Northampton-H-33417/home/42148207,,,N,Y,26.7165262,-80.1347645
PAST SALE,February-14-2023,Condo/Co-op,315 7th Ave S Unit 5a,Lake Worth Beach,FL,33460,115000,1,1.0,Clairhouse Condo,560,,1969,,205,100,Sold,,,https://www.redfin.com/FL/Lake-Worth/315-7th-Ave-S-33460/unit-5A/home/42423266,Beaches MLS,RX-10862081,N,Y,26.607018,-80.0528593
PAST SALE,,Condo/Co-op,202 Orange Tree Dr #1,Atlantis,FL,33462,575000,3,2.5,,3535,,1990,,163,,,,,https://www.redfin.com/FL/Atlantis/202-Orange-Tree-Dr-33462/unit-1/home/42300451,,,N,Y,26.5997197,-80.097378
PAST SALE,,Condo/Co-op,831 Normandy R,Delray Beach,FL,33484,120000,1,1.5,,760,,1979,,158,,,,,https://www.redfin.com/FL/Delray-Beach/831-Normandy-R-33484/home/42229472,,,N,Y,26.445409,-80.138193
PAST SALE,,Condo/Co-op,799 Normandy Q,Delray Beach,FL,33484,125000,1,1.5,,760,,1979,,164,,,,,https://www.redfin.com/FL/Delray-Beach/799-Normandy-Q-33484/home/42229949,,,N,Y,26.445409,-80.138193
PAST SALE,,Condo/Co-op,16 Northampton a,West Palm Beach,FL,33417,60000,1,1.0,,615,,1972,,98,,,,,https://www.redfin.com/FL/West-Palm-Beach/16-Northampton-a-33417/home/42155631,,,N,Y,26.7160914,-80.1336763
PAST SALE,,Condo/Co-op,631 Burgundy N #631,Delray Beach,FL,33484,159000,2,2.0,,907,,1979,,175,,,,,https://www.redfin.com/FL/Delray-Beach/631-Burgundy-N-33484/unit-631/home/42229869,,,N,Y,26.445271,-80.131475
PAST SALE,December-8-2022,Condo/Co-op,13725 Flora Pl Unit D,Delray Beach,FL,33484,322000,2,2.0,Palm Greens At Villa Del,1129,,1974,,285,385,Sold,,,https://www.redfin.com/FL/Delray-Beach/13725-Flora-Pl-33484/unit-D/home/42212444,Beaches MLS,F10353382,N,Y,26.4768306,-80.136261
PAST SALE,,Condo/Co-op,176 Helios Dr #508,Jupiter,FL,33477,805000,2,2.0,,1460,,1985,,551,,,,,https://www.redfin.com/FL/Jupiter/176-Helios-Dr-33477/unit-508/home/42407681,,,N,Y,26.91732,-80.0659777
PAST SALE,January-30-2023,Condo/Co-op,43 Cambridge B,West Palm Beach,FL,33417,110000,1,1.5,Century Village,684,,1972,,161,400,Sold,,,https://www.redfin.com/FL/West-Palm-Beach/43-Cambridge-B-33417/home/42148274,Beaches MLS,RX-10856761,N,Y,26.7203529,-80.1307635
PAST SALE,,Condo/Co-op,4602 Kittiwake Ct,Boynton Beach,FL,33436,255000,2,2.0,,1300,,1974,,196,,,,,https://www.redfin.com/FL/Boynton-Beach/4602-Kittiwake-Ct-33436/home/42207805,,,N,Y,26.5090866,-80.1096964
PAST SALE,,Condo/Co-op,5917 Parkwalk Dr,Boynton Beach,FL,33472,305000,3,2.0,,1335,,1984,,228,,,,,https://www.redfin.com/FL/Boynton-Beach/5917-Parkwalk-Dr-33472/home/42191725,,,N,Y,26.5565093,-80.1380048
PAST SALE,January-17-2023,Townhouse,726 Whippoorwill Ln,Delray Beach,FL,33445,300000,2,2.0,Country Manors Cond,1190,,1973,,252,273,Sold,,,https://www.redfin.com/FL/Delray-Beach/726-Whippoorwill-Ln-33445/home/179565220,Beaches MLS,RX-10843966,N,Y,26.4738336,-80.1214702
PAST SALE,,Condo/Co-op,148 Yacht Club Dr #8,North Palm Beach,FL,33408,155000,1,1.0,,750,,1964,,207,,,,,https://www.redfin.com/FL/North-Palm-Beach/148-Yacht-Club-Dr-33408/unit-8/home/42473779,,,N,Y,26.8259755,-80.0595871
PAST SALE,,Condo/Co-op,260 NW 67th St Unit A201,Boca Raton,FL,33487,285000,2,2.0,,1124,,1990,,254,,,,,https://www.redfin.com/FL/Boca-Raton/260-NW-67th-St-33487/unit-A201/home/42641571,,,N,Y,26.4088062,-80.0849643
PAST SALE,,Condo/Co-op,7847 Lakeside Blvd #1044,Boca Raton,FL,33434,395000,2,2.0,,1255,,1976,,315,,,,,https://www.redfin.com/FL/Boca-Raton/7847-Lakeside-Blvd-33434/unit-1044/home/42250108,,,N,Y,26.3811173,-80.168063
PAST SALE,,Condo/Co-op,7 Royal Palm Way #4040,Boca Raton,FL,33432,290000,2,2.0,,1130,,1979,,257,,,,,https://www.redfin.com/FL/Boca-Raton/7-Royal-Palm-Way-33432/unit-4040/home/42325104,,,N,Y,26.3275467,-80.0923832
PAST SALE,,Condo/Co-op,709 Lori Dr #207,Palm Springs,FL,33461,125000,1,1.0,,696,,1979,,180,,,,,https://www.redfin.com/FL/Palm-Springs/709-Lori-Dr-33461/unit-207/home/42482623,,,N,Y,26.646112,-80.0932872
PAST SALE,,Condo/Co-op,97 Monaco C,Delray Beach,FL,33446,130000,2,2.0,,883,,1974,,147,,,,,https://www.redfin.com/FL/Delray-Beach/97-Monaco-C-33446/home/42230242,,,N,Y,26.450034,-80.150653
PAST SALE,,Condo/Co-op,6675 S Oriole Blvd #2010,Delray Beach,FL,33446,219000,2,2.0,,1006,,1980,,218,,,,,https://www.redfin.com/FL/Delray-Beach/6675-S-Oriole-Blvd-33446/unit-2010/home/42220291,,,N,Y,26.4564827,-80.1579036
PAST SALE,,Condo/Co-op,1500 N Congress Ave Unit A207,West Palm Beach,FL,33401,179000,1,1.0,,495,,1980,,362,,,,,https://www.redfin.com/FL/West-Palm-Beach/1500-N-Congress-Ave-33401/unit-A207/home/42520718,,,N,Y,26.7273387,-80.0890011
PAST SALE,December-27-2022,Condo/Co-op,4201 N Ocean Blvd #1606,Boca Raton,FL,33431,1275000,2,2.0,Sea Ranch Club OF Boca II Condo,1697,,1988,,751,1203,Sold,,,https://www.redfin.com/FL/Boca-Raton/4201-N-Ocean-Blvd-33431/unit-1606/home/42315551,Beaches MLS,RX-10844345,N,Y,26.3894164,-80.0694251
PAST SALE,December-27-2022,Condo/Co-op,611 SE 7th St #201,Delray Beach,FL,33483,1150000,2,2.5,Churchill Condo,1819,,1980,,632,582,Sold,,,https://www.redfin.com/FL/Delray-Beach/611-SE-7th-St-33483/unit-201/home/42377545,Beaches MLS,RX-10853197,N,Y,26.4516531,-80.065938
PAST SALE,,Condo/Co-op,2561 Emory Dr W Unit D,West Palm Beach,FL,33415,52500,1,1.0,,612,,1974,,86,,,,,https://www.redfin.com/FL/West-Palm-Beach/2561-Emory-Dr-W-33415/unit-D/home/42178291,,,N,Y,26.6403993,-80.1322057
PAST SALE,January-4-2023,Condo/Co-op,5550 N Ocean Dr Unit 18d,Riviera Beach,FL,33404,940000,2,2.0,Water Glades Condo,1435,,1975,,655,1219,Sold,,,https://www.redfin.com/FL/Riviera-Beach/5550-N-Ocean-Dr-33404/unit-18D/home/42454621,Beaches MLS,RX-10857638,N,Y,26.8136149,-80.0362674
PAST SALE,,Condo/Co-op,358 Flanders H,Delray Beach,FL,33484,158000,1,1.5,,726,,1975,,218,,,,,https://www.redfin.com/FL/Delray-Beach/358-Flanders-H-33484/home/42224341,,,N,Y,26.4402662,-80.1413896
PAST SALE,December-13-2022,Condo/Co-op,534 Shady Pine Way Unit C1,Greenacres,FL,33415,100000,2,1.0,Pine Ridge North I Condo,991,,1982,,101,255,Sold,,,https://www.redfin.com/FL/Greenacres/534-Shady-Pine-Way-33415/unit-C1/home/42379108,Beaches MLS,RX-10839148,N,Y,26.639894,-80.143475
PAST SALE,February-14-2023,Condo/Co-op,780 S Sapodilla Ave #212,West Palm Beach,FL,33401,340000,1,1.0,Courtyards IN Cityplace Condo,756,,2001,,450,375,Sold,,,https://www.redfin.com/FL/West-Palm-Beach/780-S-Sapodilla-Ave-33401/unit-212/home/42597861,Beaches MLS,RX-10866395,N,Y,26.7070704,-80.0586532
PAST SALE,,Condo/Co-op,10143 Mangrove Dr #205,Boynton Beach,FL,33437,244000,2,2.0,,1180,,1982,,207,,,,,https://www.redfin.com/FL/Boynton-Beach/10143-Mangrove-Dr-33437/unit-205/home/42197241,,,N,Y,26.5254818,-80.1304442
PAST SALE,,Condo/Co-op,1139 Lake Terry Dr Unit I,West Palm Beach,FL,33411,41600,2,1.0,,708,,1991,,59,,,,,https://www.redfin.com/FL/West-Palm-Beach/1139-Lake-Terry-Dr-33411/unit-I/home/42617896,,,N,Y,26.6966097,-80.1700214
PAST SALE,,Condo/Co-op,4748 S Ocean Blvd Unit 15A,Highland Beach,FL,33487,1400000,3,3.0,,2006,,1979,,698,,,,,https://www.redfin.com/FL/Highland-Beach/4748-S-Ocean-Blvd-33487/unit-15A/home/42389297,,,N,Y,26.3919125,-80.0684222
PAST SALE,,Condo/Co-op,4333 N Ocean Blvd Unit DN3,Delray Beach,FL,33483,3500000,3,3.5,,2718,,1980,,1288,,,,,https://www.redfin.com/FL/Delray-Beach/4333-N-Ocean-Blvd-33483/unit-DN3/home/42292183,,,N,Y,26.502683,-80.052389
PAST SALE,,Condo/Co-op,3733 Quail Ridge Dr N,Boynton Beach,FL,33436,270000,2,2.0,,1300,,1978,,208,,,,,https://www.redfin.com/FL/Boynton-Beach/3733-Quail-Ridge-Dr-N-33436/home/42296536,,,N,Y,26.509504,-80.100843
PAST SALE,,Condo/Co-op,1139 Lake Terry Dr Unit F,West Palm Beach,FL,33411,51300,3,2.0,,900,,1991,,57,,,,,https://www.redfin.com/FL/West-Palm-Beach/1139-Lake-Terry-Dr-33411/unit-F/home/42616372,,,N,Y,26.6966097,-80.1700214
PAST SALE,,Condo/Co-op,4305 Quail Ridge Dr N Unit B,Boynton Beach,FL,33436,349400,2,2.0,,1325,,1975,,264,,,,,https://www.redfin.com/FL/Boynton-Beach/4305-Quail-Ridge-Dr-N-33436/unit-B/home/42205371,,,N,Y,26.5120633,-80.1118657
PAST SALE,January-6-2023,Condo/Co-op,4305 B Quail Ridge Dr Unit Sandpiper,Boynton Beach,FL,33436,349400,2,2.0,Quail Ridge,1479,,1975,,236,1435,Sold,,,https://www.redfin.com/FL/Boynton-Beach/4305-N-Quail-Ridge-Dr-33436/unit-Sandpiper/home/182751174,Beaches MLS,RX-10844983,N,Y,26.5120633,-80.1118657
PAST SALE,December-14-2022,Condo/Co-op,6944 Briarlake Cir #106,Palm Beach Gardens,FL,33418,350000,2,3.0,Briarwood Condo,1400,,1989,,250,630,Sold,,,https://www.redfin.com/FL/West-Palm-Beach/6944-Briarlake-Cir-33418/unit-106/home/42137327,Beaches MLS,RX-10828085,N,Y,26.868994,-80.140244
PAST SALE,February-3-2023,Townhouse,5778 Phoenix Palm Ct Unit B,Delray Beach,FL,33484,315000,2,2.0,Palm Greens,1250,43560,1974,,252,420,Sold,,,https://www.redfin.com/FL/Delray-Beach/5778-Phoenix-Palm-Ct-33484/unit-B/home/42212146,Beaches MLS,RX-10847643,N,Y,26.4768306,-80.136261
PAST SALE,January-20-2023,Condo/Co-op,480 NW 20th St #1090,Boca Raton,FL,33431,240000,2,2.0,Casa Del Rio Condo,936,365,1980,,256,344,Sold,,,https://www.redfin.com/FL/Boca-Raton/480-NW-20th-St-33431/unit-1090/home/45092122,Beaches MLS,RX-10859322,N,Y,26.3676988,-80.0941911
PAST SALE,December-14-2022,Condo/Co-op,316 Cape Cod Cir Unit A,Lake Worth,FL,33467,180000,1,1.5,Covered Bridge Condo,1024,,1983,,176,319,Sold,,,https://www.redfin.com/FL/Lake-Worth/316-Cape-Cod-Cir-33467/unit-A/home/42622744,Beaches MLS,RX-10844128,N,Y,26.6234203,-80.1604492
PAST SALE,January-13-2023,Condo/Co-op,723 Sunny Pine Way Unit B2,Greenacres,FL,33415,267000,3,2.0,Pine Ridge North Iii,1254,,1985,,213,296,Sold,,,https://www.redfin.com/FL/Greenacres/723-Sunny-Pine-Way-33415/unit-B2/home/42378125,Beaches MLS,RX-10849925,N,Y,26.6369208,-80.1453157
PAST SALE,January-24-2023,Condo/Co-op,701 S Olive Ave #1208,West Palm Beach,FL,33401,460000,1,1.5,Two City Plaza Condo,786,,2008,,585,511,Sold,,,https://www.redfin.com/FL/West-Palm-Beach/701-S-Olive-Ave-33401/unit-1208/home/42663716,Beaches MLS,RX-10852458,N,Y,26.7066463,-80.0525755
PAST SALE,November-18-2022,Condo/Co-op,440 Saxony J Unit J,Delray Beach,FL,33446,110000,2,2.0,Kings Point,907,,1974,,121,497,Sold,,,https://www.redfin.com/FL/Delray-Beach/440-Saxony-Way-33446/unit-J/home/182348919,Beaches MLS,RX-10839423,N,Y,26.4399243,-80.1513053
PAST SALE,December-21-2022,Condo/Co-op,357 Sheffield O,West Palm Beach,FL,33417,180000,2,2.0,Cenbtury Village - Sheffield,814,,1971,,221,427,Sold,,,https://www.redfin.com/FL/West-Palm-Beach/357-Sheffield-O-33417/home/42140433,Beaches MLS,RX-10841686,N,Y,26.7206039,-80.1235072
PAST SALE,November-23-2022,Condo/Co-op,154 Windsor G,West Palm Beach,FL,33417,110000,2,1.5,Century Village,819,,1972,,134,437,Sold,,,https://www.redfin.com/FL/West-Palm-Beach/154-Windsor-G-33417/home/42144196,Beaches MLS,RX-10839504,N,Y,26.7097156,-80.1351417
PAST SALE,January-24-2023,Condo/Co-op,216 E Normandy E #216,Delray Beach,FL,33484,90000,2,2.0,KINGS POINT NORMANDY COND,907,,1980,,99,473,Sold,,,https://www.redfin.com/FL/Delray-Beach/216-Normandy-Ln-33484/unit-216/home/79504195,MARMLS,A11314629,N,Y,26.446145,-80.14227
PAST SALE,December-1-2022,Condo/Co-op,1117 Marine Way Unit K4l,North Palm Beach,FL,33408,1125000,3,3.0,Old Port Cove Harbor Village Condo,2706,,1982,,416,1268,Sold,,,https://www.redfin.com/FL/North-Palm-Beach/1117-Marine-Way-E-33408/unit-K4L/home/42478529,Beaches MLS,RX-10826393,N,Y,26.832705,-80.058563
PAST SALE,January-18-2023,Condo/Co-op,325 Seville N #325,Delray Beach,FL,33446,105397,2,2.0,Kings Point,883,,1973,,119,614,Sold,,,https://www.redfin.com/FL/Delray-Beach/325-Seville-N-33446/unit-325/home/128860608,Beaches MLS,RX-10850442,N,Y,26.4466271,-80.14796
PAST SALE,January-26-2023,Condo/Co-op,1034 Guildford B,Boca Raton,FL,33434,110500,2,1.5,Guildford AT Century Village Condo,880,,1980,,126,497,Sold,,,https://www.redfin.com/FL/Boca-Raton/1034-Guildford-B-33434/home/42638432,Beaches MLS,RX-10854166,N,Y,26.386802,-80.175392
PAST SALE,January-13-2023,Condo/Co-op,1527 S Flagler Dr Unit 103f,West Palm Beach,FL,33401,340000,2,2.0,Viking Arms Condo,920,,1980,,370,1156,Sold,,,https://www.redfin.com/FL/West-Palm-Beach/1527-S-Flagler-Dr-33401/unit-103F/home/42525027,Beaches MLS,RX-10856652,N,Y,26.6992676,-80.0513527
PAST SALE,December-16-2022,Condo/Co-op,19779 Boca West Dr,Boca Raton,FL,33434,255000,2,2.0,Quail Hollow Condo,1400,,1981,,182,742,Sold,,,https://www.redfin.com/FL/Boca-Raton/19779-Boca-West-Dr-33434/home/42246391,Beaches MLS,RX-10844756,N,Y,26.3832621,-80.1638708
PAST SALE,February-9-2023,Condo/Co-op,31 Northampton B,West Palm Beach,FL,33417,111000,1,1.5,Century Village,684,,1972,,162,442,Sold,,,https://www.redfin.com/FL/West-Palm-Beach/31-Northampton-B-33417/home/42148628,Beaches MLS,RX-10856013,N,Y,26.7156525,-80.1335008
PAST SALE,December-8-2022,Condo/Co-op,2850 Palmwood Ter 1290 Ter #129,Boca Raton,FL,33431,247000,2,2.0,Lake Windwood Condo,935,,1984,,264,458,Sold,,,https://www.redfin.com/FL/Boca-Raton/2850-Palmwood-Ter-33431/unit-129/home/182067174,Beaches MLS,RX-10835489,N,Y,26.3794513,-80.0894403
PAST SALE,January-17-2023,Condo/Co-op,209 Tuscany D,Delray Beach,FL,33446,137500,2,2.0,Kings Point Tuscany Condos,883,43560,1973,,156,555,Sold,,,https://www.redfin.com/FL/Delray-Beach/209-Tuscany-D-33446/home/42224986,Beaches MLS,RX-10849241,N,Y,26.448051,-80.153636
PAST SALE,November-22-2022,Condo/Co-op,2811 Garden Dr S #209,Lake Worth,FL,33461,163000,2,2.0,Lake Clarke Gardens Condo 25,1080,,1971,,151,428,Sold,,,https://www.redfin.com/FL/Lake-Worth/2811-Garden-Dr-S-33461/unit-209/home/42283763,Beaches MLS,RX-10836735,N,Y,26.6336523,-80.0852261
PAST SALE,,Condo/Co-op,6424 Aspen Glen Cir #101,Boynton Beach,FL,33437,340000,3,2.0,,1669,,1985,,204,,,,,https://www.redfin.com/FL/Boynton-Beach/6424-Aspen-Glen-Cir-33437/unit-101/home/42214846,,,N,Y,26.511396,-80.144239
PAST SALE,,Condo/Co-op,2871 N Ocean Blvd Unit R250,Boca Raton,FL,33431,550000,2,2.0,,1186,,1967,,464,,,,,https://www.redfin.com/FL/Boca-Raton/2871-N-Ocean-Blvd-33431/unit-R250/home/42315213,,,N,Y,26.3766421,-80.0712595
PAST SALE,December-30-2022,Condo/Co-op,2000 Presidential Ph1 Way Ph -1,West Palm Beach,FL,33401,300000,3,2.0,Lands President Condo 02,1501,,1972,,200,1287,Sold,,,https://www.redfin.com/FL/West-Palm-Beach/2000-Presidential-Way-33401/unit-1/home/42515644,Beaches MLS,RX-10842187,N,Y,26.7334255,-80.083139
PAST SALE,February-10-2023,Condo/Co-op,1901 W Woolbright Rd Unit A208,Boynton Beach,FL,33426,192500,2,2.0,Venetian Terrace Condo,986,,1980,,195,360,Sold,,,https://www.redfin.com/FL/Boynton-Beach/1901-W-Woolbright-Rd-33426/unit-A208/home/42356907,Beaches MLS,RX-10857062,N,Y,26.513809,-80.0844061
PAST SALE,,Condo/Co-op,15351 Strathearn Dr #10301,Delray Beach,FL,33446,600000,3,2.0,,1705,,1987,,352,,,,,https://www.redfin.com/FL/Delray-Beach/15351-Strathearn-Dr-33446/unit-10301/home/42220034,,,N,Y,26.4499408,-80.16078
PAST SALE,January-25-2023,Condo/Co-op,2323 Linton Ridge Cir Unit D3,Delray Beach,FL,33444,155100,2,2.0,Linton Ridge Condo,848,,1984,,183,340,Sold,,,https://www.redfin.com/FL/Delray-Beach/2323-Linton-Ridge-Cir-33444/unit-D3/home/42367213,Beaches MLS,RX-10852448,N,Y,26.4419239,-80.0785836
PAST SALE,January-24-2023,Condo/Co-op,417 Lake Dora Dr Unit .,West Palm Beach,FL,33411,240000,2,2.0,Golden Lakes Village,1021,,1974,,235,423,Sold,,,https://www.redfin.com/FL/West-Palm-Beach/417-Lake-Dora-Dr-33411/home/42162493,Beaches MLS,F10351472,N,Y,26.7042486,-80.1634014
PAST SALE,January-31-2023,Condo/Co-op,100 Paradise Harbour Blvd #202,North Palm Beach,FL,33408,450000,2,2.0,Paradise Harbour Condo,1079,,1971,,417,430,Sold,,,https://www.redfin.com/FL/North-Palm-Beach/100-Paradise-Harbour-Blvd-33408/unit-202/home/42480333,Beaches MLS,RX-10852234,N,Y,26.8090049,-80.0528336
PAST SALE,January-24-2023,Condo/Co-op,296 Normandy G,Delray Beach,FL,33484,117000,1,1.5,Kings Point,760,43560,1980,,154,477,Sold,,,https://www.redfin.com/FL/Delray-Beach/296-Normandy-G-33484/home/42235182,Beaches MLS,RX-10850573,N,Y,26.4459164,-80.1417272
PAST SALE,,Condo/Co-op,2562 Garden Dr N #312,Lake Worth,FL,33461,117000,1,1.5,,894,,1966,,131,,,,,https://www.redfin.com/FL/Lake-Worth/2562-Garden-Dr-N-33461/unit-312/home/42292136,,,N,Y,26.6340152,-80.0812982
PAST SALE,February-10-2023,Condo/Co-op,96 Waltham D #96,West Palm Beach,FL,33417,80000,2,1.5,Century Village / Waltham,798,43560,1969,,100,470,Sold,,,https://www.redfin.com/FL/West-Palm-Beach/96-Waltham-D-33417/unit-96/home/183571318,Beaches MLS,RX-10853906,N,Y,26.716811,-80.122574
PAST SALE,December-9-2022,Condo/Co-op,14849 Cumberland Dr,Delray Beach,FL,33446,115000,2,2.0,Deauville,2005,,1980,,57,419,Sold,,,https://www.redfin.com/FL/Delray-Beach/14849-Cumberland-Dr-33446/home/181257978,Beaches MLS,RX-10760201,N,Y,26.4564901,-80.1553744
PAST SALE,January-30-2023,Townhouse,1060 North Dr Unit D,Delray Beach,FL,33445,280000,2,2.0,High Point OF Delray Sec 4,1175,43560,1971,,238,399,Sold,,,https://www.redfin.com/FL/Delray-Beach/1060-North-Dr-33445/unit-D/home/42639637,Beaches MLS,RX-10847703,N,Y,26.4681574,-80.1065281
PAST SALE,February-1-2023,Condo/Co-op,420 Pine Glen Ln Unit A-2,Greenacres,FL,33463,159000,2,2.0,Pine Ridge South IV Condo,929,43560,1981,,171,354,Sold,,,https://www.redfin.com/FL/Greenacres/420-Pine-Glen-Ln-33463/unit-A2/home/42383664,Beaches MLS,RX-10858427,N,Y,26.6047278,-80.1423786
PAST SALE,November-18-2022,Condo/Co-op,2067 Guildford D Unit D,Boca Raton,FL,33434,150777,2,1.5,Guildford AT Century Village Condo,880,,1980,,171,497,Sold,,,https://www.redfin.com/FL/Boca-Raton/2067-Guildford-E-33434/unit-D/home/178540022,Beaches MLS,RX-10830963,N,Y,26.387641,-80.1754944
PAST SALE,December-28-2022,Condo/Co-op,6650 S Oriole Blvd #1070,Delray Beach,FL,33446,165000,2,2.0,Villages Of Oriole,1006,,1980,,164,521,Sold,,,https://www.redfin.com/FL/Delray-Beach/6650-S-Oriole-Blvd-33446/unit-1070/home/42217300,Beaches MLS,F10356288,N,Y,26.4560179,-80.157326
PAST SALE,December-8-2022,Condo/Co-op,1401 Village Blvd #318,West Palm Beach,FL,33409,190000,2,2.0,PONTE VERDE AT PALM BEACH,1112,,1990,,171,275,Sold,,,https://www.redfin.com/FL/West-Palm-Beach/1401-Village-Blvd-33409/unit-318/home/42659295,MARMLS,A11292511,N,Y,26.7244147,-80.1070445
PAST SALE,December-9-2022,Condo/Co-op,6292 La Costa Dr Unit A,Boca Raton,FL,33433,245000,2,2.0,ADDISON POINTE AT BOCA RA,981,,1991,,250,458,Sold,,,https://www.redfin.com/FL/Boca-Raton/6292-La-Costa-Dr-33433/unit-A/home/42654199,MARMLS,A11299065,N,Y,26.341264,-80.141442
PAST SALE,February-10-2023,Condo/Co-op,128 Lehane Ter #204,North Palm Beach,FL,33408,198000,1,1.0,Lehane Court Condo,648,,1974,,306,184,Sold,,,https://www.redfin.com/FL/North-Palm-Beach/128-Lehane-Ter-33408/unit-204/home/42479302,Beaches MLS,RX-10859790,N,Y,26.8039275,-80.053536
PAST SALE,,Condo/Co-op,390 Flanders I,Delray Beach,FL,33484,105000,1,1.5,,726,,1975,,145,,,,,https://www.redfin.com/FL/Delray-Beach/390-Flanders-I-33484/home/42222795,,,N,Y,26.440356,-80.141465
PAST SALE,December-12-2022,Condo/Co-op,2640 Lake Shore Dr #308,Riviera Beach,FL,33404,705000,3,3.0,Marina Grande Riviera Beach Condo,1878,,2007,,375,963,Sold,,,https://www.redfin.com/FL/Riviera-Beach/2640-Lake-Shore-Dr-33404/unit-308/home/42652281,Beaches MLS,RX-10838169,N,Y,26.784161,-80.0483841
PAST SALE,December-22-2022,Condo/Co-op,6 Abbey Ln #106,Delray Beach,FL,33446,150000,2,2.0,Villages OF Oriole,925,,1974,,162,373,Sold,,,https://www.redfin.com/FL/Delray-Beach/6-Abbey-Ln-33446/unit-106/home/42215321,Beaches MLS,RX-10845881,N,Y,26.4580213,-80.1538138
PAST SALE,,Condo/Co-op,224 Murcia Dr #3,Jupiter,FL,33458,380000,2,2.0,,1281,,2004,,297,,,,,https://www.redfin.com/FL/Jupiter/224-Murcia-Dr-33458/unit-3/home/42571943,,,N,Y,26.9047089,-80.1092013
PAST SALE,November-21-2022,Condo/Co-op,2040 Greenview Shores Blvd #203,Wellington,FL,33414,245000,1,1.0,Wellington,745,,1999,,329,219,Sold,,,https://www.redfin.com/FL/Wellington/2040-Greenview-Shores-Blvd-33414/unit-203/home/42601438,AINCAR,102193,N,Y,26.6511033,-80.262732
PAST SALE,February-1-2023,Condo/Co-op,610 Clematis St #636,West Palm Beach,FL,33401,349900,1,1.0,610 Clematis Condominium,884,,2006,,396,642,Sold,,,https://www.redfin.com/FL/West-Palm-Beach/610-Clematis-St-33401/unit-636/home/42611574,Beaches MLS,RX-10854708,N,Y,26.7128739,-80.0576205
PAST SALE,November-22-2022,Condo/Co-op,3520 S Ocean Blvd Unit H406,South Palm Beach,FL,33480,650000,3,2.0,Palmsea Condo,1566,,1973,,415,1066,Sold,,,https://www.redfin.com/FL/South-Palm-Beach/3520-S-Ocean-Blvd-33480/unit-H406/home/42467335,Beaches MLS,RX-10839314,N,Y,26.5924598,-80.0386154
PAST SALE,January-13-2023,Condo/Co-op,2945 SW 22nd Ave #2070,Delray Beach,FL,33445,210000,2,2.0,Sabal Pine East Condo,1109,,1984,,189,290,Sold,,,https://www.redfin.com/FL/Delray-Beach/2945-SW-22nd-Ave-33445/unit-2070/home/42373004,Beaches MLS,RX-10845754,N,Y,26.4296769,-80.0955797
PAST SALE,December-1-2022,Condo/Co-op,6458 Emerald Dunes Dr #202,West Palm Beach,FL,33411,299000,2,2.0,VILLAS AT EMERALD DUNES C,1071,,2006,,279,369,Sold,,,https://www.redfin.com/FL/West-Palm-Beach/6458-Emerald-Dunes-Dr-33411/unit-202/home/42655299,MARMLS,A11291799,N,Y,26.7088576,-80.1426403
PAST SALE,December-12-2022,Condo/Co-op,14307 Bedford Dr #404,Delray Beach,FL,33446,175000,2,2.0,Huntington Lakes Sec Two Condos,990,,1985,,177,585,Sold,,,https://www.redfin.com/FL/Delray-Beach/14307-Bedford-Dr-33446/unit-404/home/42219428,Beaches MLS,RX-10845413,N,Y,26.464454,-80.1531068
PAST SALE,November-30-2022,Condo/Co-op,31 Crossings Cir Unit D,Boynton Beach,FL,33435,181500,2,3.0,Crossings OF Boynton Beach Condo,953,,1984,,190,380,Sold,,,https://www.redfin.com/FL/Boynton-Beach/31-Crossings-Cir-33435/unit-D/home/42333840,Beaches MLS,RX-10837372,N,Y,26.5508601,-80.0581855
PAST SALE,January-30-2023,Condo/Co-op,7235 Promenade Dr Unit K301,Boca Raton,FL,33433,677500,3,2.5,Imperial Royale AT Boca Pointe Condo,2610,43560,1989,,260,1310,Sold,,,https://www.redfin.com/FL/Boca-Raton/7235-Promenade-Dr-33433/unit-K301/home/144794468,Beaches MLS,RX-10857163,N,Y,26.3342732,-80.1600239
PAST SALE,December-7-2022,Condo/Co-op,3709 Quail Ridge Dr N Unit Bobwhite,Boynton Beach,FL,33436,316500,3,2.0,Quail Ridge,1768,,1978,,179,1193,Sold,,,https://www.redfin.com/FL/Boynton-Beach/3709-Quail-Ridge-Dr-33436/unit-Bobwhite/home/181734199,Beaches MLS,RX-10831218,N,Y,26.509504,-80.100843
PAST SALE,November-30-2022,Condo/Co-op,101 S Golfview Rd #7,Lake Worth Beach,FL,33460,107000,0,1.0,Gulfstream Condo,375,,1947,,285,396,Sold,,,https://www.redfin.com/FL/Lake-Worth/101-S-Golfview-Rd-33460/unit-7/home/42428173,Beaches MLS,RX-10835955,N,Y,26.6141827,-80.0488684
PAST SALE,December-7-2022,Condo/Co-op,286 Brighton G,Boca Raton,FL,33434,105000,1,1.5,Century Village,715,,1979,,147,215,Sold,,,https://www.redfin.com/FL/Boca-Raton/286-Brighton-G-33434/home/42630676,Beaches MLS,RX-10840294,N,Y,26.384264,-80.1840958
PAST SALE,January-5-2023,Condo/Co-op,1240 Club Dr W Unit D,Delray Beach,FL,33445,210000,2,2.0,High Point OF Delray Sec 6 Condo,1137,43560,1978,,185,387,Sold,,,https://www.redfin.com/FL/Delray-Beach/1240-Club-Dr-W-33445/unit-D/home/42639506,Beaches MLS,RX-10851278,N,Y,26.4647232,-80.1109713
PAST SALE,December-21-2022,Condo/Co-op,801 S Olive Ave #1603,West Palm Beach,FL,33401,1420000,2,2.0,One City Plaza Condo,1509,,2006,,941,1086,Sold,,,https://www.redfin.com/FL/West-Palm-Beach/801-S-Olive-Ave-33401/unit-1603/home/42616693,Beaches MLS,RX-10843989,N,Y,26.70582,-80.0524882
PAST SALE,,Condo/Co-op,1482 Lake Crystal Dr Unit B,West Palm Beach,FL,33411,175000,2,2.0,,928,,1986,,189,,,,,https://www.redfin.com/FL/West-Palm-Beach/1482-Lake-Crystal-Dr-33411/unit-B/home/42616954,,,N,Y,26.7000132,-80.1698273
PAST SALE,December-13-2022,Condo/Co-op,3388 Lucerne Park Dr Unit 4b,Greenacres,FL,33467,162500,2,2.0,Park Pointe,1128,,1985,,144,435,Sold,,,https://www.redfin.com/FL/Greenacres/3388-Lucerne-Park-Dr-33467/unit-4b/home/182636019,Beaches MLS,RX-10843716,N,Y,26.631608,-80.147807
PAST SALE,January-12-2023,Condo/Co-op,354 Chilean Ave Unit 5b,Palm Beach,FL,33480,1260000,1,1.0,Island House Condo,782,365,1983,,1611,1034,Sold,,,https://www.redfin.com/FL/Palm-Beach/354-Chilean-Ave-33480/unit-5-B/home/144766074,Beaches MLS,RX-10853664,N,Y,26.7023467,-80.0406995
PAST SALE,January-31-2023,Condo/Co-op,134 Lakeshore Dr Unit 14-Ph,North Palm Beach,FL,33408,500000,2,2.0,Old Port Cove Condo Two,1235,,1972,,405,820,Sold,,,https://www.redfin.com/FL/North-Palm-Beach/134-Lakeshore-Dr-33408/unit-14-Ph/home/182223633,Beaches MLS,RX-10854115,N,Y,26.8343334,-80.0574611
PAST SALE,December-14-2022,Condo/Co-op,137 Easthampton F #137,West Palm Beach,FL,33417,85000,1,1.5,Century Village,735,,1969,,116,410,Sold,,,https://www.redfin.com/FL/West-Palm-Beach/137-Easthampton-F-33417/unit-137/home/132339649,Beaches MLS,RX-10845091,N,Y,26.716714,-80.119845
PAST SALE,December-5-2022,Condo/Co-op,1801 N Flagler Dr #434,West Palm Beach,FL,33407,400000,2,2.0,FLAGLER POINTE CONDO,1071,,2001,,373,666,Sold,,,https://www.redfin.com/FL/West-Palm-Beach/1801-N-Flagler-Dr-33407/unit-434/home/42598855,MARMLS,A11268494,N,Y,26.7293708,-80.0504798
PAST SALE,January-3-2023,Condo/Co-op,1805 N Flagler Dr #112,West Palm Beach,FL,33407,368000,2,2.0,Flagler Pointe Condo,1071,,2000,,344,666,Sold,,,https://www.redfin.com/FL/West-Palm-Beach/1805-N-Flagler-Dr-33407/unit-112/home/42587235,Beaches MLS,F10355018,N,Y,26.7296018,-80.0500374
PAST SALE,November-30-2022,Condo/Co-op,107 Inlet Way #3,Palm Beach Shores,FL,33404,510000,2,2.0,Ocean Mist Condo,1185,9281,1979,,430,400,Sold,,,https://www.redfin.com/FL/Palm-Beach-Shores/107-Inlet-Way-33404/unit-3/home/42461285,Beaches MLS,RX-10838936,N,Y,26.7748697,-80.0338083
PAST SALE,February-7-2023,Condo/Co-op,1513 Lake Crystal Dr Unit C,West Palm Beach,FL,33411,204000,2,2.0,Palm Beach Grande Condo,928,,1986,,220,420,Sold,,,https://www.redfin.com/FL/Royal-Palm-Beach/1513-Lake-Crystal-Dr-33411/unit-C/home/42609471,Beaches MLS,RX-10856827,N,Y,26.7014944,-80.1708219
PAST SALE,November-29-2022,Condo/Co-op,2003 N Ocean Blvd #1601,Boca Raton,FL,33431,1250000,3,2.5,La Fontana,2038,,1980,,613,1559,Sold,,,https://www.redfin.com/FL/Boca-Raton/2003-N-Ocean-Blvd-33431/unit-1601/home/42321357,Beaches MLS,F10351313,N,Y,26.3691539,-80.0699829
PAST SALE,December-20-2022,Condo/Co-op,550 SE 5th Ave Unit 704s,Boca Raton,FL,33432,6000000,4,5.5,Mizner Grand Condo,5222,,1999,,1149,4183,Sold,,,https://www.redfin.com/FL/Boca-Raton/550-SE-5th-Ave-33432/unit-704S/home/42535929,Beaches MLS,RX-10849638,N,Y,26.3438644,-80.077632
PAST SALE,January-31-2023,Condo/Co-op,98 Capri C #98,Delray Beach,FL,33484,92200,1,1.5,Kings Point Capri Condos,792,,1979,,116,427,Sold,,,https://www.redfin.com/FL/Delray-Beach/98-Capri-B-33484/unit-98/home/133433935,Beaches MLS,RX-10832993,N,Y,26.443534,-80.134806
PAST SALE,December-30-2022,Condo/Co-op,1317 Villa Ln #1317,Boynton Beach,FL,33435,291500,2,2.0,Villa Del Sol,1074,,2002,,271,380,Sold,,,https://www.redfin.com/FL/Boynton-Beach/1317-Villa-Cir-33435/unit-1317/home/130306591,Beaches MLS,F10359712,N,Y,26.5254562,-80.0590804
PAST SALE,January-19-2023,Condo/Co-op,1200 Town Center Dr #205,Jupiter,FL,33458,250000,1,1.0,Village AT Abacoa Condo,719,43560,2001,,348,359,Sold,,,https://www.redfin.com/FL/Jupiter/1200-Town-Center-Dr-33458/unit-205/home/42594713,Beaches MLS,RX-10852557,N,Y,26.8896145,-80.115224
PAST SALE,February-3-2023,Condo/Co-op,3624 Alder Dr Unit B2,West Palm Beach,FL,33417,195000,2,2.0,Palm Club West Village 1 Condo,1111,,1986,,176,238,Sold,,,https://www.redfin.com/FL/West-Palm-Beach/3624-Alder-Dr-33417/unit-B2/home/42624084,Beaches MLS,RX-10843069,N,Y,26.7284511,-80.1126292
PAST SALE,February-6-2023,Condo/Co-op,222 N Federal Hwy #8,Lake Worth,FL,33460,151000,1,1.0,Townsite Apts XV Condo,600,,1974,,252,198,Sold,,,https://www.redfin.com/FL/Lake-Worth/222-N-Federal-Hwy-33460/unit-8/home/42426307,Beaches MLS,RX-10858140,N,Y,26.6184912,-80.0519841
PAST SALE,February-8-2023,Condo/Co-op,1880 N Congress Ave #310,West Palm Beach,FL,33401,140000,1,1.0,Presidential Golfview,775,,1981,,181,360,Sold,,,https://www.redfin.com/FL/West-Palm-Beach/1880-N-Congress-Ave-33401/unit-310/home/42525270,Beaches MLS,F10362406,N,Y,26.7320694,-80.0893351
PAST SALE,December-28-2022,Condo/Co-op,7567 Imperial Dr #502,Boca Raton,FL,33433,660000,3,2.5,Boca Pointe NO 1,2567,43560,1987,,257,997,Sold,,,https://www.redfin.com/FL/Boca-Raton/7567-Imperial-Dr-33433/unit-502/home/42272773,Beaches MLS,RX-10848628,N,Y,26.3341135,-80.1614282
PAST SALE,January-30-2023,Condo/Co-op,17202 Glenmoor Dr,West Palm Beach,FL,33409,236000,2,2.0,Sterling Villages OF Palm Beach Lakes Condo,1120,,1989,,211,456,Sold,,,https://www.redfin.com/FL/West-Palm-Beach/17202-Glenmoor-Dr-33409/home/42611732,Beaches MLS,RX-10851280,N,Y,26.718922,-80.101012
PAST SALE,November-22-2022,Condo/Co-op,223 Dorset F Unit F,Boca Raton,FL,33434,85500,1,1.5,Dorset AT Century Village Condo,715,,1979,,120,465,Sold,,,https://www.redfin.com/FL/Boca-Raton/223-Dorset-F-33434/unit-F/home/182365439,Beaches MLS,RX-10839531,N,Y,26.382722,-80.179023
PAST SALE,December-21-2022,Condo/Co-op,9810 Pineapple Tree Dr #202,Boynton Beach,FL,33436,205000,2,2.0,Bent Tree Gardens West Condo,1000,,1982,,205,245,Sold,,,https://www.redfin.com/FL/Boynton-Beach/9810-Pineapple-Tree-Dr-33436/unit-202/home/42197193,Beaches MLS,RX-10844193,N,Y,26.529785,-80.118654
PAST SALE,January-17-2023,Condo/Co-op,2008 Rexford A #2008,Boca Raton,FL,33434,300000,2,2.0,Century Village,896,,1982,,335,491,Sold,,,https://www.redfin.com/FL/Boca-Raton/2008-Rexford-Dr-33434/unit-2008/home/183226183,Beaches MLS,F10359311,N,Y,26.389519,-80.178621
PAST SALE,February-8-2023,Condo/Co-op,83 East Ct,Royal Palm Beach,FL,33411,130500,1,1.0,Greenway Village Cond NO 1,608,,1967,,215,267,Sold,,,https://www.redfin.com/FL/Royal-Palm-Beach/83-East-Ct-33411/home/42491166,Beaches MLS,RX-10855304,N,Y,26.6952347,-80.2317364
PAST SALE,January-5-2023,Condo/Co-op,7149 Golf Colony Ct #205,Lake Worth,FL,33467,180000,2,2.0,Lucerne Lakes Golf Colony Condos,857,,1984,,210,320,Sold,,,https://www.redfin.com/FL/Lake-Worth/7149-Golf-Colony-Ct-33467/unit-205/home/42180361,Beaches MLS,RX-10844987,N,Y,26.6085638,-80.1591899
PAST SALE,January-5-2023,Condo/Co-op,708 Laconia Cir #708,Lake Worth,FL,33467,210000,2,2.0,Covered Bridge,941,,1983,,223,335,Sold,,,https://www.redfin.com/FL/Lake-Worth/708-Laconia-Cir-33467/unit-708/home/183180959,Beaches MLS,RX-10850084,N,Y,26.6240107,-80.1622003
PAST SALE,February-6-2023,Condo/Co-op,1660 Renaissance Commons Blvd #2124,Boynton Beach,FL,33426,275000,2,2.0,Renaissance Commons,1119,43560,2007,,246,561,Sold,,,https://www.redfin.com/FL/Boynton-Beach/1660-Renaissance-Commons-Blvd-33426/unit-2124/home/42622559,Beaches MLS,RX-10852619,N,Y,26.542925,-80.0877707
PAST SALE,December-22-2022,Condo/Co-op,2580 Emory Dr E Unit G,West Palm Beach,FL,33415,105000,1,1.0,Cresthaven Villas Condo 31,612,43560,1983,,172,251,Sold,,,https://www.redfin.com/FL/West-Palm-Beach/2580-Emory-Dr-E-33415/unit-G/home/42175956,Beaches MLS,RX-10849118,N,Y,26.640332,-80.13005
PAST SALE,November-22-2022,Condo/Co-op,17053 Waterbend Dr #130,Jupiter,FL,33477,650000,2,2.0,Waterbend AT Jonathans Landing Condo,1320,,1982,,492,927,Sold,,,https://www.redfin.com/FL/Jupiter/17053-Waterbend-Dr-33477/unit-130/home/42274113,Beaches MLS,RX-10839549,N,Y,26.9285461,-80.0915104
PAST SALE,,Condo/Co-op,203 Foxtail Dr Unit D2,Greenacres,FL,33415,150000,1,1.0,,764,,1985,,196,,,,,https://www.redfin.com/FL/Greenacres/203-Foxtail-Dr-33415/unit-D2/home/42382961,,,N,Y,26.6445728,-80.1449954
PAST SALE,,Condo/Co-op,1815 NW 18th St #204,Delray Beach,FL,33445,225000,2,2.0,,1335,,1981,,169,,,,,https://www.redfin.com/FL/Delray-Beach/1815-NW-18th-St-33445/unit-204/home/42644635,,,N,Y,26.480664,-80.092579
PAST SALE,November-18-2022,Condo/Co-op,19 Royal Palm Way #104,Boca Raton,FL,33432,460000,2,2.0,Boca Bayou,1095,,1980,,420,514,Sold,,,https://www.redfin.com/FL/Boca-Raton/19-Royal-Palm-Way-33432/unit-104/home/45080561,Beaches MLS,RX-10838712,N,Y,26.326959,-80.093642
PAST SALE,December-27-2022,Condo/Co-op,2100 Springdale Blvd Unit Y210,Palm Springs,FL,33461,159999,2,1.5,Village Green,839,,1985,,191,265,Sold,,,https://www.redfin.com/FL/Palm-Springs/2100-Springdale-Blvd-33461/unit-Y210/home/182781975,Beaches MLS,RX-10845372,N,Y,26.6455767,-80.1032049
PAST SALE,January-6-2023,Condo/Co-op,1401 S Ocean Blvd #402,Boca Raton,FL,33432,524900,2,2.5,Mayfair OF Boca Raton Condo,1864,,1982,,282,1196,Sold,,,https://www.redfin.com/FL/Boca-Raton/1401-S-Ocean-Blvd-33432/unit-402/home/183064870,Beaches MLS,RX-10849024,N,Y,26.3307453,-80.0753624
PAST SALE,December-12-2022,Condo/Co-op,2223 NE 1st Ct #103,Boynton Beach,FL,33435,110000,1,1.5,Village Royale Condo 4,632,,1970,,174,331,Sold,,,https://www.redfin.com/FL/Boynton-Beach/2223-NE-1st-Ct-33435/unit-103/home/42337759,Beaches MLS,RX-10844551,N,Y,26.549665,-80.06453
PAST SALE,,Townhouse,176 Bent Arrow Dr,Jupiter,FL,33458,260000,2,2.0,,1188,4855,1983,,219,,,,,https://www.redfin.com/FL/Jupiter/176-Bent-Arrow-Dr-33458/home/42398152,,,N,Y,26.9179656,-80.1277887
PAST SALE,January-5-2023,Condo/Co-op,2800 S Ocean Blvd Unit 9-H,Boca Raton,FL,33432,1150000,2,2.0,Ocean Towers Condominium,1423,,1976,,808,1153,Sold,,,https://www.redfin.com/FL/Boca-Raton/2800-S-Ocean-Blvd-33432/unit-9H/home/42335452,Beaches MLS,RX-10845472,N,Y,26.3234856,-80.0749914
PAST SALE,January-2-2023,Condo/Co-op,27 Easthampton B,West Palm Beach,FL,33417,123000,1,1.5,Easthampton,725,,1969,,170,268,Sold,,,https://www.redfin.com/FL/West-Palm-Beach/27-Easthampton-B-33417/home/42138252,Beaches MLS,RX-10846015,N,Y,26.716714,-80.119845
PAST SALE,December-19-2022,Condo/Co-op,14721 Bonaire Blvd #307,Delray Beach,FL,33446,130000,1,1.5,Villages OF Oriole Bonaire,765,,1979,,170,411,Sold,,,https://www.redfin.com/FL/Delray-Beach/14721-Bonaire-Blvd-33446/unit-307/home/42223386,Beaches MLS,RX-10831627,N,Y,26.461407,-80.148445
PAST SALE,December-22-2022,Condo/Co-op,3138 Via Poinciana Dr #304,Lake Worth,FL,33467,159900,2,2.0,Grandview At Spring Lakes Condo,1125,,1988,,142,314,Sold,,,https://www.redfin.com/FL/Lake-Worth/3138-Via-Poinciana-33467/unit-304/home/42087717,Beaches MLS,RX-10847776,N,Y,26.6307345,-80.1541316
PAST SALE,December-20-2022,Condo/Co-op,14476 Canalview Dr Unit A,Delray Beach,FL,33484,260000,2,2.0,High Point West,1186,,1981,,219,392,Sold,,,https://www.redfin.com/FL/Delray-Beach/14476-Canalview-Dr-33484/unit-A/home/42213184,Beaches MLS,RX-10849034,N,Y,26.4607673,-80.1285737
PAST SALE,December-23-2022,Condo/Co-op,11035 Legacy Blvd #305,Palm Beach Gardens,FL,33410,400000,2,3.0,Residences AT Legacy Place Condo,1403,43560,2003,,285,352,Sold,,,https://www.redfin.com/FL/Palm-Beach-Gardens/11035-Legacy-Blvd-33410/unit-305/home/42617194,Beaches MLS,RX-10853382,N,Y,26.8394937,-80.0914397
PAST SALE,November-30-2022,Condo/Co-op,21 Royal Palm Way #103,Boca Raton,FL,33432,425000,2,2.0,Boca Bayou Condo,1095,1310454,1980,,388,514,Sold,,,https://www.redfin.com/FL/Boca-Raton/21-Royal-Palm-Way-33432/unit-103/home/179504452,Beaches MLS,RX-10841569,N,Y,26.3266638,-80.0939651
PAST SALE,January-3-2023,Condo/Co-op,304 Mansfield Unit H,Boca Raton,FL,33434,155000,2,1.5,Century Village,805,,1980,,193,527,Sold,,,https://www.redfin.com/FL/Boca-Raton/304-Mansfield-Dr-33434/unit-H/home/179354417,Beaches MLS,RX-10847938,N,Y,26.3913894,-80.1778213
PAST SALE,November-21-2022,Condo/Co-op,13334 Polo Club Rd #202,Wellington,FL,33414,570000,2,2.0,Bagattelle Condo,1400,,1979,,407,642,Sold,,,https://www.redfin.com/FL/Wellington/13334-Polo-Club-Rd-33414/unit-202/home/42504554,Beaches MLS,RX-10838867,N,Y,26.643027,-80.2570701
PAST SALE,January-10-2023,Condo/Co-op,473 Capri J,Delray Beach,FL,33484,105000,1,1.5,Kings Point Capri Condos,760,,1978,,138,420,Sold,,,https://www.redfin.com/FL/Delray-Beach/473-Capri-J-33484/home/42228707,Beaches MLS,RX-10848680,N,Y,26.4435334,-80.1347927
PAST SALE,December-15-2022,Condo/Co-op,340 Preston I #340,Boca Raton,FL,33434,153000,2,1.5,Preston AT Century Village Condo,835,,1980,,183,526,Sold,,,https://www.redfin.com/FL/Boca-Raton/340-Mansfield-Dr-33434/unit-340/home/182638366,Beaches MLS,RX-10843787,N,Y,26.393597,-80.178271
PAST SALE,December-30-2022,Condo/Co-op,3940 Schooner Pointe Dr #210,Jupiter,FL,33477,835000,3,2.0,WEST BAY AT JONATHANS LAND,1839,,1995,,454,860,Sold,,,https://www.redfin.com/FL/Jupiter/3940-Schooner-Pointe-Dr-33477/unit-210/home/42280257,MARMLS,A11314947,N,Y,26.9257914,-80.0924705
PAST SALE,,Condo/Co-op,5954 Longbow Ln #8,West Palm Beach,FL,33415,225000,3,2.0,,1179,,1981,,191,,,,,https://www.redfin.com/FL/West-Palm-Beach/5954-Longbow-Ln-33415/unit-8/home/42178959,,,N,Y,26.6473754,-80.1357757
PAST SALE,January-20-2023,Condo/Co-op,1600 Windorah Way Unit G,West Palm Beach,FL,33411,245000,3,2.0,Palm Beach Place Condo,1156,43560,1989,,212,395,Sold,,,https://www.redfin.com/FL/West-Palm-Beach/1600-Windorah-Way-33411/unit-G/home/42615161,Beaches MLS,RX-10851144,N,Y,26.7024751,-80.1734564
PAST SALE,November-23-2022,Condo/Co-op,7170 Promenade Dr #201,Boca Raton,FL,33433,550000,3,2.0,"Promenade AT Boca Pointe Condos 1,2 And 3 IN Or413",1800,,1985,,306,954,Sold,,,https://www.redfin.com/FL/Boca-Raton/7170-Promenade-Dr-33433/unit-201/home/42269498,Beaches MLS,RX-10836081,N,Y,26.3351787,-80.1565164
PAST SALE,February-10-2023,Condo/Co-op,4545 N Ocean Blvd Unit 3d,Boca Raton,FL,33431,740000,2,2.5,Admirals Walk,1892,,1974,,391,1324,Sold,,,https://www.redfin.com/FL/Boca-Raton/4545-N-Ocean-Blvd-33431/unit-3D/home/42317374,Beaches MLS,RX-10841958,N,Y,26.3905047,-80.0675329
PAST SALE,November-21-2022,Condo/Co-op,2600 Fiore Way #2150,Delray Beach,FL,33445,200000,2,2.0,Lago Del Rey Condo,1023,,1977,,196,438,Sold,,,https://www.redfin.com/FL/Delray-Beach/2600-Fiore-Way-33445/unit-2150/home/42371167,Beaches MLS,RX-10839001,N,Y,26.4477299,-80.1025923
PAST SALE,December-2-2022,Condo/Co-op,1360 NW 18th Ave Unit 1-C,Delray Beach,FL,33445,165000,2,1.5,Pines OF Delray North Condo,953,,1979,,173,410,Sold,,,https://www.redfin.com/FL/Delray-Beach/1360-NW-18th-Ave-33445/unit-1-C/home/42356529,Beaches MLS,RX-10835127,N,Y,26.4798565,-80.0911613
PAST SALE,November-21-2022,Condo/Co-op,2000 N Congress Ave #110,West Palm Beach,FL,33401,150000,1,1.0,Presidential Golfview,775,,1981,,194,320,Sold,,,https://www.redfin.com/FL/West-Palm-Beach/2000-N-Congress-Ave-33401/unit-110/home/42520468,Beaches MLS,F10351288,N,Y,26.7318831,-80.0890997
PAST SALE,January-31-2023,Condo/Co-op,3520 S Ocean Blvd Unit L605,South Palm Beach,FL,33480,420000,2,2.0,Palmsea Condo,1174,,1973,,358,929,Sold,,,https://www.redfin.com/FL/Palm-Beach/3520-S-Ocean-Blvd-33480/unit-L605/home/42469412,Beaches MLS,RX-10853820,N,Y,26.5924598,-80.0386154
PAST SALE,January-27-2023,Condo/Co-op,3546 S Ocean Blvd #803,South Palm Beach,FL,33480,833000,2,2.0,Barclay Condo,1402,,1974,,594,957,Sold,,,https://www.redfin.com/FL/South-Palm-Beach/3546-S-Ocean-Blvd-33480/unit-803/home/42644144,Beaches MLS,F10363133,N,Y,26.591014,-80.0382105
PAST SALE,January-11-2023,Condo/Co-op,30 Easthampton B,West Palm Beach,FL,33417,85000,1,1.0,Century Village,702,,1969,,121,425,Sold,,,https://www.redfin.com/FL/West-Palm-Beach/30-Easthampton-B-33417/home/42141726,Beaches MLS,RX-10851648,N,Y,26.716714,-80.119845
PAST SALE,January-5-2023,Condo/Co-op,706 Sunny Pine Way Unit H2,Greenacres,FL,33415,245000,3,2.0,Pine Ridge Northvillage Iii,1468,43560,1984,,167,338,Sold,,,https://www.redfin.com/FL/Greenacres/706-Sunny-Pine-Way-33415/unit-H2/home/42375226,Beaches MLS,RX-10847639,N,Y,26.6382299,-80.1437125
PAST SALE,,Condo/Co-op,4696 Lucerne Lakes Blvd E #102,Lake Worth,FL,33467,220000,2,2.0,,1244,,1989,,177,,,,,https://www.redfin.com/FL/Lake-Worth/4696-Lucerne-Lakes-Blvd-E-33467/unit-102/home/42180353,,,N,Y,26.6055159,-80.1569426
PAST SALE,,Condo/Co-op,7485 Victory Ln #8602,Delray Beach,FL,33446,396000,2,2.0,,1311,,1987,,302,,,,,https://www.redfin.com/FL/Delray-Beach/7485-Victory-Ln-33446/unit-8602/home/42221079,,,N,Y,26.439988,-80.162431
PAST SALE,December-2-2022,Condo/Co-op,50 Waltham Unit C,West Palm Beach,FL,33417,113500,1,1.5,Waltham A Thru I Condos,684,,1969,,166,393,Sold,,,https://www.redfin.com/FL/West-Palm-Beach/50-Waltham-E-33417/unit-C/home/182505890,Beaches MLS,RX-10841610,N,Y,26.717291,-80.122346
PAST SALE,,Condo/Co-op,8201 Springview Ter,Boca Raton,FL,33496,325000,2,2.0,,1310,,1991,,248,,,,,https://www.redfin.com/FL/Boca-Raton/8201-Springview-Ter-33496/home/42237769,,,N,Y,26.3997387,-80.1760794
PAST SALE,December-23-2022,Condo/Co-op,5751 Camino Del Sol #402,Boca Raton,FL,33433,300000,2,2.0,Camino Real Village,1250,,1985,,240,510,Sold,,,https://www.redfin.com/FL/Boca-Raton/5751-Camino-del-Sol-33433/unit-402/home/42262808,Beaches MLS,RX-10848135,N,Y,26.341104,-80.134411
PAST SALE,December-28-2022,Condo/Co-op,1232 Club Dr W Unit C,Delray Beach,FL,33445,167000,1,2.0,High Point OF Delray Sec 6 Condo,1040,,1978,,161,328,Sold,,,https://www.redfin.com/FL/Delray-Beach/1232-Club-Dr-W-33445/unit-C/home/42355969,Beaches MLS,RX-10844641,N,Y,26.466249,-80.112358
PAST SALE,December-16-2022,Condo/Co-op,9628 Pavarotti Ter #201,Boynton Beach,FL,33437,310000,2,2.0,Sun Valley East Condo,1605,,1990,,193,425,Sold,,,https://www.redfin.com/FL/Boynton-Beach/9628-Pavarotti-Ter-33437/unit-201/home/42194259,Beaches MLS,RX-10836090,N,Y,26.531063,-80.1334798
PAST SALE,January-3-2023,Condo/Co-op,3049 Cornwall C,Boca Raton,FL,33434,137500,1,1.5,Century Village,752,,1979,,183,221,Sold,,,https://www.redfin.com/FL/Boca-Raton/3049-Cornwall-C-33434/home/42249361,Beaches MLS,RX-10827969,N,Y,26.386773,-80.181055
PAST SALE,December-20-2022,Condo/Co-op,8809 Warwick Dr,Boca Raton,FL,33433,319000,2,2.0,Boca Lakes Condo,1332,43560,1975,,239,390,Sold,,,https://www.redfin.com/FL/Boca-Raton/8809-Warwick-Dr-33433/unit-260/home/42257028,Beaches MLS,RX-10847078,N,Y,26.365411,-80.183948
PAST SALE,November-21-2022,Condo/Co-op,9292 Vista Del Lago Unit 10-A,Boca Raton,FL,33428,269000,3,2.0,Pines OF Boca Lago Condo,1411,,1980,,191,655,Sold,,,https://www.redfin.com/FL/Boca-Raton/9292-Vista-Del-Lago-33428/unit-10-A/home/182268345,Beaches MLS,RX-10838069,N,Y,26.354181,-80.192741
PAST SALE,December-16-2022,Condo/Co-op,1153 Town Center Dr #201,Jupiter,FL,33458,442000,3,2.0,Village AT Abacoa Condo,1279,,2001,,346,557,Sold,,,https://www.redfin.com/FL/Jupiter/1153-Town-Center-Dr-33458/unit-201/home/42596144,Beaches MLS,RX-10839234,N,Y,26.8899095,-80.1143743
PAST SALE,January-27-2023,Condo/Co-op,581 Monaco M Way,Delray Beach,FL,33446,122000,2,2.0,Kings Point Monaco Condos,883,43560,1974,,138,503,Sold,,,https://www.redfin.com/FL/Delray-Beach/581-Monaco-M-33446/home/42631282,Beaches MLS,RX-10852836,N,Y,26.450034,-80.150653
PAST SALE,January-11-2023,Condo/Co-op,225 NE 1 St #408,Delray Beach,FL,33444,1250000,3,3.0,Astor Condo,1860,,2008,,672,788,Sold,,,https://www.redfin.com/FL/Delray-Beach/225-NE-1st-St-33444/unit-408/home/42666347,Beaches MLS,RX-10849258,N,Y,26.4637985,-80.0708666
PAST SALE,December-14-2022,Condo/Co-op,5861 Whispering Pine Way Unit C-1,Greenacres,FL,33463,178000,2,1.0,Pine Ridge IV Condo,935,,1981,,190,265,Sold,,,https://www.redfin.com/FL/Greenacres/5861-Whispering-Pine-Way-33463/unit-C1/home/42389539,Beaches MLS,RX-10844194,N,Y,26.6246346,-80.1360825
PAST SALE,January-19-2023,Condo/Co-op,28 Chatham B,West Palm Beach,FL,33417,150000,2,1.5,Century Village,798,,1973,,188,480,Sold,,,https://www.redfin.com/FL/West-Palm-Beach/28-Chatham-B-33417/home/42143067,Beaches MLS,RX-10851963,N,Y,26.7152244,-80.1296455
PAST SALE,November-22-2022,Condo/Co-op,2819 W Ashley Dr W Unit B,West Palm Beach,FL,33415,120000,1,1.0,CRESTHAVEN VILLAS 3 CONDO,612,,1967,,196,310,Sold,,,https://www.redfin.com/FL/West-Palm-Beach/2819-Ashley-Dr-W-33415/unit-B/home/42176215,MARMLS,A11293591,N,Y,26.6363286,-80.1206246
PAST SALE,January-5-2023,Condo/Co-op,719 Lori Dr #201,Palm Springs,FL,33461,132000,1,1.5,Lakeside Village Condo 9,901,43560,1978,,147,281,Sold,,,https://www.redfin.com/FL/Palm-Springs/719-Lori-Dr-33461/unit-201/home/42484053,Beaches MLS,RX-10851380,N,Y,26.6464808,-80.0927526
PAST SALE,January-31-2023,Condo/Co-op,3048 Rexford C,Boca Raton,FL,33434,135000,1,1.5,Century Village West PL 3,752,43560,1982,,180,288,Sold,,,https://www.redfin.com/FL/Boca-Raton/3048-Rexford-C-33434/home/42633913,Beaches MLS,RX-10848584,N,Y,26.389519,-80.178621
PAST SALE,,Condo/Co-op,9697 Shadybrook Dr #102,Boynton Beach,FL,33437,355000,3,2.0,,1616,,1993,,220,,,,,https://www.redfin.com/FL/Boynton-Beach/9697-Shadybrook-Dr-33437/unit-102/home/42629716,,,N,Y,26.5322426,-80.1571187
PAST SALE,December-21-2022,Condo/Co-op,520 Brittany K #520,Delray Beach,FL,33446,136000,2,2.0,Kings Point Brittany Cond,883,,1974,,154,489,Sold,,,https://www.redfin.com/FL/Delray-Beach/520-Brittany-K-33446/unit-520/home/182796191,Beaches MLS,F10356270,N,Y,26.444317,-80.153314
PAST SALE,December-9-2022,Condo/Co-op,2621 Village Blvd #403,West Palm Beach,FL,33409,230000,2,2.0,Whitehall,1385,,1987,,166,471,Sold,,,https://www.redfin.com/FL/West-Palm-Beach/2621-Village-Blvd-33409/unit-403/home/42509603,Beaches MLS,RX-10844047,N,Y,26.7367642,-80.0921214
PAST SALE,December-28-2022,Condo/Co-op,610 Clematis St #601,West Palm Beach,FL,33401,485000,2,2.0,610 Clematis Condo,1149,,2006,,422,806,Sold,,,https://www.redfin.com/FL/West-Palm-Beach/610-Clematis-St-33401/unit-601/home/42610608,Beaches MLS,RX-10845730,N,Y,26.7128739,-80.0576205
PAST SALE,December-16-2022,Condo/Co-op,2901 S Ocean 602 Blvd,Highland Beach,FL,33487,2300000,3,3.5,Highland Place Condo,2615,,1988,,880,2600,Sold,,,https://www.redfin.com/FL/Highland-Beach/2901-S-Ocean-Blvd-33487/home/182665603,Beaches MLS,RX-10844031,N,Y,26.4231394,-80.0637014
PAST SALE,November-22-2022,Condo/Co-op,21 Abbey Ln #103,Delray Beach,FL,33446,199900,2,2.0,Villages OF Oriole,925,,1978,,216,374,Sold,,,https://www.redfin.com/FL/Delray-Beach/21-Abbey-Ln-33446/unit-103/home/42218235,Beaches MLS,RX-10841289,N,Y,26.4581126,-80.1527798
PAST SALE,November-18-2022,Condo/Co-op,429 Lake Helen Dr,West Palm Beach,FL,33411,130000,1,1.5,Golden Lakes Village Condo 1 Thru 13-a,722,,1974,,180,340,Sold,,,https://www.redfin.com/FL/West-Palm-Beach/429-Lake-Helen-Dr-33411/home/42156267,Beaches MLS,RX-10836894,N,Y,26.7010291,-80.1643164
PAST SALE,January-30-2023,Condo/Co-op,9280 Vista Del Lago Unit 32e,Boca Raton,FL,33428,235000,2,2.0,"Pines OF Boca Lago Cond Phase I,ii,iii Decl Filed 3-3-80",1216,,1980,,193,615,Sold,,,https://www.redfin.com/FL/Boca-Raton/9280-Vista-Del-Lago-33428/unit-32-E/home/131140849,Beaches MLS,RX-10853894,N,Y,26.355907,-80.1916152
PAST SALE,November-21-2022,Condo/Co-op,6753 Heritage Grande #4206,Boynton Beach,FL,33437,249900,2,2.0,GREEN CAY VILLAGE CONDO,880,,2007,,284,356,Sold,,,https://www.redfin.com/FL/Boynton-Beach/6753-Heritage-Grande-33437/unit-4206/home/42622145,MARMLS,A11296423,N,Y,26.49001,-80.15047
PAST SALE,January-25-2023,Condo/Co-op,110 Andover E,West Palm Beach,FL,33417,80000,1,1.5,Andover A Thru M Condos,684,,1971,,117,387,Sold,,,https://www.redfin.com/FL/West-Palm-Beach/110-Andover-E-33417/home/42144495,Beaches MLS,RX-10852869,N,Y,26.7101989,-80.1297722
PAST SALE,February-6-2023,Condo/Co-op,9293 Vista Del Lago A Unit A,Boca Raton,FL,33428,285000,2,2.0,Pines OF Boca Lago Condo,1216,43560,1980,,234,615,Sold,,,https://www.redfin.com/FL/Boca-Raton/9293-Vista-del-Lago-33428/unit-A/home/42260650,Beaches MLS,RX-10855401,N,Y,26.3556805,-80.1930423
PAST SALE,December-20-2022,Condo/Co-op,1109 Green Pine Blvd Unit H1,West Palm Beach,FL,33409,175000,2,2.0,Palm Club Village II Condo,1064,,1985,,164,375,Sold,,,https://www.redfin.com/FL/West-Palm-Beach/1109-Green-Pine-Blvd-33409/unit-H1/home/42506577,Beaches MLS,RX-10838871,N,Y,26.7296168,-80.1032069
PAST SALE,December-15-2022,Condo/Co-op,285 Wellington K,West Palm Beach,FL,33417,185000,2,2.0,Century Village -wellington Condos,1092,,1972,,169,470,Sold,,,https://www.redfin.com/FL/West-Palm-Beach/285-Wellington-K-33417/home/42137755,Beaches MLS,RX-10839480,N,Y,26.710177,-80.1332309
PAST SALE,December-22-2022,Condo/Co-op,4115 San Marino Blvd #108,West Palm Beach,FL,33409,185000,1,1.0,Emerald Isle AT Laguna Lakes Condo,760,,2002,,243,356,Sold,,,https://www.redfin.com/FL/West-Palm-Beach/4115-San-Marino-Blvd-33409/unit-108/home/42600259,Beaches MLS,RX-10848095,N,Y,26.7378713,-80.1066082
PAST SALE,January-3-2023,Condo/Co-op,2803 Crosley Dr W Unit I,West Palm Beach,FL,33415,80000,1,1.0,Cresthaven Villas Condo 21,612,,1971,,131,259,Sold,,,https://www.redfin.com/FL/West-Palm-Beach/2803-Crosley-Dr-W-33415/unit-I/home/42161158,Beaches MLS,RX-10846235,N,Y,26.635945,-80.128431
PAST SALE,February-14-2023,Condo/Co-op,2680 E Emory Dr E Unit I,West Palm Beach,FL,33415,129000,1,1.5,Cresthaven Villas 30 Condo,661,,1973,,195,276,Sold,,,https://www.redfin.com/FL/West-Palm-Beach/2680-Emory-Dr-E-33415/unit-I/home/42178411,Beaches MLS,RX-10856633,N,Y,26.638938,-80.129937
PAST SALE,December-16-2022,Condo/Co-op,6420 Boca Del Mar Dr #207,Boca Raton,FL,33433,240000,2,2.0,Glens,1207,,1980,,199,598,Sold,,,https://www.redfin.com/FL/Boca-Raton/6420-Boca-del-Mar-Dr-33433/unit-207/home/42258818,Beaches MLS,RX-10840758,N,Y,26.3476848,-80.1431971
PAST SALE,December-2-2022,Condo/Co-op,1040 Banyan Rd Unit 302 C,Boca Raton,FL,33432,615000,2,2.0,Newth Gardens C Condo,1575,,1969,,390,920,Sold,,,https://www.redfin.com/FL/Boca-Raton/1040-Banyan-Rd-33432/unit-302-C/home/182548886,Beaches MLS,RX-10842295,N,Y,26.3369554,-80.0743254
PAST SALE,January-6-2023,Condo/Co-op,1401 S Federal Hwy #201,Boca Raton,FL,33432,410000,2,2.0,POINTE SOUTH CONDO,1366,,1975,,300,450,Sold,,,https://www.redfin.com/FL/Boca-Raton/1401-S-Federal-Hwy-33432/unit-201/home/42324933,MARMLS,A11312302,N,Y,26.33683,-80.087575
PAST SALE,January-26-2023,Condo/Co-op,3505 Briar Bay Blvd #203,West Palm Beach,FL,33411,213000,2,2.0,Cove AT Briar Bay Condo,910,43560,2003,,234,337,Sold,,,https://www.redfin.com/FL/Royal-Palm-Beach/3505-Briar-Bay-Blvd-33411/unit-203/home/42591975,Beaches MLS,RX-10854670,N,Y,26.7289973,-80.1393847
PAST SALE,December-1-2022,Condo/Co-op,3400 S Ocean Blvd Unit 8m,Highland Beach,FL,33487,752500,2,2.0,Coronado AT Highland Beach Condo,1449,,1983,,519,1179,Sold,,,https://www.redfin.com/FL/Highland-Beach/3400-S-Ocean-Blvd-33487/unit-8M/home/42391225,Beaches MLS,RX-10841134,N,Y,26.415108,-80.0654102
PAST SALE,January-12-2023,Condo/Co-op,49 Brentwood Dr #49,Boynton Beach,FL,33436,668000,3,2.0,Villas of Brentwood at Hunters Run,2494,,1987,,268,1311,Sold,,,https://www.redfin.com/FL/Boynton-Beach/49-Brentwood-Dr-33436/unit-49/home/182324887,Beaches MLS,RX-10838814,N,Y,26.49707,-80.110209
PAST SALE,January-20-2023,Condo/Co-op,2161 NE 1st Ct #202,Boynton Beach,FL,33435,146000,2,2.0,Village Royale Cond NO 3 Decl IN,872,,1969,,167,428,Sold,,,https://www.redfin.com/FL/Boynton-Beach/2161-NE-1st-Ct-33435/unit-202/home/42344799,Beaches MLS,RX-10848574,N,Y,26.5488809,-80.0644281
PAST SALE,November-21-2022,Condo/Co-op,14 Royal Palm Way #303,Boca Raton,FL,33432,412500,2,2.0,Boca Bayou,1095,,1977,,377,553,Sold,,,https://www.redfin.com/FL/Boca-Raton/14-Royal-Palm-Way-33432/unit-303/home/110153447,Beaches MLS,RX-10839050,N,Y,26.330035,-80.092541
PAST SALE,January-4-2023,Condo/Co-op,3305 Jog Park Dr,Greenacres,FL,33467,245000,3,2.0,Park Pointe,1540,,2001,,159,399,Sold,,,https://www.redfin.com/FL/Greenacres/3305-Jog-Park-Dr-33467/unit-3911/home/42554086,Beaches MLS,RX-10837058,N,Y,26.6308094,-80.1500815
PAST SALE,February-10-2023,Condo/Co-op,5360 Lakefront Blvd Unit D,Delray Beach,FL,33484,180000,2,2.0,High Point OF Delray West Condo Sec 1&2,1186,,1980,,152,441,Sold,,,https://www.redfin.com/FL/Delray-Beach/5360-Lakefront-Blvd-33484/unit-D/home/42215361,Beaches MLS,RX-10856435,N,Y,26.4645326,-80.1279113
PAST SALE,January-20-2023,Condo/Co-op,3595 Birdie Dr #304,Lake Worth,FL,33467,230000,2,2.0,"Poinciana Place Condo A,b And C",1090,43560,1978,,211,575,Sold,,,https://www.redfin.com/FL/Lake-Worth/3595-Birdie-Dr-33467/unit-304/home/42087104,Beaches MLS,RX-10853961,N,Y,26.623126,-80.156379
PAST SALE,December-6-2022,Condo/Co-op,4605 S Ocean Blvd Unit 8D,Highland Beach,FL,33487,2000000,3,3.0,Parker Highland,2600,,1981,,769,2295,Sold,,,https://www.redfin.com/FL/Highland-Beach/4605-S-Ocean-Blvd-33487/unit-8D/home/42397841,Beaches MLS,F10353128,N,Y,26.3942152,-80.0660029
PAST SALE,December-16-2022,Condo/Co-op,3149 Millwood Ter #1170,Boca Raton,FL,33431,320000,2,2.0,Park AT Windwood Condo,920,,1985,,348,460,Sold,,,https://www.redfin.com/FL/Boca-Raton/3149-Millwood-Ter-33431/unit-1170/home/42316565,Beaches MLS,RX-10843540,N,Y,26.3805998,-80.0892273
PAST SALE,December-15-2022,Condo/Co-op,313 Bay Colony North Dr N,Juno Beach,FL,33408,1350000,2,2.0,Bay Colony,1526,,2014,,885,899,Sold,,,https://www.redfin.com/FL/Juno-Beach/313-Bay-Colony-Dr-N-33408/home/104367168,Beaches MLS,RX-10844901,N,Y,26.8610906,-80.0652319
PAST SALE,,Condo/Co-op,154 Lake Evelyn Dr,West Palm Beach,FL,33411,210000,2,2.0,,888,,1975,,236,,,,,https://www.redfin.com/FL/West-Palm-Beach/154-Lake-Evelyn-Dr-33411/home/42146575,,,N,Y,26.706611,-80.1673969
PAST SALE,January-3-2023,Condo/Co-op,120 Palm Bay Dr Unit D,Palm Beach Gardens,FL,33418,585000,3,3.0,Palm Bay Club Condo,2664,457366,2005,,220,1027,Sold,,,https://www.redfin.com/FL/Palm-Beach-Gardens/120-Palm-Bay-Dr-33418/unit-D/home/42592464,Beaches MLS,RX-10837594,N,Y,26.8167834,-80.1066041
PAST SALE,January-31-2023,Condo/Co-op,780 S Sapodilla Ave #412,West Palm Beach,FL,33401,350000,1,1.0,Courtyards IN Cityplace Condo,756,,2001,,463,441,Sold,,,https://www.redfin.com/FL/West-Palm-Beach/780-S-Sapodilla-Ave-33401/unit-412/home/42601835,Beaches MLS,RX-10853653,N,Y,26.7070704,-80.0586532
PAST SALE,January-19-2023,Condo/Co-op,9900 Pineapple Tree Dr #203,Boynton Beach,FL,33436,240000,2,2.0,Bent Tree Gardens West Condo,1000,43560,1981,,240,415,Sold,,,https://www.redfin.com/FL/Boynton-Beach/9900-Pineapple-Tree-Dr-33436/unit-203/home/42203698,Beaches MLS,RX-10853846,N,Y,26.529785,-80.118654
PAST SALE,January-17-2023,Condo/Co-op,3651 Quail Ridge Dr S Unit Bobwhite B,Boynton Beach,FL,33436,410000,2,2.0,Quail Ridge,1737,,1978,,236,1193,Sold,,,https://www.redfin.com/FL/Boynton-Beach/3651-Quail-Ridge-Dr-33436/unit-Bobwhite-B/home/182753278,Beaches MLS,RX-10844992,N,Y,26.509504,-80.100843
PAST SALE,December-14-2022,Condo/Co-op,10257 Quail Covey Rd Unit Hibiscus S,Boynton Beach,FL,33436,492500,2,2.0,Quail Ridge,1737,,1980,,284,1333,Sold,,,https://www.redfin.com/FL/Boynton-Beach/10257-Quail-Covey-Rd-33436/unit-Hibiscus-S/home/182388770,Beaches MLS,RX-10840031,N,Y,26.524873,-80.102512
PAST SALE,,Condo/Co-op,7835 Lakeside Blvd #962,Boca Raton,FL,33434,389000,2,2.0,,1255,,1976,,310,,,,,https://www.redfin.com/FL/Boca-Raton/7835-Lakeside-Blvd-33434/unit-962/home/42256680,,,N,Y,26.379621,-80.1674479
PAST SALE,November-25-2022,Condo/Co-op,6655 Kensington Ln #406,Delray Beach,FL,33446,305000,2,2.0,Huntington Lakes Sec One,1220,,1989,,250,560,Sold,,,https://www.redfin.com/FL/Delray-Beach/6655-Kensington-Ln-33446/unit-406/home/42216533,Beaches MLS,F10348180,N,Y,26.464568,-80.14829
PAST SALE,November-22-2022,Condo/Co-op,729 Lori Dr #307,Palm Springs,FL,33461,130000,2,2.0,Lakeside Village Condo 10,994,,1974,,131,316,Sold,,,https://www.redfin.com/FL/Palm-Springs/729-Lori-Dr-33461/unit-307/home/42485493,Beaches MLS,RX-10838671,N,Y,26.6472022,-80.0939342
PAST SALE,January-12-2023,Condo/Co-op,71 Canterbury C #71,West Palm Beach,FL,33417,70000,1,1.0,Century Village Plat NO 10,570,43560,1973,,123,464,Sold,,,https://www.redfin.com/FL/West-Palm-Beach/71-Canterbury-C-33417/unit-71/home/182983034,Beaches MLS,RX-10846977,N,Y,26.720227,-80.132277
PAST SALE,December-16-2022,Condo/Co-op,378 Burgundy H #378,Delray Beach,FL,33484,103000,1,1.5,Kings Point,760,,1979,,136,432,Sold,,,https://www.redfin.com/FL/Delray-Beach/378-Burgundy-G-33484/unit-378/home/182576214,Beaches MLS,F10353767,N,Y,26.445271,-80.131475
PAST SALE,November-23-2022,Condo/Co-op,1056 Wolverton C,Boca Raton,FL,33434,225000,2,2.0,Wolverton,916,,1984,,246,273,Sold,,,https://www.redfin.com/FL/Boca-Raton/1056-Wolverton-C-33434/home/42243847,Beaches MLS,RX-10838208,N,Y,26.3901522,-80.1814793
PAST SALE,January-3-2023,Condo/Co-op,11 Northampton A,West Palm Beach,FL,33417,89900,1,1.5,Northampton Condos,684,,1972,,131,446,Sold,,,https://www.redfin.com/FL/West-Palm-Beach/11-Northampton-a-33417/home/42141608,Beaches MLS,RX-10845019,N,Y,26.7160166,-80.1335838
PAST SALE,December-8-2022,Condo/Co-op,1005 Palm Beach Trace Dr,Royal Palm Beach,FL,33411,200000,2,2.0,Palm Beach Trace,1201,,1990,,167,215,Sold,,,https://www.redfin.com/FL/Royal-Palm-Beach/1005-Palm-Beach-Trace-Dr-33411/home/42484770,Beaches MLS,RX-10838413,N,Y,26.7126723,-80.2269962
PAST SALE,November-30-2022,Condo/Co-op,2800 Fiore Way #206,Delray Beach,FL,33445,210000,1,1.5,Lago Del Rey,825,,1979,,255,298,Sold,,,https://www.redfin.com/FL/Delray-Beach/2800-Fiore-Way-33445/unit-206/home/104341075,Beaches MLS,F10353415,N,Y,26.4469575,-80.1042687
PAST SALE,February-10-2023,Condo/Co-op,1601 Clubhouse Cir,Jupiter,FL,33477,615000,2,2.0,Jupiter Dunes Condo,1280,,1980,,480,597,Sold,,,https://www.redfin.com/FL/Jupiter/1601-Clubhouse-Cir-33477/home/42408177,Beaches MLS,RX-10856780,N,Y,26.937708,-80.074526
PAST SALE,December-23-2022,Condo/Co-op,531 Shady Pine Way Unit D1,Greenacres,FL,33415,220000,2,2.0,Pine Ridge North I Cond Decl Filed 1-5-82,1115,,1982,,197,277,Sold,,,https://www.redfin.com/FL/Greenacres/531-Shady-Pine-Way-33415/unit-D1/home/42379118,Beaches MLS,RX-10847942,N,Y,26.639894,-80.143475
PAST SALE,November-30-2022,Condo/Co-op,480 NW 20th St #201,Boca Raton,FL,33431,225000,2,2.0,Casa Del Rio,936,,1980,,240,344,Sold,,,https://www.redfin.com/FL/Boca-Raton/480-NW-20th-St-33431/unit-201/home/42318954,Beaches MLS,RX-10838897,N,Y,26.3680395,-80.0939232
PAST SALE,December-14-2022,Condo/Co-op,9170 SW 14th St #4501,Boca Raton,FL,33428,355000,2,2.0,Patios Of Boca Barwood,1906,,1984,,186,670,Sold,,,https://www.redfin.com/FL/Boca-Raton/9170-SW-14th-St-33428/unit-4501/home/42277072,Beaches MLS,F10354568,N,Y,26.3349425,-80.1888578
PAST SALE,December-23-2022,Condo/Co-op,1610 Shirley Ct #1,Lantana,FL,33462,122600,1,1.0,Shirley Court Sub,600,,1972,,204,225,Sold,,,https://www.redfin.com/FL/Lantana/1610-Shirley-Ct-33462/unit-1/home/42423608,Beaches MLS,RX-10848575,N,Y,26.5940527,-80.0684731
PAST SALE,January-13-2023,Condo/Co-op,602 Executive Center Dr #108,West Palm Beach,FL,33401,208000,2,2.0,Lake Place Condo,876,,1986,,237,450,Sold,,,https://www.redfin.com/FL/West-Palm-Beach/602-Executive-Center-Dr-33401/unit-108/home/42519348,Beaches MLS,RX-10850574,N,Y,26.711627,-80.075689
PAST SALE,,Condo/Co-op,2707 N Ocean Blvd #5020,Boca Raton,FL,33431,700000,2,2.0,,1020,,1978,,686,,,,,https://www.redfin.com/FL/Boca-Raton/2707-N-Ocean-Blvd-33431/unit-5020/home/42315522,,,N,Y,26.3759007,-80.0710242
PAST SALE,,Condo/Co-op,11224 Aspen Glen Dr,Boynton Beach,FL,33437,330000,2,2.0,,1427,,1987,,231,,,,,https://www.redfin.com/FL/Boynton-Beach/11224-Aspen-Glen-Dr-33437/home/42205190,,,N,Y,26.511396,-80.144239
PAST SALE,December-8-2022,Condo/Co-op,801 Flanders Q Unit Q,Delray Beach,FL,33484,110000,1,1.5,Kings Point Flanders Condos,760,,1978,,145,450,Sold,,,https://www.redfin.com/FL/Delray-Beach/801-Flanders-Q-33484/unit-Q/home/182574990,Beaches MLS,RX-10842862,N,Y,26.4402604,-80.1390761
PAST SALE,January-27-2023,Condo/Co-op,1410 S Federal Hwy #207,Lake Worth,FL,33460,175000,2,2.0,EL CASTELAY CONDO,975,,1971,,179,327,Sold,,,https://www.redfin.com/FL/Lake-Worth/1410-S-Federal-Hwy-33460/unit-207/home/42669838,MARMLS,A11313389,N,Y,26.5981584,-80.0521545
PAST SALE,January-11-2023,Condo/Co-op,3015 S Ocean Blvd #603,Highland Beach,FL,33487,1300000,3,2.0,Ocean Dunes Condo,2210,,1982,,588,1268,Sold,,,https://www.redfin.com/FL/Highland-Beach/3015-S-Ocean-Blvd-33487/unit-603/home/42397559,Beaches MLS,F10355348,N,Y,26.4203756,-80.0637514
PAST SALE,February-2-2023,Condo/Co-op,3024 Newcastle B #3024,Boca Raton,FL,33434,180000,2,2.0,Century Village,916,,1983,,197,605,Sold,,,https://www.redfin.com/FL/Boca-Raton/3024-Newcastle-B-33434/unit-3024/home/183612152,Beaches MLS,RX-10854705,N,Y,26.389966,-80.1756715
PAST SALE,,Condo/Co-op,64 Coventry C,West Palm Beach,FL,33417,175000,2,1.5,,814,,1969,,215,,,,,https://www.redfin.com/FL/West-Palm-Beach/64-Coventry-C-33417/home/42139367,,,N,Y,26.7199995,-80.1222599
PAST SALE,December-30-2022,Condo/Co-op,3605 S Ocean Blvd #325,South Palm Beach,FL,33480,373500,2,2.0,Southgate Condo,1121,,1974,,333,703,Sold,,,https://www.redfin.com/FL/South-Palm-Beach/3605-S-Ocean-Blvd-33480/unit-325/home/42470497,Beaches MLS,RX-10848151,N,Y,26.5871379,-80.0407868
PAST SALE,December-27-2022,Condo/Co-op,4301 N Ocean Blvd Unit A402,Boca Raton,FL,33431,865000,2,2.0,Sea Ranch Club OF Boca I Condo,1904,,1981,,454,1194,Sold,,,https://www.redfin.com/FL/Boca-Raton/4301-N-Ocean-Blvd-33431/unit-A402/home/182955381,Beaches MLS,RX-10847067,N,Y,26.3892514,-80.0678683
PAST SALE,February-8-2023,Condo/Co-op,8553 Boca Glades Blvd W Unit D,Boca Raton,FL,33434,260000,2,2.0,Boca Glades,1233,,1985,,211,495,Sold,,,https://www.redfin.com/FL/Boca-Raton/8553-Boca-Glades-Blvd-W-33434/unit-D/home/42633310,Beaches MLS,F10364668,N,Y,26.370719,-80.175346
PAST SALE,December-22-2022,Condo/Co-op,3951 Via Poinciana #413,Lake Worth,FL,33467,198000,2,2.0,"Poinciana Place Condo 1,2,8 And 9",1090,,1974,,182,417,Sold,,,https://www.redfin.com/FL/Lake-Worth/3951-Via-Poinciana-33467/unit-413/home/42168430,Beaches MLS,RX-10842809,N,Y,26.6187803,-80.1543063
PAST SALE,December-30-2022,Condo/Co-op,7161 Golf Colony Ct #204,Lake Worth,FL,33467,180000,2,2.0,Lucerne Lakes Golf Colony,815,43560,1984,,221,310,Sold,,,https://www.redfin.com/FL/Lake-Worth/7161-Golf-Colony-Ct-33467/unit-204/home/42178507,Beaches MLS,RX-10848543,N,Y,26.6081838,-80.1592989
PAST SALE,,Condo/Co-op,1401 Village Blvd #814,West Palm Beach,FL,33409,160000,1,1.0,,731,,1990,,219,,,,,https://www.redfin.com/FL/West-Palm-Beach/1401-Village-Blvd-33409/unit-814/home/42659843,,,N,Y,26.7242874,-80.1096718
PAST SALE,January-5-2023,Condo/Co-op,2000 S Ocean Blvd Ph -E,Boca Raton,FL,33432,1310000,2,2.0,Whitehall,1236,,1971,,1060,1295,Sold,,,https://www.redfin.com/FL/Boca-Raton/2000-S-Ocean-Blvd-33432/unit-E/home/42326327,Beaches MLS,RX-10848801,N,Y,26.3283021,-80.0744227
PAST SALE,December-20-2022,Condo/Co-op,576 Burgundy L,Delray Beach,FL,33484,162000,2,2.0,Kings Point Burgundy Condos,907,,1979,,179,475,Sold,,,https://www.redfin.com/FL/Delray-Beach/576-Burgundy-L-33484/home/42228398,Beaches MLS,RX-10844225,N,Y,26.445271,-80.131475
PAST SALE,February-14-2023,Condo/Co-op,1163 Lake Terry Dr Unit 58-N,West Palm Beach,FL,33411,160000,2,1.0,St Andrews Palm Beach,708,,1991,,226,311,Sold,,,https://www.redfin.com/FL/West-Palm-Beach/1163-Lake-Terry-Dr-33411/unit-58-N/home/104438468,Beaches MLS,F10362420,N,Y,26.6975605,-80.1701994
PAST SALE,November-18-2022,Condo/Co-op,4 Royal Palm Way #402,Boca Raton,FL,33432,285000,2,1.0,Boca Bayou Condo,1010,,1977,,282,563,Sold,,,https://www.redfin.com/FL/Boca-Raton/4-Royal-Palm-Way-33432/unit-402/home/182377734,Beaches MLS,RX-10839886,N,Y,26.3295604,-80.0921141
PAST SALE,February-8-2023,Condo/Co-op,10113 Mangrove Dr #205,Boynton Beach,FL,33437,166000,2,2.0,Lakeside Condo 8 OF Banyan Springs,1280,43560,1985,,130,669,Sold,,,https://www.redfin.com/FL/Boynton-Beach/10113-Mangrove-Dr-33437/unit-205/home/42202356,Beaches MLS,RX-10854875,N,Y,26.5275588,-80.128879
PAST SALE,February-15-2023,Condo/Co-op,300 Intracoastal Pl #205,Jupiter,FL,33469,614000,2,2.0,Broadview Condominium,1345,,1976,,457,833,Sold,,,https://www.redfin.com/FL/Jupiter/300-Intracoastal-Pl-33469/unit-205/home/42633202,Beaches MLS,RX-10855320,N,Y,26.968768,-80.085348
PAST SALE,November-30-2022,Condo/Co-op,3221 Perimeter Dr,Greenacres,FL,33467,220000,2,2.0,Park Pointe,1354,,1987,,162,420,Sold,,,https://www.redfin.com/FL/Greenacres/3221-Perimeter-Dr-33467/unit-2612/home/42376187,Beaches MLS,RX-10841123,N,Y,26.631608,-80.147807
PAST SALE,December-10-2022,Condo/Co-op,1012 Green Pine Blvd Unit B2,West Palm Beach,FL,33409,255000,3,2.0,PALM CLUB VILLAGE I CONDO,1254,,1984,,203,395,Sold,,,https://www.redfin.com/FL/West-Palm-Beach/1012-Green-Pine-Blvd-33409/unit-B2/home/42508682,MARMLS,A11281553,N,Y,26.7299798,-80.1071318
PAST SALE,December-8-2022,Condo/Co-op,15 Northampton A St Unit A,West Palm Beach,FL,33417,81000,1,1.0,Century Village,570,,1972,,142,422,Sold,,,https://www.redfin.com/FL/West-Palm-Beach/15-Northampton-C-33417/unit-A/home/132396187,Beaches MLS,RX-10844578,N,Y,26.7158524,-80.1339927
PAST SALE,December-13-2022,Condo/Co-op,429 Australian Ave #80,Palm Beach,FL,33480,3400000,3,3.0,Australian OF Palm Beach Condo,1914,,1974,,1776,2260,Sold,,,https://www.redfin.com/FL/Palm-Beach/429-Australian-Ave-33480/unit-80/home/42438213,Beaches MLS,RX-10847353,N,Y,26.7036422,-80.0422714
PAST SALE,December-19-2022,Condo/Co-op,5153 Floria Dr Unit R,Boynton Beach,FL,33437,270000,3,2.0,Illustre Village Condo,1447,,1995,,187,583,Sold,,,https://www.redfin.com/FL/Boynton-Beach/5153-Floria-Dr-33437/unit-R/home/42203190,Beaches MLS,RX-10842693,N,Y,26.5298819,-80.1263141
PAST SALE,,Condo/Co-op,8953 Warwick Dr,Boca Raton,FL,33433,250000,1,1.0,,908,,1976,,275,,,,,https://www.redfin.com/FL/Boca-Raton/8953-Warwick-Dr-33433/home/42253556,,,N,Y,26.3647249,-80.1858459
PAST SALE,December-21-2022,Condo/Co-op,19 Abbey Ln #104,Delray Beach,FL,33446,135000,1,1.0,Village Of Oriole Abbey,610,,1978,,221,308,Sold,,,https://www.redfin.com/FL/Delray-Beach/19-Abbey-Ln-33446/unit-104/home/42217216,Beaches MLS,F10355910,N,Y,26.457399,-80.1527541
PAST SALE,February-1-2023,Condo/Co-op,31 S Golfview Rd #8,Lake Worth Beach,FL,33460,115000,0,1.0,Gulfstream Condo,375,,1948,,307,396,Sold,,,https://www.redfin.com/FL/Lake-Worth/31-S-Golfview-Rd-33460/unit-8/home/42429667,Beaches MLS,RX-10852565,N,Y,26.6146823,-80.048682
PAST SALE,December-16-2022,Condo/Co-op,719 W Tiffany Dr #3,Mangonia Park,FL,33407,79900,2,1.0,Tiffany Lake Condo PH 2,980,,1974,,82,442,Sold,,,https://www.redfin.com/FL/Mangonia-Park/719-W-Tiffany-Dr-33407/unit-3/home/42430170,Beaches MLS,RX-10818902,N,Y,26.756268,-80.082207
PAST SALE,,Condo/Co-op,6805 Willow Wood Dr #5024,Boca Raton,FL,33434,257400,2,2.0,,1255,,1981,,205,,,,,https://www.redfin.com/FL/Boca-Raton/6805-Willow-Wood-Dr-33434/unit-5024/home/42254895,,,N,Y,26.3751008,-80.1490076
PAST SALE,January-25-2023,Condo/Co-op,2778 S Ocean Blvd Unit 305s,Palm Beach,FL,33480,1195000,3,3.0,Sutton Place Condo,2266,,1981,,527,1532,Sold,,,https://www.redfin.com/FL/Palm-Beach/2778-S-Ocean-Blvd-33480/unit-305-S/home/104360006,Beaches MLS,RX-10839615,N,Y,26.6202394,-80.0394755
PAST SALE,January-13-2023,Condo/Co-op,6698 10th Ave N #127,Lake Worth,FL,33467,195000,3,2.0,Hamlet AT Poinciana Condo,1564,,1986,,125,450,Sold,,,https://www.redfin.com/FL/Lake-Worth/6698-10th-Ave-N-33467/unit-127/home/42627896,Beaches MLS,RX-10840732,N,Y,26.6304059,-80.1526606
PAST SALE,January-17-2023,Condo/Co-op,2701 S Ocean Blvd #28,Highland Beach,FL,33487,898000,2,2.0,Carlton House Condo,1504,77925,1964,,597,1413,Sold,,,https://www.redfin.com/FL/Highland-Beach/2701-S-Ocean-Blvd-33487/unit-28/home/42385995,Beaches MLS,RX-10855215,N,Y,26.4260995,-80.0634022
PAST SALE,January-23-2023,Condo/Co-op,135 Southampton B #135,West Palm Beach,FL,33417,92000,1,1.5,Southampton Condo,615,,1974,,150,456,Sold,,,https://www.redfin.com/FL/West-Palm-Beach/135-Southampton-B-33417/unit-135/home/132736453,Beaches MLS,RX-10843357,N,Y,26.7077492,-80.1232527
PAST SALE,January-30-2023,Condo/Co-op,631 Sea Pine Way Unit A1,Greenacres,FL,33415,227000,2,2.0,Pine Ridge North II Condo,1005,43560,1984,,226,319,Sold,,,https://www.redfin.com/FL/Greenacres/631-Sea-Pine-Way-33415/unit-A1/home/42379342,Beaches MLS,RX-10856967,N,Y,26.6384754,-80.139099
PAST SALE,February-2-2023,Condo/Co-op,119 Palm Point Circle Cir Unit D,Palm Beach Gardens,FL,33418,650000,3,3.5,Ballenisles,2450,,1998,,265,1029,Sold,,,https://www.redfin.com/FL/Palm-Beach-Gardens/119-Palm-Point-Cir-33418/unit-D/home/42542059,Beaches MLS,RX-10845493,N,Y,26.8240322,-80.1147123
PAST SALE,November-22-2022,Condo/Co-op,353 S Us Highway 1 Unit B409,Jupiter,FL,33477,615000,2,2.0,Jupiter Bay One Thru Six Condo,1056,,1984,,582,611,Sold,,,https://www.redfin.com/FL/Jupiter/353-U-S-1-33477/unit-B409/home/178528399,Beaches MLS,RX-10841891,N,Y,26.9310124,-80.0768436
PAST SALE,November-30-2022,Condo/Co-op,1200 Marine Way #408,North Palm Beach,FL,33408,350000,2,2.0,Old Port Cove Condo One,1118,,1971,,313,668,Sold,,,https://www.redfin.com/FL/North-Palm-Beach/1200-Marine-Way-33408/unit-408/home/42473061,Beaches MLS,RX-10839643,N,Y,26.8349287,-80.0592239
PAST SALE,January-31-2023,Condo/Co-op,353 S Us Highway 1 Unit B403,Jupiter,FL,33477,490000,1,1.5,Jupiter Bay One Thru Six Condo,821,,1984,,597,734,Sold,,,https://www.redfin.com/FL/Jupiter/353-S-US-Highway-1-33477/unit-B403/home/42407639,Beaches MLS,RX-10857184,N,Y,26.9310124,-80.0768436
PAST SALE,January-23-2023,Condo/Co-op,225 Suffolk F,Boca Raton,FL,33434,180000,2,1.5,Suffolk AT Century Village Condo,840,43560,1981,,214,366,Sold,,,https://www.redfin.com/FL/Boca-Raton/225-Suffolk-F-33434/home/42247535,Beaches MLS,RX-10848643,N,Y,26.3926613,-80.1821223
PAST SALE,February-9-2023,Condo/Co-op,255 Evernia St #1115,West Palm Beach,FL,33401,401000,1,1.0,Strand,720,,2002,,557,363,Sold,,,https://www.redfin.com/FL/West-Palm-Beach/255-Evernia-St-33401/unit-1115/home/42608942,Beaches MLS,F10361123,N,Y,26.7116572,-80.0512657
PAST SALE,January-13-2023,Condo/Co-op,36 Bedford B,West Palm Beach,FL,33417,103000,1,1.0,Century Village -bedford Condo,570,43560,1970,,181,420,Sold,,,https://www.redfin.com/FL/West-Palm-Beach/36-Bedford-B-33417/home/42142477,Beaches MLS,RX-10850963,N,Y,26.7110394,-80.1267921
PAST SALE,,Condo/Co-op,397 Normandy I,Delray Beach,FL,33484,210000,2,2.0,,907,,1979,,232,,,,,https://www.redfin.com/FL/Delray-Beach/397-Normandy-I-33484/home/42230732,,,N,Y,26.446145,-80.14227
PAST SALE,December-30-2022,Condo/Co-op,4101 N Ocean Blvd #807,Boca Raton,FL,33431,995000,2,2.0,Sea Ranch Club of Boca,1697,,1990,,586,1400,Sold,,,https://www.redfin.com/FL/Boca-Raton/4101-N-Ocean-Blvd-33431/unit-807/home/42314908,Beaches MLS,RX-10846979,N,Y,26.3880154,-80.0695641
