SALE TYPE,SOLD DATE,PROPERTY TYPE,ADDRESS,CITY,STATE OR PROVINCE,ZIP OR POSTAL CODE,PRICE,BEDS,BATHS,LOCATION,SQUARE FEET,LOT SIZE,YEAR BUILT,DAYS ON MARKET,$/SQUARE FEET,HOA/MONTH,STATUS,NEXT OPEN HOUSE START TIME,NEXT OPEN HOUSE END TIME,URL (SEE https://www.redfin.com/buy-a-home/comparative-market-analysis FOR INFO ON PRICING),SOURCE,MLS#,FAVORITE,INTERESTED,LATITUDE,LONGITUDE
PAST SALE,May-1-2023,Condo/Co-op,561 W Briar Pl #304,Chicago,IL,60657,450000,2,2.5,CHI - Lake View,,,1915,,,421,Sold,,,https://www.redfin.com/IL/Chicago/561-W-Briar-Pl-60657/unit-304/home/12613490,MRED,11772488,N,Y,41.9386019,-87.644032
PAST SALE,March-16-2023,Condo/Co-op,1040 W Adams St #437,Chicago,IL,60607,325000,1,1.0,Number 10 Lofts,900,,1913,,361,526,Sold,,,https://www.redfin.com/IL/Chicago/1040-W-Adams-St-60607/unit-437/home/26817640,MRED,11705906,N,Y,41.87924,-87.653728
PAST SALE,April-3-2023,Condo/Co-op,1720 N Hidden Creek Cir #6,Palatine,IL,60074,220000,3,2.0,Palatine,1156,,1980,,190,368,Sold,,,https://www.redfin.com/IL/Palatine/1720-N-Hidden-Creek-Cir-60074/unit-6/home/13898817,MRED,11731291,N,Y,42.1436255,-88.0127219
PAST SALE,March-24-2023,Condo/Co-op,5275 Diamond Dr Unit A,Oak Forest,IL,60452,208000,2,1.5,Diamonds of Oak Forest,1261,,1996,,165,260,Sold,,,https://www.redfin.com/IL/Oak-Forest/5275-Diamond-Dr-60452/unit-A/home/12802150,MRED,11711911,N,Y,41.6117284,-87.74916
PAST SALE,April-3-2023,Condo/Co-op,1550 N Oakley Blvd Unit 2-3,Chicago,IL,60622,825000,3,3.0,CHI - West Town,2400,,1892,,344,435,Sold,,,https://www.redfin.com/IL/Chicago/1550-N-Oakley-Blvd-60622/unit-2-3/home/105514858,MRED,11726449,N,Y,41.9101249,-87.6849111
PAST SALE,April-12-2023,Condo/Co-op,3505 N Janssen Ave #1,Chicago,IL,60657,370000,2,2.0,CHI - Lake View,,,1921,,,158,Sold,,,https://www.redfin.com/IL/Chicago/3505-N-Janssen-Ave-60657/unit-1/home/26808534,MRED,11724384,N,Y,41.9454391,-87.6648758
PAST SALE,February-22-2023,Condo/Co-op,1414 N Wells St #212,Chicago,IL,60610,407500,1,1.0,CHI - Near North Side,,,1995,,,538,Sold,,,https://www.redfin.com/IL/Chicago/1414-N-Wells-St-60610/unit-212/home/14115603,MRED,11719516,N,Y,41.9081697,-87.6349094
PAST SALE,April-28-2023,Condo/Co-op,2451 N Clybourn Ave #12,Chicago,IL,60614,520000,3,3.0,CHI - Lincoln Park,,,2001,,,417,Sold,,,https://www.redfin.com/IL/Chicago/2451-N-Clybourn-Ave-60614/unit-12/home/12772182,MRED,11679663,N,Y,41.9266748,-87.670572
PAST SALE,April-28-2023,Condo/Co-op,5455 N Sheridan Rd #1109,Chicago,IL,60640,90000,0,1.0,CHI - Edgewater,,,1967,,,433,Sold,,,https://www.redfin.com/IL/Chicago/5455-N-Sheridan-Rd-60640/unit-1109/home/13400200,MRED,11761859,N,Y,41.9816886,-87.6547103
PAST SALE,May-11-2023,Condo/Co-op,2700 N Halsted St Ph 3,Chicago,IL,60614,365000,1,1.0,CHI - Lincoln Park,900,,2002,,406,410,Sold,,,https://www.redfin.com/IL/Chicago/2700-N-Halsted-St-60614/unit-3/home/12633994,MRED,11744004,N,Y,41.931427,-87.6493093
PAST SALE,April-28-2023,Condo/Co-op,1301 W Madison St #408,Chicago,IL,60607,540000,2,2.0,CHI - Near West Side,1400,,1997,,386,464,Sold,,,https://www.redfin.com/IL/Chicago/1301-W-Madison-St-60607/unit-408/home/12724523,MRED,11720374,N,Y,41.8812593,-87.6603468
PAST SALE,March-3-2023,Condo/Co-op,3801 Mission Hills Rd Unit E-307,Northbrook,IL,60062,240000,2,2.0,Mission Hills,1348,,1976,,178,650,Sold,,,https://www.redfin.com/IL/Northbrook/3801-Mission-Hills-Rd-60062/unit-E-307/home/182520337,MRED,11723005,N,Y,42.1225779,-87.8733107
PAST SALE,March-29-2023,Condo/Co-op,9301 Montgomery Dr #153,Orland Park,IL,60462,205000,2,1.0,Orland Park,1200,,1987,,171,305,Sold,,,https://www.redfin.com/IL/Orland-Park/9301-Montgomery-Dr-60462/unit-153/home/13022135,MRED,11739938,N,Y,41.6202122,-87.8427645
PAST SALE,,Condo/Co-op,1226 W Sunnyside Ave Unit 3E,Chicago,IL,60640,265000,,,,,,,,,,,,,https://www.redfin.com/IL/Chicago/1226-W-Sunnyside-Ave-60640/unit-3E/home/12806539,,,N,Y,41.9636659,-87.66071
PAST SALE,March-13-2023,Condo/Co-op,3257 N Seminary Ave Unit B,Chicago,IL,60657,589000,3,2.5,CHI - Lake View,,,1988,,,135,Sold,,,https://www.redfin.com/IL/Chicago/3257-N-Seminary-Ave-60657/unit-B/home/13379762,MRED,11707781,N,Y,41.9414995,-87.656225
PAST SALE,May-3-2023,Condo/Co-op,1645 W School St #313,Chicago,IL,60657,427000,2,2.0,CHI - Lake View,1200,,1944,,356,422,Sold,,,https://www.redfin.com/IL/Chicago/1645-W-School-St-60657/unit-313/home/12773951,MRED,11757351,N,Y,41.9412632,-87.6702067
PAST SALE,March-17-2023,Condo/Co-op,601 E 32nd St #1111,Chicago,IL,60616,192000,2,2.0,Lake Meadows,1500,,1961,,128,1437,Sold,,,https://www.redfin.com/IL/Chicago/601-E-32nd-St-60616/unit-1111/home/12786424,MRED,11724266,N,Y,41.835716,-87.6116155
PAST SALE,March-31-2023,Condo/Co-op,2128 N Hudson Ave #402,Chicago,IL,60614,385000,2,2.0,CHI - Lincoln Park,,,1932,,,360,Sold,,,https://www.redfin.com/IL/Chicago/2128-N-Hudson-Ave-60614/unit-402/home/12636363,MRED,11737013,N,Y,41.9210306,-87.6403554
PAST SALE,April-27-2023,Condo/Co-op,4406 W 55th St #1,Chicago,IL,60632,124500,2,1.0,CHI - West Elsdon,,,1963,,,257,Sold,,,https://www.redfin.com/IL/Chicago/4406-W-55th-St-60632/unit-1/home/26823398,MRED,11753250,N,Y,41.7933446,-87.7333832
PAST SALE,May-10-2023,Condo/Co-op,6441 W Warner Ave #504,Chicago,IL,60634,265000,2,1.0,Glenlake,1200,,1996,,221,364,Sold,,,https://www.redfin.com/IL/Chicago/6441-W-Warner-Ave-60634/unit-504/home/12795124,MRED,11748300,N,Y,41.955914,-87.788292
PAST SALE,May-1-2023,Condo/Co-op,708 W Barry Ave Unit 2F,Chicago,IL,60657,510000,2,2.0,CHI - Lake View,,,2005,,,389,Sold,,,https://www.redfin.com/IL/Chicago/708-W-Barry-Ave-60657/unit-2F/home/12604918,MRED,11748240,N,Y,41.938202,-87.647238
PAST SALE,May-2-2023,Condo/Co-op,165 N Kenilworth Ave Unit 5H,Oak Park,IL,60301,274900,3,2.0,Oak Park,1536,,1966,,179,814,Sold,,,https://www.redfin.com/IL/Oak-Park/165-N-Kenilworth-Ave-60301/unit-5H/home/13272373,MRED,11752678,N,Y,41.8893868,-87.7979569
PAST SALE,April-10-2023,Condo/Co-op,200 S Dee Rd Unit 2J,Park Ridge,IL,60068,216000,2,2.0,Chelsey Square,1450,,1975,,149,330,Sold,,,https://www.redfin.com/IL/Park-Ridge/200-S-Dee-Rd-60068/unit-2J/home/13641239,MRED,11737084,N,Y,42.007881,-87.8558195
PAST SALE,April-28-2023,Condo/Co-op,7201 N Lincoln Ave #201,Lincolnwood,IL,60712,285000,3,2.0,Lincolnwood,1705,,1980,,167,899,Sold,,,https://www.redfin.com/IL/Lincolnwood/7201-N-Lincoln-Ave-60712/unit-201/home/13599228,MRED,11741127,N,Y,42.0123479,-87.7389289
PAST SALE,March-27-2023,Condo/Co-op,20 N Carpenter St Unit 3N,Chicago,IL,60607,912511,3,3.0,CHI - Near West Side,,,2011,,,536,Sold,,,https://www.redfin.com/IL/Chicago/20-N-Carpenter-St-60607/unit-3N/home/64225146,MRED,11724738,N,Y,41.882267,-87.653792
PAST SALE,April-28-2023,Condo/Co-op,3300 N Lakewood Ave #3,Chicago,IL,60657,677500,2,2.0,CHI - Lake View,2000,,1996,,339,300,Sold,,,https://www.redfin.com/IL/Chicago/3300-N-Lakewood-Ave-60657/unit-3/home/13381641,MRED,11742756,N,Y,41.9417251,-87.6617446
PAST SALE,May-1-2023,Condo/Co-op,3300 N Carriageway Dr #415,Arlington Heights,IL,60004,200000,2,2.0,Frenchmens Cove,1200,,1975,,167,394,Sold,,,https://www.redfin.com/IL/Arlington-Heights/3300-N-Carriageway-Dr-60004/unit-415/home/13858224,MRED,11745927,N,Y,42.135733,-87.9717573
PAST SALE,April-13-2023,Condo/Co-op,1205 E Hintz Rd #304,Arlington Heights,IL,60004,140000,1,1.0,Arlington Heights,800,,1970,,175,353,Sold,,,https://www.redfin.com/IL/Arlington-Heights/1205-E-Hintz-Rd-60004/unit-304/home/13849409,MRED,11722752,N,Y,42.124015,-87.9674777
PAST SALE,April-5-2023,Condo/Co-op,1928 N Kedzie Ave #102,Chicago,IL,60647,340000,2,2.0,CHI - Logan Square,1200,,2004,,283,350,Sold,,,https://www.redfin.com/IL/Chicago/1928-N-Kedzie-Ave-60647/unit-102/home/12653111,MRED,11716630,N,Y,41.9164726,-87.7073212
PAST SALE,March-15-2023,Condo/Co-op,343 W Old Town Ct #401,Chicago,IL,60610,530000,2,2.0,CHI - Near North Side,1400,,2002,,379,561,Sold,,,https://www.redfin.com/IL/Chicago/343-W-Old-Town-Ct-60610/unit-401/home/12658666,MRED,11713524,N,Y,41.9040428,-87.6376947
PAST SALE,March-29-2023,Condo/Co-op,11003 Stony Creek Dr Unit 2A,Palos Hills,IL,60465,199900,2,2.0,Heritage Creek,1100,,1992,,182,248,Sold,,,https://www.redfin.com/IL/Palos-Hills/11003-Stony-Creek-Dr-60465/unit-2A/home/13198399,MRED,11722974,N,Y,41.6920183,-87.8227755
PAST SALE,March-29-2023,Condo/Co-op,3110 N Sheridan Rd #902,Chicago,IL,60657,197500,1,1.0,CHI - Lake View,,,1964,,,645,Sold,,,https://www.redfin.com/IL/Chicago/3110-N-Sheridan-Rd-60657/unit-902/home/13373303,MRED,11719731,N,Y,41.9383046,-87.6398248
PAST SALE,April-25-2023,Condo/Co-op,2781 Green Bridge Ct Unit E2781,Schaumburg,IL,60194,346000,2,2.5,Town Place,1800,,1990,,192,338,Sold,,,https://www.redfin.com/IL/Schaumburg/2781-Green-Bridge-Ct-60194/unit-E2781/home/185224152,MRED,11744392,N,Y,42.0291417,-88.1433722
PAST SALE,May-2-2023,Condo/Co-op,1250 S Michigan Ave #1101,Chicago,IL,60605,428000,2,2.0,CHI - Near South Side,1298,,2005,,330,744,Sold,,,https://www.redfin.com/IL/Chicago/1250-S-Michigan-Ave-60605/unit-1101/home/18946568,MRED,11734202,N,Y,41.8659823,-87.6243183
PAST SALE,March-13-2023,Condo/Co-op,2356 N Elston Ct #405,Chicago,IL,60614,312000,2,2.0,Midtown View,,,1999,,,322,Sold,,,https://www.redfin.com/IL/Chicago/2356-N-Elston-Ct-60614/unit-405/home/12576777,MRED,11714354,N,Y,41.9244964,-87.6768739
PAST SALE,April-26-2023,Condo/Co-op,400 S Green St #201,Chicago,IL,60607,330000,1,1.0,Green Street Lofts,1400,,1880,,236,361,Sold,,,https://www.redfin.com/IL/Chicago/400-S-Green-St-60607/unit-201/home/14089924,MRED,11736858,N,Y,41.8762807,-87.64855
PAST SALE,February-21-2023,Condo/Co-op,6864 N Northwest Hwy Unit 3A,Chicago,IL,60631,200000,2,1.0,Friendly Village,1100,,1968,,182,355,Sold,,,https://www.redfin.com/IL/Chicago/6864-N-Northwest-Hwy-60631/unit-3A/home/13637538,MRED,11706217,N,Y,42.0054867,-87.8210082
PAST SALE,April-7-2023,Condo/Co-op,3046 N California Ave #200,Chicago,IL,60618,465000,2,2.0,CHI - Avondale,1300,,2019,,358,239,Sold,,,https://www.redfin.com/IL/Chicago/3046-N-California-Ave-60618/unit-200/home/148441859,MRED,11729463,N,Y,41.9371472,-87.6980498
PAST SALE,April-14-2023,Condo/Co-op,4742 N Kenmore Ave #1,Chicago,IL,60640,624000,3,3.5,CHI - Uptown,2400,,1908,,260,392,Sold,,,https://www.redfin.com/IL/Chicago/4742-N-Kenmore-Ave-60640/unit-1/home/12621862,MRED,11706947,N,Y,41.9685078,-87.6566361
PAST SALE,May-3-2023,Condo/Co-op,116 S Bell Ave #4,Chicago,IL,60612,305000,2,2.0,CHI - Near West Side,,,2006,,,231,Sold,,,https://www.redfin.com/IL/Chicago/116-S-Bell-Ave-60612/unit-4/home/12640373,MRED,11743694,N,Y,41.8793804,-87.6831067
PAST SALE,April-21-2023,Condo/Co-op,8005 Oconnor Dr Unit 3F,River Grove,IL,60171,230000,2,1.5,Grove Towers One,1200,,1973,,192,281,Sold,,,https://www.redfin.com/IL/River-Grove/8005-Oconnor-Dr-60171/unit-3F/home/13536410,MRED,11736247,N,Y,41.9341278,-87.8264061
PAST SALE,March-23-2023,Condo/Co-op,899 S Plymouth Ct #1806,Chicago,IL,60605,177000,1,1.0,CHI - Loop,775,,1980,,228,665,Sold,,,https://www.redfin.com/IL/Chicago/899-S-Plymouth-Ct-60605/unit-1806/home/14090907,MRED,11707641,N,Y,41.8708159,-87.6282752
PAST SALE,February-21-2023,Condo/Co-op,1407 W Rascher Ave #1,Chicago,IL,60640,335000,2,1.0,CHI - Edgewater,,,1915,,,274,Sold,,,https://www.redfin.com/IL/Chicago/1407-W-Rascher-Ave-60640/unit-1/home/12652834,MRED,11700863,N,Y,41.9806392,-87.6652279
PAST SALE,March-10-2023,Condo/Co-op,909 W Roscoe St #2,Chicago,IL,60657,495000,2,2.0,CHI - Lake View,1200,,1999,,413,144,Sold,,,https://www.redfin.com/IL/Chicago/909-W-Roscoe-St-60657/unit-2/home/12772619,MRED,11705456,N,Y,41.9433251,-87.6522562
PAST SALE,April-19-2023,Condo/Co-op,710 Creekside Dr #309,Mount Prospect,IL,60056,290000,2,2.0,Creekside,1443,,1996,,201,428,Sold,,,https://www.redfin.com/IL/Mt-Prospect/710-Creekside-Dr-60056/unit-309/home/184721659,MRED,11738437,N,Y,42.088524,-87.9439763
PAST SALE,May-5-2023,Condo/Co-op,9500 Dee Rd Unit 1B,Des Plaines,IL,60016,145000,3,1.0,Coventry Place,900,,1972,,161,245,Sold,,,https://www.redfin.com/IL/Des-Plaines/9500-Dee-Rd-60016/unit-1B/home/184836905,MRED,11745967,N,Y,42.052001,-87.8560114
PAST SALE,May-8-2023,Condo/Co-op,226 N Clinton St #708,Chicago,IL,60661,258000,1,1.0,Clinton Street Lofts,,,1996,,,413,Sold,,,https://www.redfin.com/IL/Chicago/226-N-Clinton-St-60661/unit-708/home/12787620,MRED,11724257,N,Y,41.8862901,-87.6417042
PAST SALE,March-21-2023,Condo/Co-op,151 Peter Ct Unit C,Bartlett,IL,60103,175500,2,1.5,Bartlett,1200,,1976,,146,150,Sold,,,https://www.redfin.com/IL/Bartlett/151-Peter-Ct-60103/unit-C/home/13750877,MRED,11687803,N,Y,41.9926253,-88.1762804
PAST SALE,March-3-2023,Condo/Co-op,1252 W Diversey Pkwy #3,Chicago,IL,60614,450000,2,2.0,CHI - Lake View,,,1885,,,381,Sold,,,https://www.redfin.com/IL/Chicago/1252-W-Diversey-Pkwy-60614/unit-3/home/26808887,MRED,11638618,N,Y,41.9327051,-87.6608103
PAST SALE,March-2-2023,Condo/Co-op,1130 W Cornelia Ave Unit M,Chicago,IL,60657,415000,2,2.0,CHI - Lake View,1200,,1949,,346,362,Sold,,,https://www.redfin.com/IL/Chicago/1130-W-Cornelia-Ave-60657/unit-M/home/22955334,MRED,11704547,N,Y,41.9454564,-87.6580141
PAST SALE,April-6-2023,Condo/Co-op,1350 W Elmdale Ave #3,Chicago,IL,60660,430000,2,1.0,Edgewater Glen,,,,,,350,Sold,,,https://www.redfin.com/IL/Chicago/1350-W-Elmdale-Ave-60660/unit-3/home/13414331,MRED,11728550,N,Y,41.9911276,-87.6647671
PAST SALE,April-4-2023,Condo/Co-op,1010 N Marshfield Ave #2,Chicago,IL,60622,505000,2,2.0,CHI - West Town,1300,,2009,,388,167,Sold,,,https://www.redfin.com/IL/Chicago/1010-N-Marshfield-Ave-60622/unit-2/home/40376843,MRED,11723870,N,Y,41.9001163,-87.6689124
PAST SALE,May-9-2023,Condo/Co-op,10820 Kilpatrick Ave Unit 3SW,Oak Lawn,IL,60453,123000,2,1.0,Oak Lawn,841,,1994,,146,210,Sold,,,https://www.redfin.com/IL/Oak-Lawn/10820-Kilpatrick-Ave-60453/unit-3SW/home/185309733,MRED,11745999,N,Y,41.6956401,-87.7377666
PAST SALE,February-28-2023,Condo/Co-op,440 N Wabash Ave #3707,Chicago,IL,60611,230000,1,1.0,CHI - Near North Side,683,,1989,,337,522,Sold,,,https://www.redfin.com/IL/Chicago/440-N-Wabash-Ave-60611/unit-3707/home/12612471,MRED,11704004,N,Y,41.8903711,-87.6269739
PAST SALE,April-21-2023,Condo/Co-op,110 Red Fox Ln Unit D6,Elk Grove Village,IL,60007,210000,2,1.0,Elk Grove Village,903,,1989,,233,263,Sold,,,https://www.redfin.com/IL/Elk-Grove-Village/110-Red-Fox-Ln-60007/unit-D6/home/13722868,MRED,11731181,N,Y,42.0199504,-88.0587324
PAST SALE,March-15-2023,Condo/Co-op,933 W Van Buren St #324,Chicago,IL,60607,275000,1,1.0,CHI - Near West Side,800,,2001,,344,360,Sold,,,https://www.redfin.com/IL/Chicago/933-W-Van-Buren-St-60607/unit-324/home/12686933,MRED,11704448,N,Y,41.876095,-87.6512596
PAST SALE,April-17-2023,Condo/Co-op,4911 N Lincoln Ave #3,Chicago,IL,60625,375000,2,2.0,CHI - Lincoln Square,,,2005,,,235,Sold,,,https://www.redfin.com/IL/Chicago/4911-N-Lincoln-Ave-60625/unit-3/home/12613655,MRED,11737077,N,Y,41.9712941,-87.6898916
PAST SALE,March-23-2023,Condo/Co-op,1518 W Addison St #2,Chicago,IL,60613,349900,2,1.0,CHI - Lake View,,,1921,,,225,Sold,,,https://www.redfin.com/IL/Chicago/1518-W-Addison-St-60613/unit-2/home/12617851,MRED,11717948,N,Y,41.9471856,-87.6673324
PAST SALE,May-2-2023,Condo/Co-op,2108 W Erie St Unit 2W,Chicago,IL,60612,402500,2,2.0,CHI - West Town,,,1996,,,167,Sold,,,https://www.redfin.com/IL/Chicago/2108-W-Erie-St-60612/unit-2W/home/12789283,MRED,11740917,N,Y,41.8933633,-87.6797932
PAST SALE,April-28-2023,Condo/Co-op,4655 N Cumberland Ave #514,Norridge,IL,60706,310000,2,2.0,Terrace Point Condos,,,1996,,,297,Sold,,,https://www.redfin.com/IL/Norridge/4655-N-Cumberland-Ave-60706/unit-514/home/12776656,MRED,11734117,N,Y,41.9640452,-87.8357036
PAST SALE,May-9-2023,Condo/Co-op,720 W Gordon Ter Unit 20C,Chicago,IL,60613,290000,2,2.0,CHI - Uptown,1150,,1966,,252,870,Sold,,,https://www.redfin.com/IL/Chicago/720-W-Gordon-Ter-60613/unit-20C/home/13396997,MRED,11741122,N,Y,41.9582919,-87.6485882
PAST SALE,March-3-2023,Condo/Co-op,140 N Euclid Ave #505,Oak Park,IL,60302,360000,2,2.0,Oak Park,1400,,2000,,257,480,Sold,,,https://www.redfin.com/IL/Oak-Park/140-N-Euclid-Ave-60302/unit-505/home/12698447,MRED,11706418,N,Y,41.888804,-87.792238
PAST SALE,March-24-2023,Condo/Co-op,565 W Quincy St #717,Chicago,IL,60661,390000,2,2.0,CHI - Near West Side,1132,,2009,,345,718,Sold,,,https://www.redfin.com/IL/Chicago/565-W-Quincy-St-60661/unit-717/home/28471158,MRED,11715126,N,Y,41.8784947,-87.6422376
PAST SALE,April-28-2023,Condo/Co-op,2503 W Harrison St #4,Chicago,IL,60612,290000,2,2.0,CHI - Near West Side,1350,,2003,,215,150,Sold,,,https://www.redfin.com/IL/Chicago/2503-W-Harrison-St-60612/unit-4/home/12624678,MRED,11742562,N,Y,41.8736281,-87.6889138
PAST SALE,February-17-2023,Condo/Co-op,1000 N Kingsbury St #503,Chicago,IL,60610,285000,1,1.0,CHI - Near North Side,800,,2003,,356,274,Sold,,,https://www.redfin.com/IL/Chicago/1000-N-Kingsbury-St-60610/unit-503/home/12673867,MRED,11694413,N,Y,41.8996501,-87.6450575
PAST SALE,February-28-2023,Condo/Co-op,2637 W Lawrence Ave Unit 3D,Chicago,IL,60625,403000,2,2.0,CHI - Lincoln Square,,,2006,,,329,Sold,,,https://www.redfin.com/IL/Chicago/2637-W-Lawrence-Ave-60625/unit-3D/home/18943454,MRED,11697810,N,Y,41.9683137,-87.6953637
PAST SALE,April-5-2023,Condo/Co-op,1841 N Lawndale Ave Unit 1E,Chicago,IL,60647,209900,2,1.0,CHI - Logan Square,,,1901,,,285,Sold,,,https://www.redfin.com/IL/Chicago/1841-N-Lawndale-Ave-60647/unit-1E/home/18909788,MRED,11725477,N,Y,41.9148999,-87.7188377
PAST SALE,May-2-2023,Condo/Co-op,13 Saint Moritz Dr #201,Palos Park,IL,60464,260000,2,2.0,Palos Park,1888,,1997,,138,260,Sold,,,https://www.redfin.com/IL/Palos-Park/13-Saint-Moritz-Dr-60464/unit-201/home/12817057,MRED,11745036,N,Y,41.6773944,-87.8166315
PAST SALE,April-10-2023,Condo/Co-op,2150 W Dickens Ave #2,Chicago,IL,60647,375000,1,1.5,CHI - Logan Square,1000,,1918,,375,130,Sold,,,https://www.redfin.com/IL/Chicago/2150-W-Dickens-Ave-60647/unit-2/home/26794021,MRED,11719582,N,Y,41.9192778,-87.6821056
PAST SALE,March-14-2023,Condo/Co-op,7120 W 108th St Unit 1E,Worth,IL,60482,210000,3,2.0,Worth,1292,,2004,,163,200,Sold,,,https://www.redfin.com/IL/Worth/7120-W-108th-St-60482/unit-1E/home/12606557,MRED,11709609,N,Y,41.69594,-87.7968384
PAST SALE,April-14-2023,Condo/Co-op,801 W Bradley Pl Unit G,Chicago,IL,60613,240000,2,2.0,CHI - Lake View,1000,,,,240,241,Sold,,,https://www.redfin.com/IL/Chicago/801-W-Bradley-Pl-60613/unit-G/home/40377954,MRED,11725117,N,Y,41.9499513,-87.649907
PAST SALE,March-15-2023,Condo/Co-op,3106 W Leland Ave #304,Chicago,IL,60625,355000,3,2.0,CHI - Albany Park,1450,,1913,,245,333,Sold,,,https://www.redfin.com/IL/Chicago/3106-W-Leland-Ave-60625/unit-304/home/26804776,MRED,11711785,N,Y,41.9668077,-87.7064111
PAST SALE,April-24-2023,Condo/Co-op,2628 N Spaulding Ave #1,Chicago,IL,60647,360000,2,2.0,CHI - Logan Square,1300,,1916,,277,295,Sold,,,https://www.redfin.com/IL/Chicago/2628-N-Spaulding-Ave-60647/unit-1/home/12577455,MRED,11726491,N,Y,41.9291838,-87.7111774
PAST SALE,,Condo/Co-op,303 W Ohio St #2001,Chicago,IL,60654,550000,,,,,,,,,,,,,https://www.redfin.com/IL/Chicago/303-W-Ohio-St-60654/unit-2001/home/40367730,,,N,Y,41.8922533,-87.6359211
PAST SALE,March-22-2023,Condo/Co-op,1235 S Prairie Ave #704,Chicago,IL,60605,630000,2,2.0,CHI - Near South Side,1516,,2006,,416,725,Sold,,,https://www.redfin.com/IL/Chicago/1235-S-Prairie-Ave-60605/unit-704/home/18927876,MRED,11711486,N,Y,41.8661749,-87.6213375
PAST SALE,March-13-2023,Condo/Co-op,1114 W Pratt Blvd Unit 3S,Chicago,IL,60626,350000,2,2.0,CHI - Rogers Park,,,1911,,,481,Sold,,,https://www.redfin.com/IL/Chicago/1114-W-Pratt-Blvd-60626/unit-3S/home/18929585,MRED,11700855,N,Y,42.005863,-87.659142
PAST SALE,April-13-2023,Condo/Co-op,11269 Moraine Dr Unit C,Palos Hills,IL,60465,189000,2,2.0,Palos Hills,,,1984,,,150,Sold,,,https://www.redfin.com/IL/Palos-Hills/11269-Moraine-Dr-60465/unit-C/home/13195758,MRED,11726401,N,Y,41.6864448,-87.8152811
PAST SALE,May-10-2023,Condo/Co-op,1409 W Rascher Ave Unit G,Chicago,IL,60640,259000,2,2.0,CHI - Edgewater,,,1910,,,224,Sold,,,https://www.redfin.com/IL/Chicago/1409-W-Rascher-Ave-60640/unit-G/home/12661294,MRED,11746515,N,Y,41.9806392,-87.6652279
PAST SALE,February-24-2023,Condo/Co-op,1508 N Kendall Ct,Arlington Heights,IL,60004,335000,3,2.5,Arlington Heights,2269,,1989,,148,364,Sold,,,https://www.redfin.com/IL/Arlington-Heights/1508-N-Kendal-Ct-60004/home/13844003,MRED,11699188,N,Y,42.102986,-87.963069
PAST SALE,May-10-2023,Condo/Co-op,830 Knottingham Dr Unit 2B,Schaumburg,IL,60193,246000,2,2.0,Kingsport Estates,1193,,1985,,206,279,Sold,,,https://www.redfin.com/IL/Schaumburg/830-Knottingham-Dr-60193/unit-2B/home/12686818,MRED,11746662,N,Y,42.0058263,-88.0583491
PAST SALE,March-24-2023,Condo/Co-op,932 W George St #3,Chicago,IL,60657,450000,2,2.0,CHI - Lake View,,,1996,,,195,Sold,,,https://www.redfin.com/IL/Chicago/932-W-George-St-60657/unit-3/home/13362961,MRED,11716035,N,Y,41.934697,-87.6528898
PAST SALE,March-10-2023,Condo/Co-op,525 W Hawthorne Pl #2206,Chicago,IL,60657,217500,1,1.0,CHI - Lake View,880,,1969,,247,533,Sold,,,https://www.redfin.com/IL/Chicago/525-W-Hawthorne-Pl-60657/unit-2206/home/39927462,MRED,11695148,N,Y,41.9442213,-87.642196
PAST SALE,March-7-2023,Condo/Co-op,1138 W Pratt Blvd Unit 2S,Chicago,IL,60626,269000,2,2.0,CHI - Rogers Park,1000,,1914,,269,391,Sold,,,https://www.redfin.com/IL/Chicago/1138-W-Pratt-Blvd-60626/unit-2S/home/26803218,MRED,11694181,N,Y,42.006091,-87.660203
PAST SALE,May-11-2023,Condo/Co-op,4050 N Lincoln Ave #305,Chicago,IL,60618,305000,1,1.0,CHI - North Center,940,,2000,,324,323,Sold,,,https://www.redfin.com/IL/Chicago/4050-N-Lincoln-Ave-60618/unit-305/home/12743635,MRED,11743544,N,Y,41.9554399,-87.6799595
PAST SALE,March-31-2023,Condo/Co-op,1622 N Mozart St Unit 1N,Chicago,IL,60647,465000,3,3.0,CHI - West Town,2200,,2003,,211,232,Sold,,,https://www.redfin.com/IL/Chicago/1622-N-Mozart-St-60647/unit-1N/home/12602442,MRED,11719636,N,Y,41.9109693,-87.6983077
PAST SALE,March-9-2023,Condo/Co-op,3180 N Lake Shore Dr Unit 13A,Chicago,IL,60657,645000,4,2.5,CHI - Lake View,1800,,1958,,358,1532,Sold,,,https://www.redfin.com/IL/Chicago/3180-N-Lake-Shore-Dr-60657/unit-13A/home/13371118,MRED,11704463,N,Y,41.9395482,-87.6392278
PAST SALE,May-5-2023,Condo/Co-op,4616 N Kenmore Ave #304,Chicago,IL,60640,368000,2,2.0,CHI - Uptown,1250,,2007,,294,286,Sold,,,https://www.redfin.com/IL/Chicago/4616-N-Kenmore-Ave-60640/unit-304/home/18926885,MRED,11741119,N,Y,41.9660868,-87.6565379
PAST SALE,May-2-2023,Condo/Co-op,1718 W Julian St Unit 2S,Chicago,IL,60622,900000,3,2.5,CHI - West Town,,,2017,,,292,Sold,,,https://www.redfin.com/IL/Chicago/1718-W-Julian-St-60622/unit-2S/home/144730366,MRED,11727344,N,Y,41.9084908,-87.6709235
PAST SALE,May-8-2023,Condo/Co-op,3531 W Shakespeare Ave #1,Chicago,IL,60647,305000,2,2.0,CHI - Logan Square,1100,,1927,,277,219,Sold,,,https://www.redfin.com/IL/Chicago/3531-W-Shakespeare-Ave-60647/unit-1/home/26806549,MRED,11744751,N,Y,41.9197941,-87.7148676
PAST SALE,April-24-2023,Condo/Co-op,6443 N Northwest Hwy Unit A-6,Chicago,IL,60631,238000,2,2.0,CHI - Edison Park,1100,,1967,,216,220,Sold,,,https://www.redfin.com/IL/Chicago/6443-N-Northwest-Hwy-60631/unit-A-6/home/13636144,MRED,11726656,N,Y,41.9980015,-87.8077605
PAST SALE,April-10-2023,Condo/Co-op,1463 W Cuyler Ave #2,Chicago,IL,60613,422500,2,2.0,CHI - Lake View,,,1894,,,230,Sold,,,https://www.redfin.com/IL/Chicago/1463-W-Cuyler-Ave-60613/unit-2/home/12600319,MRED,11720161,N,Y,41.9549885,-87.6667662
PAST SALE,May-3-2023,Condo/Co-op,3353 W Wilson Ave Unit 3R,Chicago,IL,60625,219000,2,1.0,CHI - Albany Park,,,1915,,,200,Sold,,,https://www.redfin.com/IL/Chicago/3353-W-Wilson-Ave-60625/unit-3R/home/12701997,MRED,11737342,N,Y,41.96453,-87.7128027
PAST SALE,April-13-2023,Condo/Co-op,8 W Monroe St #1208,Chicago,IL,60603,307500,2,2.0,Metropolis Condominiums,1100,,1913,,280,851,Sold,,,https://www.redfin.com/IL/Chicago/8-W-Monroe-St-60603/unit-1208/home/39568504,MRED,11722877,N,Y,41.8808597,-87.6283136
PAST SALE,March-27-2023,Condo/Co-op,5415 N Sheridan Rd #2004,Chicago,IL,60640,200000,1,1.0,CHI - Edgewater,835,,1974,,240,726,Sold,,,https://www.redfin.com/IL/Chicago/5415-N-Sheridan-Rd-60640/unit-2004/home/184082928,MRED,11711168,N,Y,41.9801211,-87.6543366
PAST SALE,March-10-2023,Condo/Co-op,939 W Madison St #210,Chicago,IL,60607,482500,2,2.0,CHI - Near West Side,1500,,1996,,322,536,Sold,,,https://www.redfin.com/IL/Chicago/939-W-Madison-St-60607/unit-210/home/12735168,MRED,11690213,N,Y,41.8814625,-87.6511752
PAST SALE,May-5-2023,Condo/Co-op,832 W Oakdale Ave Unit 1D,Chicago,IL,60657,303000,2,1.0,CHI - Lake View,,,1974,,,397,Sold,,,https://www.redfin.com/IL/Chicago/832-W-Oakdale-Ave-60657/unit-1D/home/13364157,MRED,11728896,N,Y,41.9356384,-87.6505256
PAST SALE,March-6-2023,Condo/Co-op,40 E 9th St #718,Chicago,IL,60605,195000,1,1.0,CHI - Loop,910,,1998,,214,672,Sold,,,https://www.redfin.com/IL/Chicago/40-E-9th-St-60605/unit-718/home/12633439,MRED,11700066,N,Y,41.8707125,-87.6262581
PAST SALE,April-19-2023,Condo/Co-op,1910 S State St #328,Chicago,IL,60616,330000,2,2.0,CHI - Near South Side,1188,,2004,,278,570,Sold,,,https://www.redfin.com/IL/Chicago/1910-S-State-St-60616/unit-328/home/104311316,MRED,11714161,N,Y,41.8559148,-87.6279636
PAST SALE,May-9-2023,Condo/Co-op,632 N Racine Ave Unit 2S,Chicago,IL,60642,427500,2,2.0,CHI - West Town,,,2001,,,210,Sold,,,https://www.redfin.com/IL/Chicago/632-N-Racine-Ave-60642/unit-2S/home/12707631,MRED,11717815,N,Y,41.8931969,-87.657642
PAST SALE,March-31-2023,Condo/Co-op,1150 N Lake Shore Dr Unit 7J,Chicago,IL,60611,165900,0,1.0,CHI - Near North Side,650,,1958,,255,544,Sold,,,https://www.redfin.com/IL/Chicago/1150-N-Lake-Shore-Dr-60611/unit-7J/home/14123760,MRED,11711967,N,Y,41.9035898,-87.6253846
PAST SALE,March-22-2023,Condo/Co-op,1947 W Fletcher St,Chicago,IL,60657,612600,3,2.0,CHI - North Center,,,2006,,,315,Sold,,,https://www.redfin.com/IL/Chicago/1947-W-Fletcher-St-60657/Ph/home/26780237,MRED,11704755,N,Y,41.9385185,-87.6779643
PAST SALE,March-31-2023,Condo/Co-op,226 N Clinton St #225,Chicago,IL,60661,298500,1,1.0,Clinton Street Lofts,760,,1978,,393,408,Sold,,,https://www.redfin.com/IL/Chicago/226-N-Clinton-St-60661/unit-225/home/12787630,MRED,11713796,N,Y,41.8862901,-87.6417042
PAST SALE,May-10-2023,Condo/Co-op,1521 N Paulina St Unit 1F,Chicago,IL,60622,403500,3,2.0,CHI - West Town,1650,,,,245,285,Sold,,,https://www.redfin.com/IL/Chicago/1521-N-Paulina-St-60622/unit-1F/home/12662342,MRED,11729420,N,Y,41.9096819,-87.669765
PAST SALE,April-11-2023,Condo/Co-op,3217 W Leland Ave Unit GE,Chicago,IL,60625,252500,2,2.0,CHI - Albany Park,,,1920,,,243,Sold,,,https://www.redfin.com/IL/Chicago/3217-W-Leland-Ave-60625/unit-GE/home/21814276,MRED,11719201,N,Y,41.9664764,-87.7091643
PAST SALE,May-11-2023,Condo/Co-op,1730 Autumn Ave Unit B,Schaumburg,IL,60193,230000,2,2.0,Briar Pointe,1000,,1995,,230,200,Sold,,,https://www.redfin.com/IL/Schaumburg/1730-Autumn-Ave-60193/unit-B/home/12810187,MRED,11736974,N,Y,41.9961251,-88.1229806
PAST SALE,May-5-2023,Condo/Co-op,2400 N Lakeview Ave #1115,Chicago,IL,60614,240000,1,1.0,CHI - Lincoln Park,,,1966,,,564,Sold,,,https://www.redfin.com/IL/Chicago/2400-N-Lakeview-Ave-60614/unit-1115/home/13366372,MRED,11732843,N,Y,41.925868,-87.6393368
PAST SALE,March-21-2023,Condo/Co-op,1650 Riverwoods Dr #506,Melrose Park,IL,60160,230000,2,2.0,Thatcher Woods,1374,,2005,,167,681,Sold,,,https://www.redfin.com/IL/Melrose-Park/1650-Riverwoods-Dr-60160/unit-506/home/26809965,MRED,11702899,N,Y,41.9070559,-87.8306449
PAST SALE,March-31-2023,Condo/Co-op,1345 W Huron St #3,Chicago,IL,60642,560000,2,2.0,CHI - West Town,,,2016,,,176,Sold,,,https://www.redfin.com/IL/Chicago/1345-W-Huron-St-60642/unit-3/home/161065785,MRED,11688561,N,Y,41.8941037,-87.6613045
PAST SALE,March-24-2023,Condo/Co-op,1708 W North Ave Unit D3,Chicago,IL,60622,420000,2,2.0,CHI - West Town,1508,,1995,,279,392,Sold,,,https://www.redfin.com/IL/Chicago/1708-W-North-Ave-60622/unit-D3/home/12716717,MRED,11691766,N,Y,41.9107014,-87.6705382
PAST SALE,May-1-2023,Condo/Co-op,155 N Harbor Dr #4507,Chicago,IL,60601,429500,1,2.0,CHI - Loop,1000,,1974,,430,922,Sold,,,https://www.redfin.com/IL/Chicago/155-N-Harbor-Dr-60601/unit-4507/home/14093125,MRED,11725531,N,Y,41.8848951,-87.6153982
PAST SALE,February-16-2023,Condo/Co-op,260 E Chestnut St #1411,Chicago,IL,60611,208000,1,1.0,CHI - Near North Side,,,1963,,,535,Sold,,,https://www.redfin.com/IL/Chicago/260-E-Chestnut-St-60611/unit-1411/home/14118457,MRED,11674577,N,Y,41.8985263,-87.6196672
PAST SALE,February-17-2023,Condo/Co-op,9560 S Colfax Ave #9560,Chicago,IL,60617,125000,3,2.0,CHI - South Deering,1351,,1954,,93,,Sold,,,https://www.redfin.com/IL/Chicago/9560-S-Colfax-Ave-60617/unit-9560/home/179787515,MRED,11688254,N,Y,41.7212688,-87.5609599
PAST SALE,May-8-2023,Condo/Co-op,313 Elgin Ave #204,Forest Park,IL,60130,128000,1,1.0,Forest Park,,,2004,,,200,Sold,,,https://www.redfin.com/IL/Forest-Park/313-Elgin-Ave-60130/unit-204/home/12600104,MRED,11730286,N,Y,41.8808024,-87.8064213
PAST SALE,March-15-2023,Condo/Co-op,2622 N Spaulding Ave Unit 2S,Chicago,IL,60647,299000,2,1.0,CHI - Logan Square,880,,1916,,340,230,Sold,,,https://www.redfin.com/IL/Chicago/2622-N-Spaulding-Ave-60647/unit-2S/home/12755120,MRED,11695663,N,Y,41.929082,-87.7113816
PAST SALE,April-17-2023,Condo/Co-op,2 S Leavitt St #206,Chicago,IL,60612,232000,1,1.0,CHI - Near West Side,,,2005,,,290,Sold,,,https://www.redfin.com/IL/Chicago/2-S-Leavitt-St-60612/unit-206/home/26795614,MRED,11706187,N,Y,41.8809872,-87.6817461
PAST SALE,April-6-2023,Condo/Co-op,33 W Ontario St Unit 24F,Chicago,IL,60654,425000,2,2.0,CHI - Near North Side,1250,,2003,,340,974,Sold,,,https://www.redfin.com/IL/Chicago/33-W-Ontario-St-60654/unit-24F/home/39557679,MRED,11705733,N,Y,41.8931144,-87.6291864
PAST SALE,May-1-2023,Condo/Co-op,4321 Lindenwood Dr Unit 1W,Matteson,IL,60443,93000,2,2.0,Matteson,1200,,1973,,78,225,Sold,,,https://www.redfin.com/IL/Matteson/4321-Lindenwood-Dr-60443/unit-1W/home/12868610,MRED,11719190,N,Y,41.5091874,-87.7219185
PAST SALE,March-31-2023,Condo/Co-op,1509 W Cornelia Ave #1,Chicago,IL,60657,298000,2,1.0,CHI - Lake View,900,,1911,,331,294,Sold,,,https://www.redfin.com/IL/Chicago/1509-W-Cornelia-Ave-60657/unit-1/home/106141878,MRED,11695224,N,Y,41.9451117,-87.6668713
PAST SALE,February-21-2023,Condo/Co-op,2338 W Granville Ave #2,Chicago,IL,60659,130000,2,1.0,CHI - West Ridge,900,,1929,,144,329,Sold,,,https://www.redfin.com/IL/Chicago/2338-W-Granville-Ave-60659/unit-2/home/12597040,MRED,11670682,N,Y,41.994293,-87.688902
PAST SALE,April-25-2023,Condo/Co-op,1 N Dee Rd Unit 2D,Park Ridge,IL,60068,485000,3,2.0,Park Ridge,2511,,1971,,193,678,Sold,,,https://www.redfin.com/IL/Park-Ridge/1-N-Dee-Rd-60068/unit-2D/home/13646565,MRED,11704344,N,Y,42.0108035,-87.8548988
PAST SALE,March-15-2023,Condo/Co-op,294 Ripplebrook Ct #0,Schaumburg,IL,60173,344000,2,2.5,Haverford,1756,,1992,,196,328,Sold,,,https://www.redfin.com/IL/Schaumburg/294-Ripplebrook-Ct-60173/home/13725394,MRED,11684583,N,Y,42.0345977,-88.037227
PAST SALE,February-17-2023,Condo/Co-op,7020 Heritage Cir Unit 6-1D,Orland Park,IL,60462,197500,2,2.0,Orland Park,1158,,2006,,171,192,Sold,,,https://www.redfin.com/IL/Orland-Park/7020-Heritage-Cir-60462/unit-6-1D/home/18923351,MRED,11673801,N,Y,41.6142278,-87.7910942
PAST SALE,April-14-2023,Condo/Co-op,1616 W Montrose Ave Unit 2G,Chicago,IL,60613,360000,2,2.0,CHI - Uptown,,,2000,,,362,Sold,,,https://www.redfin.com/IL/Chicago/1616-W-Montrose-Ave-60613/unit-2G/home/12700268,MRED,11690174,N,Y,41.9617443,-87.6699667
PAST SALE,March-17-2023,Condo/Co-op,1841 S Calumet Ave #1511,Chicago,IL,60616,335000,2,2.0,CHI - Near South Side,1080,,2004,,310,694,Sold,,,https://www.redfin.com/IL/Chicago/1841-S-Calumet-Ave-60616/unit-1511/home/18937852,MRED,11682993,N,Y,41.8573213,-87.6189079
PAST SALE,March-21-2023,Condo/Co-op,2710 W Lunt Ave #206,Chicago,IL,60645,158000,2,1.0,CHI - West Ridge,1050,,1960,,150,416,Sold,,,https://www.redfin.com/IL/Chicago/2710-W-Lunt-Ave-60645/unit-206/home/18922480,MRED,11682998,N,Y,42.0088132,-87.6977465
PAST SALE,February-17-2023,Condo/Co-op,6250 N Francisco Ave Unit GBE,Chicago,IL,60659,130000,2,1.0,CHI - West Ridge,,,1950,,,262,Sold,,,https://www.redfin.com/IL/Chicago/6250-N-Francisco-Ave-60659/unit-GBE/home/181753220,MRED,11668885,N,Y,41.9956195,-87.7023048
PAST SALE,March-8-2023,Condo/Co-op,9350 Skokie Blvd #310,Skokie,IL,60077,359000,2,2.0,Siena at Old Orchard,1531,,2007,,234,479,Sold,,,https://www.redfin.com/IL/Skokie/9350-Skokie-Blvd-60077/unit-310/home/26779985,MRED,11676785,N,Y,42.0513756,-87.7470505
PAST SALE,March-15-2023,Condo/Co-op,3151 N Lincoln Ave #208,Chicago,IL,60657,240000,1,1.0,CHI - Lake View,720,,1934,,333,393,Sold,,,https://www.redfin.com/IL/Chicago/3151-N-Lincoln-Ave-60657/unit-208/home/13365646,MRED,11669292,N,Y,41.939122,-87.6677022
PAST SALE,March-1-2023,Condo/Co-op,4053 N Sheridan Rd #3,Chicago,IL,60613,210000,1,1.0,CHI - Uptown,750,,1920,,280,333,Sold,,,https://www.redfin.com/IL/Chicago/4053-N-Sheridan-Rd-60613/unit-3/home/12704815,MRED,11654949,N,Y,41.9560699,-87.654185
PAST SALE,March-14-2023,Condo/Co-op,5225 James Ln #1401,Crestwood,IL,60418,120000,2,1.5,Sandpiper South,909,,1972,,132,200,Sold,,,https://www.redfin.com/IL/Crestwood/5225-James-Ln-60418/unit-1401/home/12990407,MRED,11633718,N,Y,41.6378566,-87.7490954
PAST SALE,March-6-2023,Condo/Co-op,750 Pearson St #405,Des Plaines,IL,60016,332000,2,2.0,Library Courte,1637,,1999,,203,550,Sold,,,https://www.redfin.com/IL/Des-Plaines/750-Pearson-St-60016/unit-405/home/180537281,MRED,11460818,N,Y,42.0398589,-87.8871147
PAST SALE,March-31-2023,Condo/Co-op,1038 N Marshfield Ave #1,Chicago,IL,60622,645500,3,3.0,CHI - West Town,,,1995,,,288,Sold,,,https://www.redfin.com/IL/Chicago/1038-N-Marshfield-Ave-60622/unit-1/home/12815608,MRED,11754291,N,Y,41.9008675,-87.668918
PAST SALE,April-5-2023,Condo/Co-op,1401 N Wieland St Unit A,Chicago,IL,60610,640000,2,2.5,CHI - Near North Side,,,1994,,,250,Sold,,,https://www.redfin.com/IL/Chicago/1401-N-Wieland-St-60610/unit-A/home/14117159,MRED,11756192,N,Y,41.9082187,-87.6354106
PAST SALE,February-23-2023,Condo/Co-op,2305 W Walton St Unit 3E,Chicago,IL,60622,245000,2,1.0,CHI - West Town,1150,,,,213,199,Sold,,,https://www.redfin.com/IL/Chicago/2305-W-Walton-St-60622/unit-3E/home/145022069,MRED,11726399,N,Y,41.8983506,-87.6848587
PAST SALE,March-17-2023,Condo/Co-op,2710 W Chicago Ave #4,Chicago,IL,60622,465000,3,2.0,CHI - West Town,1700,,2007,,274,183,Sold,,,https://www.redfin.com/IL/Chicago/2710-W-Chicago-Ave-60622/unit-4/home/26810503,MRED,11740673,N,Y,41.8959239,-87.6947791
PAST SALE,April-21-2023,Condo/Co-op,635 N Dearborn St #1205,Chicago,IL,60654,535000,3,2.0,Caravel,1622,,2003,,330,1051,Sold,,,https://www.redfin.com/IL/Chicago/635-N-Dearborn-St-60654/unit-1205/home/12674805,MRED,11765922,N,Y,41.8935163,-87.6293196
PAST SALE,May-2-2023,Condo/Co-op,1525 N Wicker Park Ave #2,Chicago,IL,60622,525000,3,2.0,CHI - West Town,1700,,,,309,293,Sold,,,https://www.redfin.com/IL/Chicago/1525-N-Wicker-Park-Ave-60622/unit-2/home/12616835,MRED,11773569,N,Y,41.908866,-87.676654
PAST SALE,March-27-2023,Condo/Co-op,680 N Green St #212,Chicago,IL,60642,447000,2,2.0,CHI - West Town,1318,,1997,,339,412,Sold,,,https://www.redfin.com/IL/Chicago/680-N-Green-St-60642/unit-212/home/12767669,MRED,11717918,N,Y,41.8943624,-87.6494208
PAST SALE,March-9-2023,Condo/Co-op,6917 W Irving Park Rd Unit 3S,Chicago,IL,60634,150000,2,1.0,CHI - Dunning,900,,1958,,167,283,Sold,,,https://www.redfin.com/IL/Chicago/6917-W-Irving-Park-Rd-60634/unit-3S/home/12638905,MRED,11734904,N,Y,41.952482,-87.799478
PAST SALE,February-28-2023,Condo/Co-op,1400 N Campbell Ave #3,Chicago,IL,60622,520000,2,2.0,CHI - West Town,1300,,2020,,400,175,Sold,,,https://www.redfin.com/IL/Chicago/1400-N-Campbell-Ave-60622/unit-3/home/182419102,MRED,11727938,N,Y,41.906751,-87.6898822
PAST SALE,,Condo/Co-op,360 E Randolph St #3806,Chicago,IL,60601,340000,,1.5,,1000,,,,340,,,,,https://www.redfin.com/IL/Chicago/360-E-Randolph-St-60601/unit-3806/home/14094479,,,N,Y,41.8849092,-87.6179803
PAST SALE,April-13-2023,Condo/Co-op,840 W Gunnison St Unit 2E,Chicago,IL,60640,360000,2,2.0,CHI - Uptown,,,1920,,,319,Sold,,,https://www.redfin.com/IL/Chicago/840-W-Gunnison-St-60640/unit-2E/home/13059811,MRED,11709563,N,Y,41.9702836,-87.6517853
PAST SALE,March-29-2023,Condo/Co-op,4334 N Dayton St #2,Chicago,IL,60613,230000,1,1.0,CHI - Uptown,,,1904,,,359,Sold,,,https://www.redfin.com/IL/Chicago/4334-N-Dayton-St-60613/unit-2/home/12793907,MRED,11713721,N,Y,41.961536,-87.651445
PAST SALE,March-13-2023,Condo/Co-op,230 E Ontario St #1404,Chicago,IL,60611,116000,1,1.0,CHI - Near North Side,,,1969,,,639,Sold,,,https://www.redfin.com/IL/Chicago/230-E-Ontario-St-60611/unit-1404/home/14098072,MRED,11735695,N,Y,41.8936581,-87.6212229
PAST SALE,May-8-2023,Condo/Co-op,1613 W Le Moyne St Unit 1S,Chicago,IL,60622,540000,2,2.5,CHI - West Town,1600,,2001,,338,250,Sold,,,https://www.redfin.com/IL/Chicago/1613-W-Le-Moyne-St-60622/unit-1S/home/12713908,MRED,11739953,N,Y,41.9088822,-87.6682461
PAST SALE,March-31-2023,Condo/Co-op,4509 N Dover St Unit 1N,Chicago,IL,60640,550000,3,3.0,CHI - Uptown,2900,,,,190,381,Sold,,,https://www.redfin.com/IL/Chicago/4509-N-Dover-St-60640/unit-1N/home/13394838,MRED,11728078,N,Y,41.9637872,-87.6647374
PAST SALE,,Condo/Co-op,565 W Quincy St #1309,Chicago,IL,60661,420000,2,2.0,,1227,,2008,,342,,,,,https://www.redfin.com/IL/Chicago/565-W-Quincy-St-60661/unit-1309/home/171322196,,,N,Y,41.8783451,-87.6420845
PAST SALE,February-27-2023,Condo/Co-op,1529 N Rockwell St #1,Chicago,IL,60622,490000,3,2.5,CHI - West Town,,,2003,,,230,Sold,,,https://www.redfin.com/IL/Chicago/1529-N-Rockwell-St-60622/unit-1/home/13289409,MRED,11677847,N,Y,41.9093072,-87.6918363
PAST SALE,April-14-2023,Condo/Co-op,737 W Washington Blvd #905,Chicago,IL,60661,415000,1,1.5,Skybridge,925,,2003,,449,689,Sold,,,https://www.redfin.com/IL/Chicago/737-W-Washington-Blvd-60661/unit-905/home/12671807,MRED,11744481,N,Y,41.8821306,-87.6468599
PAST SALE,April-27-2023,Condo/Co-op,123 S Green St Unit 201B,Chicago,IL,60607,560000,2,2.0,CHI - Near West Side,1250,,2008,,448,704,Sold,,,https://www.redfin.com/IL/Chicago/123-S-Green-St-60607/unit-201B/home/178794404,MRED,11738215,N,Y,41.8799446,-87.6482168
PAST SALE,May-8-2023,Condo/Co-op,3536 N Bosworth Ave Unit 2S,Chicago,IL,60657,418000,2,1.0,Southport Corridor,1400,,,,299,267,Sold,,,https://www.redfin.com/IL/Chicago/3536-N-Bosworth-Ave-60657/unit-2S/home/183920007,MRED,11706353,N,Y,41.946276,-87.667964
PAST SALE,March-8-2023,Condo/Co-op,3256 N Washtenaw Ave Unit A,Chicago,IL,60618,400000,2,2.5,CHI - Avondale,1800,,2001,,222,455,Sold,,,https://www.redfin.com/IL/Chicago/3256-N-Washtenaw-Ave-60618/unit-A/home/184663824,MRED,11715549,N,Y,41.9411225,-87.6954969
PAST SALE,May-4-2023,Condo/Co-op,1148 W Roscoe St Unit 2E,Chicago,IL,60657,459000,2,2.0,CHI - Lake View,,,2005,,,316,Sold,,,https://www.redfin.com/IL/Chicago/1148-W-Roscoe-St-60657/unit-2E/home/12593374,MRED,11761007,N,Y,41.9437011,-87.6584598
PAST SALE,May-1-2023,Condo/Co-op,3422 N Bosworth Ave #1,Chicago,IL,60657,935000,4,4.0,CHI - Lake View,3200,,2005,,292,189,Sold,,,https://www.redfin.com/IL/Chicago/3422-N-Bosworth-Ave-60657/unit-1/home/18943122,MRED,11719118,N,Y,41.9440638,-87.667879
PAST SALE,March-22-2023,Condo/Co-op,4921 N Wolcott Ave Unit 3A,Chicago,IL,60640,265000,2,1.0,CHI - Lincoln Square,,,1940,,,478,Sold,,,https://www.redfin.com/IL/Chicago/4921-N-Wolcott-Ave-60640/unit-A3/home/12744339,MRED,11723120,N,Y,41.9710959,-87.6760454
PAST SALE,March-27-2023,Condo/Co-op,1338 W Irving Park Rd #3,Chicago,IL,60613,235000,1,1.0,CHI - Lake View,,,,,,225,Sold,,,https://www.redfin.com/IL/Chicago/1338-W-Irving-Park-Rd-60613/unit-3/home/13394385,MRED,11718253,N,Y,41.954588,-87.663889
PAST SALE,March-15-2023,Condo/Co-op,2965 N Elston Ave #1,Chicago,IL,60618,705000,4,2.5,CHI - Avondale,2500,,2022,,282,326,Sold,,,https://www.redfin.com/IL/Chicago/2965-N-Elston-Ave-60618/unit-1/home/184718391,MRED,11472757,N,Y,41.9354162,-87.6922335
PAST SALE,March-14-2023,Condo/Co-op,2340 W Roscoe St Unit 1W,Chicago,IL,60618,699999,3,3.0,CHI - North Center,2450,,2003,,286,385,Sold,,,https://www.redfin.com/IL/Chicago/2340-W-Roscoe-St-60618/unit-1W/home/12682528,MRED,11699425,N,Y,41.943397,-87.687313
PAST SALE,March-9-2023,Condo/Co-op,4646 N Winchester Ave #1,Chicago,IL,60640,300860,2,1.0,CHI - Lincoln Square,,,,,,245,Sold,,,https://www.redfin.com/IL/Chicago/4646-N-Winchester-Ave-60640/unit-1/home/18936092,MRED,11710475,N,Y,41.966636,-87.677871
PAST SALE,March-31-2023,Condo/Co-op,2238 W Belmont Ave Unit 4W,Chicago,IL,60618,605000,3,2.5,Roscoe Village,,,2002,,,474,Sold,,,https://www.redfin.com/IL/Chicago/2238-W-Belmont-Ave-60618/unit-4W/home/12688918,MRED,11713747,N,Y,41.939756,-87.684802
PAST SALE,March-20-2023,Condo/Co-op,200 W Grand Ave #1305,Chicago,IL,60654,309000,1,1.0,The Grand on Grand,850,,2004,,364,569,Sold,,,https://www.redfin.com/IL/Chicago/200-W-Grand-Ave-60654/unit-1305/home/26813854,MRED,11741323,N,Y,41.8918775,-87.6344475
PAST SALE,May-9-2023,Condo/Co-op,2437 W Cortez St #1,Chicago,IL,60622,555000,3,3.0,CHI - West Town,2400,,2006,,231,265,Sold,,,https://www.redfin.com/IL/Chicago/2437-W-Cortez-St-60622/unit-1/home/18914666,MRED,11748677,N,Y,41.900085,-87.6884093
PAST SALE,May-10-2023,Condo/Co-op,3148 N Oakley Ave Unit 2S,Chicago,IL,60618,585000,3,2.0,CHI - North Center,1800,,2004,,325,390,Sold,,,https://www.redfin.com/IL/Chicago/3148-N-Oakley-Ave-60618/unit-2S/home/185394166,MRED,11738559,N,Y,41.9392101,-87.6858564
PAST SALE,May-5-2023,Condo/Co-op,2550 N Lakeview Ave Unit N1404,Chicago,IL,60614,3100000,3,3.5,Lincoln Park 2550,3426,,2011,,905,3750,Sold,,,https://www.redfin.com/IL/Chicago/2550-N-Lakeview-Ave-60614/unit-N1404/home/183989766,MRED,11636778,N,Y,41.9292285,-87.6395349
PAST SALE,May-4-2023,Condo/Co-op,2626 N Lakeview Ave #4205,Chicago,IL,60614,220000,1,1.0,CHI - Lincoln Park,,,1969,,,706,Sold,,,https://www.redfin.com/IL/Chicago/2626-N-Lakeview-Ave-60614/unit-4205/home/13367104,MRED,11753035,N,Y,41.9303836,-87.639729
PAST SALE,April-3-2023,Condo/Co-op,6607 N Damen Ave Unit 1N,Chicago,IL,60626,165000,2,1.0,CHI - West Ridge,912,,1947,,181,386,Sold,,,https://www.redfin.com/IL/Chicago/6607-N-Damen-Ave-60645/unit-1N/home/13569293,MRED,11715597,N,Y,42.0018966,-87.6800532
PAST SALE,,Condo/Co-op,2632 N Springfield Ave #1,Chicago,IL,60647,192000,,,,800,,,,240,,,,,https://www.redfin.com/IL/Chicago/2632-N-Springfield-Ave-60647/unit-1/home/12684686,,,N,Y,41.9292238,-87.72469
PAST SALE,March-24-2023,Condo/Co-op,521 W Surf St #2,Chicago,IL,60657,455000,3,2.0,CHI - Lake View,1708,,1920,,266,440,Sold,,,https://www.redfin.com/IL/Chicago/521-W-Surf-St-60657/unit-2/home/12805996,MRED,11682530,N,Y,41.9341855,-87.6422661
PAST SALE,April-24-2023,Condo/Co-op,639 W Wrightwood Ave #3,Chicago,IL,60614,862500,3,2.5,CHI - Lincoln Park,2000,,2012,,431,325,Sold,,,https://www.redfin.com/IL/Chicago/639-W-Wrightwood-Ave-60614/unit-3/home/64225727,MRED,11724631,N,Y,41.9290309,-87.6442309
PAST SALE,March-15-2023,Condo/Co-op,10355 Menard Ave #220,Oak Lawn,IL,60453,135000,2,2.0,Lawncastle,1100,,1983,,123,278,Sold,,,https://www.redfin.com/IL/Oak-Lawn/10355-Menard-Ave-60453/unit-220/home/13143933,MRED,11638404,N,Y,41.7034223,-87.7638024
PAST SALE,March-31-2023,Condo/Co-op,2707 N Mildred Ave Unit 2A,Chicago,IL,60614,363000,2,1.0,CHI - Lincoln Park,,,1920,,,252,Sold,,,https://www.redfin.com/IL/Chicago/2707-N-Mildred-Ave-60614/unit-2A/home/18940746,MRED,11720471,N,Y,41.9311981,-87.6511335
PAST SALE,March-6-2023,Condo/Co-op,115 Marengo Ave #304,Forest Park,IL,60130,125000,1,1.0,Forest Park,,,1968,,,215,Sold,,,https://www.redfin.com/IL/Forest-Park/115-Marengo-Ave-60130/unit-304/home/13324281,MRED,11716473,N,Y,41.8847289,-87.8079108
PAST SALE,,Condo/Co-op,8876 Golf Rd Unit 2C,Des Plaines,IL,60016,147000,,,,1000,,,,147,,,,,https://www.redfin.com/IL/Des-Plaines/8876-Golf-Rd-60016/unit-2C/home/13680162,,,N,Y,42.054675,-87.847076
PAST SALE,March-14-2023,Condo/Co-op,1277 Wyndham Ln #105,Palatine,IL,60074,143000,1,1.0,Palatine,642,,1983,,223,213,Sold,,,https://www.redfin.com/IL/Palatine/1277-Wyndham-Ln-60074/unit-105/home/12723266,MRED,11710251,N,Y,42.1364424,-88.0120384
PAST SALE,April-27-2023,Condo/Co-op,1122 W Catalpa Ave #407,Chicago,IL,60640,325000,2,2.0,CHI - Edgewater,,,2007,,,738,Sold,,,https://www.redfin.com/IL/Chicago/1122-W-Catalpa-Ave-60640/unit-407/home/40375286,MRED,11647076,N,Y,41.9819222,-87.6591061
PAST SALE,May-4-2023,Condo/Co-op,1419 W Catalpa Ave Unit 2N,Chicago,IL,60640,190000,1,1.0,CHI - Edgewater,,,1925,,,,Sold,,,https://www.redfin.com/IL/Chicago/1419-W-Catalpa-Ave-60640/unit-2N/home/13402327,MRED,11726098,N,Y,41.9814645,-87.6656201
PAST SALE,March-3-2023,Condo/Co-op,1617 W Fargo Ave Unit 1N,Chicago,IL,60626,227500,2,2.0,CHI - Rogers Park,,,1920,,,,Sold,,,https://www.redfin.com/IL/Chicago/1617-W-Fargo-Ave-60626/unit-1N/home/18915688,MRED,11707265,N,Y,42.0167725,-87.6711475
PAST SALE,April-7-2023,Condo/Co-op,841 W Lill Ave,Chicago,IL,60614,1590000,4,3.5,CHI - Lincoln Park,,,2022,,,231,Sold,,,https://www.redfin.com/IL/Chicago/841-W-Lill-Ave-60614/Ph/home/183429322,MRED,11690185,N,Y,41.9279506,-87.6505021
PAST SALE,February-24-2023,Condo/Co-op,6225 N Kedzie Ave Unit 1N,Chicago,IL,60659,240000,3,1.0,CHI - West Ridge,,,1952,,,125,Sold,,,https://www.redfin.com/IL/Chicago/6225-N-Kedzie-Ave-60659/unit-1N/home/12609557,MRED,11726300,N,Y,41.9946121,-87.7088744
PAST SALE,May-3-2023,Condo/Co-op,3224 N Elston Ave Unit 3N,Chicago,IL,60618,537500,3,2.0,CHI - Avondale,1600,,2016,,336,171,Sold,,,https://www.redfin.com/IL/Chicago/3224-N-Elston-Ave-60618/unit-3N/home/167526732,MRED,11716188,N,Y,41.9398783,-87.6993634
PAST SALE,April-18-2023,Condo/Co-op,2733 W Prindiville St,Chicago,IL,60647,681000,3,2.5,CHI - Logan Square,,,2018,,,259,Sold,,,https://www.redfin.com/IL/Chicago/2733-W-Prindiville-St-60647/home/175636448,MRED,11732815,N,Y,41.9208909,-87.6961609
PAST SALE,April-14-2023,Condo/Co-op,1740 N Maplewood Ave #314,Chicago,IL,60647,345000,2,2.0,CHI - West Town,,,,,,395,Sold,,,https://www.redfin.com/IL/Chicago/1740-N-Maplewood-Ave-60647/unit-314/home/12702290,MRED,11703811,N,Y,41.9131829,-87.6913166
PAST SALE,May-9-2023,Condo/Co-op,3707 W Montrose Ave #2,Chicago,IL,60618,252000,2,2.0,CHI - Irving Park,,,,,,250,Sold,,,https://www.redfin.com/IL/Chicago/3707-W-Montrose-Ave-60618/unit-2/home/12654067,MRED,11742538,N,Y,41.960831,-87.7208405
PAST SALE,March-15-2023,Condo/Co-op,4122 N Spaulding Ave #2,Chicago,IL,60618,200000,2,1.0,CHI - Irving Park,,,1928,,,198,Sold,,,https://www.redfin.com/IL/Chicago/4122-N-Spaulding-Ave-60618/unit-2/home/18918931,MRED,11709000,N,Y,41.9564451,-87.7107248
PAST SALE,February-28-2023,Condo/Co-op,4848 N Central Ave #305,Chicago,IL,60630,169900,1,1.0,Jefferson Courte,900,,1993,,189,225,Sold,,,https://www.redfin.com/IL/Chicago/4848-N-Central-Ave-60630/unit-305/home/13498885,MRED,11723283,N,Y,41.9690819,-87.7678885
PAST SALE,April-24-2023,Condo/Co-op,2030 N Spaulding Ave #2,Chicago,IL,60647,805000,3,2.0,CHI - Logan Square,,,2023,,,225,Sold,,,https://www.redfin.com/IL/Chicago/2030-N-Spaulding-Ave-60647/unit-2/home/185296906,MRED,11650189,N,Y,41.9183308,-87.7105113
PAST SALE,,Condo/Co-op,6401 W Berteau Ave Unit 8-212,Chicago,IL,60634,325000,,2.0,,1336,,,,243,,,,,https://www.redfin.com/IL/Chicago/6401-W-Berteau-Ave-60634/unit-8-212/home/12795131,,,N,Y,41.9559615,-87.7870164
PAST SALE,February-23-2023,Condo/Co-op,705 11th St #405,Wilmette,IL,60091,338000,1,1.5,Wilmette,960,,1998,,352,394,Sold,,,https://www.redfin.com/IL/Wilmette/705-11th-St-60091/unit-405/home/12797712,MRED,11709344,N,Y,42.0770227,-87.7051264
PAST SALE,,Condo/Co-op,600 S Dearborn St #1110,Chicago,IL,60605,240000,,,,900,,,,267,,,,,https://www.redfin.com/IL/Chicago/600-S-Dearborn-St-60605/unit-1110/home/14091959,,,N,Y,41.8740573,-87.629397
PAST SALE,April-5-2023,Condo/Co-op,2230 N Lincoln Ave #301,Chicago,IL,60614,550000,2,2.0,Emerald City,1400,,1998,,393,317,Sold,,,https://www.redfin.com/IL/Chicago/2230-N-Lincoln-Ave-60614/unit-301/home/12805853,MRED,11713939,N,Y,41.9225174,-87.6451226
PAST SALE,April-5-2023,Condo/Co-op,116 Meadow Dr #116,Countryside,IL,60525,310000,3,2.5,Countryside,2300,,1987,,135,220,Sold,,,https://www.redfin.com/IL/Countryside/116-Meadow-Dr-60525/unit-116/home/181193069,MRED,11751087,N,Y,41.779063,-87.8744059
PAST SALE,,Condo/Co-op,400 Village Cir Unit 2-3,Willow Springs,IL,60480,197500,,2.0,,,,,,,,,,,https://www.redfin.com/IL/Willow-Springs/400-Village-Cir-60480/unit-2-3/home/12677386,,,N,Y,41.7338496,-87.8767346
PAST SALE,May-1-2023,Condo/Co-op,650 Hinman Ave Unit 2A,Evanston,IL,60202,218000,1,1.0,Evanston,1000,,1920,,218,258,Sold,,,https://www.redfin.com/IL/Evanston/650-Hinman-Ave-60202/unit-2A/home/13576941,MRED,11732687,N,Y,42.0300142,-87.6772405
PAST SALE,May-8-2023,Condo/Co-op,1918 Colfax St #3,Evanston,IL,60201,499000,3,2.0,Evanston,1800,,1920,,277,400,Sold,,,https://www.redfin.com/IL/Evanston/1918-Colfax-St-60201/unit-3/home/12594476,MRED,11714324,N,Y,42.0605787,-87.699637
PAST SALE,April-14-2023,Condo/Co-op,850 Village Center Dr #411,Burr Ridge,IL,60527,450000,2,2.0,Burr Ridge,1292,,2007,,348,438,Sold,,,https://www.redfin.com/IL/Burr-Ridge/850-Village-Center-Dr-60527/unit-411/home/12990532,MRED,11738349,N,Y,41.7546991,-87.9118231
PAST SALE,March-3-2023,Condo/Co-op,1212 N Lake Shore Dr Unit 18AN,Chicago,IL,60610,1250000,3,2.0,CHI - Near North Side,2150,,1970,,581,1862,Sold,,,https://www.redfin.com/IL/Chicago/1212-N-Lake-Shore-Dr-60610/unit-18AN/home/14123083,MRED,11729866,N,Y,41.9045194,-87.6253855
PAST SALE,February-22-2023,Condo/Co-op,2400 N Lakeview Ave #2601,Chicago,IL,60614,517500,3,2.0,CHI - Lincoln Park,1550,,1963,,334,1401,Sold,,,https://www.redfin.com/IL/Chicago/2400-N-Lakeview-Ave-60614/unit-2601/home/13364909,MRED,11716257,N,Y,41.925868,-87.6393368
PAST SALE,March-8-2023,Condo/Co-op,1260 W Washington Blvd #405,Chicago,IL,60607,520000,2,2.0,CHI - Near West Side,1235,,2000,,421,403,Sold,,,https://www.redfin.com/IL/Chicago/1260-W-Washington-Blvd-60607/unit-405/home/12649893,MRED,11710356,N,Y,41.8832392,-87.6591176
PAST SALE,March-22-2023,Condo/Co-op,21 W Goethe St Unit 18C,Chicago,IL,60610,270000,1,1.0,CHI - Near North Side,,,1964,,,697,Sold,,,https://www.redfin.com/IL/Chicago/21-W-Goethe-St-60610/unit-18C/home/14111310,MRED,11681219,N,Y,41.9054585,-87.6296264
PAST SALE,March-30-2023,Condo/Co-op,33 E Cedar St Unit 16B,Chicago,IL,60611,185000,1,1.0,CHI - Near North Side,,,1958,,,,Sold,,,https://www.redfin.com/IL/Chicago/33-E-Cedar-St-60611/unit-16B/home/14121824,MRED,11638411,N,Y,41.9022307,-87.6271603
PAST SALE,March-17-2023,Condo/Co-op,3316 W Palmer St Unit 3R,Chicago,IL,60647,330000,2,1.5,CHI - Logan Square,1100,,,,300,219,Sold,,,https://www.redfin.com/IL/Chicago/3316-W-Palmer-St-60647/unit-3R/home/12660094,MRED,11717130,N,Y,41.9213082,-87.7111616
PAST SALE,March-20-2023,Condo/Co-op,22 E Division St #2,Chicago,IL,60610,1750000,3,2.5,CHI - Near North Side,3000,,1900,,583,,Sold,,,https://www.redfin.com/IL/Chicago/22-E-Division-St-60610/unit-2/home/18914172,MRED,11703373,N,Y,41.9041652,-87.6277682
PAST SALE,March-28-2023,Condo/Co-op,330 W Diversey Pkwy #1404,Chicago,IL,60657,307500,2,2.0,CHI - Lake View,1157,,1957,,266,1008,Sold,,,https://www.redfin.com/IL/Chicago/330-W-Diversey-Pkwy-60657/unit-1404/home/13370781,MRED,11706230,N,Y,41.9331466,-87.6384194
PAST SALE,March-17-2023,Condo/Co-op,288 Pembridge Ln Unit A1,Schaumburg,IL,60193,265000,3,2.0,Lexington Village,1100,,1978,,241,261,Sold,,,https://www.redfin.com/IL/Schaumburg/288-Pembridge-Ln-60193/unit-A1/home/13727982,MRED,11702903,N,Y,42.0251037,-88.074835
PAST SALE,April-12-2023,Condo/Co-op,2334 S Michigan Ave S #408,Chicago,IL,60616,502500,2,2.0,CHI - Near South Side,2100,,1901,,239,583,Sold,,,https://www.redfin.com/IL/Chicago/2334-S-Michigan-Ave-60616/unit-408/home/26822002,MRED,11748621,N,Y,41.8500176,-87.6242151
PAST SALE,March-8-2023,Condo/Co-op,1531 W Fargo Ave Unit 3E,Chicago,IL,60626,275000,2,1.0,CHI - Rogers Park,1600,,1920,,172,350,Sold,,,https://www.redfin.com/IL/Chicago/1531-W-Fargo-Ave-60626/unit-3E/home/12797277,MRED,11669616,N,Y,42.016799,-87.6694765
PAST SALE,February-23-2023,Condo/Co-op,807 Davis St #1904,Evanston,IL,60201,675000,2,2.0,Evanston,1460,,2006,,462,850,Sold,,,https://www.redfin.com/IL/Evanston/807-Davis-St-60201/unit-1904/home/26802439,MRED,11701324,N,Y,42.0472535,-87.6825151
PAST SALE,April-28-2023,Condo/Co-op,1538 N North Park Ave #1,Chicago,IL,60610,1225000,3,2.5,CHI - Near North Side,2550,,2015,,480,450,Sold,,,https://www.redfin.com/IL/Chicago/1538-N-North-Park-Ave-60610/unit-1/home/90176028,MRED,11743500,N,Y,41.91045,-87.6368859
PAST SALE,,Condo/Co-op,538 Michigan Ave Unit F1,Evanston,IL,60202,165000,,,,,,,,,,,,,https://www.redfin.com/IL/Evanston/538-Michigan-Ave-60202/unit-F1/home/13577141,,,N,Y,42.0279093,-87.6725058
PAST SALE,,Condo/Co-op,505 N Lake Shore Dr #3009,Chicago,IL,60611,503000,,,,,,,,,,,,,https://www.redfin.com/IL/Chicago/505-N-Lake-Shore-Dr-60611/unit-3009/home/14095727,,,N,Y,41.8915839,-87.6126983
PAST SALE,March-22-2023,Condo/Co-op,2531 W Cortez St #2,Chicago,IL,60622,395500,2,2.0,CHI - West Town,1200,,1919,,330,163,Sold,,,https://www.redfin.com/IL/Chicago/2531-W-Cortez-St-60622/unit-2/home/12562592,MRED,11678560,N,Y,41.900019,-87.6906836
PAST SALE,,Condo/Co-op,1211 S Prairie Ave #1001,Chicago,IL,60605,1350000,,,,,,,,,,,,,https://www.redfin.com/IL/Chicago/1211-S-Prairie-Ave-60605/unit-1001/home/39571058,,,N,Y,41.865053,-87.620159
PAST SALE,April-25-2023,Condo/Co-op,2737 W Thomas St #1,Chicago,IL,60622,465000,3,2.5,CHI - West Town,2200,,2004,,211,285,Sold,,,https://www.redfin.com/IL/Chicago/2737-W-Thomas-St-60622/unit-1/home/12662723,MRED,11744560,N,Y,41.9008934,-87.6958792
PAST SALE,May-4-2023,Condo/Co-op,1345 S Wabash Ave #1009,Chicago,IL,60605,308000,2,2.0,CHI - Near South Side,945,,2015,,326,315,Sold,,,https://www.redfin.com/IL/Chicago/1345-S-Wabash-Ave-60605/unit-1009/home/167695182,MRED,11731465,N,Y,41.8644171,-87.6254821
PAST SALE,March-22-2023,Condo/Co-op,305 S Racine Ave Unit 5B,Chicago,IL,60607,1013870,3,3.0,CHI - Near West Side,2160,,2021,,469,336,Sold,,,https://www.redfin.com/IL/Chicago/305-S-Racine-Ave-60607/unit-5B/home/176719374,MRED,11245255,N,Y,41.8775929,-87.6568178
PAST SALE,March-9-2023,Condo/Co-op,2001 S Calumet Ave #206,Chicago,IL,60616,435000,2,2.0,CHI - Near South Side,1497,,1917,,291,574,Sold,,,https://www.redfin.com/IL/Chicago/2001-S-Calumet-Ave-60616/unit-206/home/12705410,MRED,11640997,N,Y,41.8553731,-87.6186778
PAST SALE,March-10-2023,Condo/Co-op,2040 N Burling St #3,Chicago,IL,60614,1640000,3,2.5,CHI - Lincoln Park,2750,,2016,,596,590,Sold,,,https://www.redfin.com/IL/Chicago/2040-N-Burling-St-60614/unit-3/home/13349182,MRED,11670736,N,Y,41.91938,-87.6476597
PAST SALE,April-6-2023,Condo/Co-op,2801 N Seminary St Unit 4S,Chicago,IL,60657,415000,2,2.0,CHI - Lake View,,,1891,,,426,Sold,,,https://www.redfin.com/IL/Chicago/2801-N-Seminary-Ave-60657/unit-4S/home/179793878,MRED,11715888,N,Y,41.932832,-87.6560828
PAST SALE,March-1-2023,Condo/Co-op,2737 N Southport Ave #2,Chicago,IL,60614,415000,2,2.0,CHI - Lincoln Park,,,1999,,,146,Sold,,,https://www.redfin.com/IL/Chicago/2737-N-Southport-Ave-60614/unit-2/home/12771965,MRED,11723075,N,Y,41.9317348,-87.6631828
PAST SALE,,Condo/Co-op,2502 W Eastwood Ave #2,Chicago,IL,60625,370000,,,,,,,,,,,,,https://www.redfin.com/IL/Chicago/2502-W-Eastwood-Ave-60625/unit-2/home/12807202,,,N,Y,41.965972,-87.691474
PAST SALE,March-13-2023,Condo/Co-op,1522 W Addison St #3,Chicago,IL,60613,317500,2,1.0,CHI - Lake View,,,,,,208,Sold,,,https://www.redfin.com/IL/Chicago/1522-W-Addison-St-60613/unit-3/home/12593395,MRED,11682472,N,Y,41.9471583,-87.6674107
PAST SALE,May-2-2023,Condo/Co-op,2642 N Racine Ave Unit 2S,Chicago,IL,60614,540000,2,2.0,CHI - Lincoln Park,,,1997,,,275,Sold,,,https://www.redfin.com/IL/Chicago/2642-N-Racine-Ave-60614/unit-2S/home/13362340,MRED,11746844,N,Y,41.9301535,-87.6589006
PAST SALE,March-31-2023,Condo/Co-op,1205 W Montana St Unit 2E,Chicago,IL,60614,1230000,3,2.5,CHI - Lincoln Park,,,2016,,,243,Sold,,,https://www.redfin.com/IL/Chicago/1205-W-Montana-St-60614/unit-2E/home/13360938,MRED,11712185,N,Y,41.9261173,-87.6587529
PAST SALE,,Condo/Co-op,2712 W Greenleaf Ave Unit C,Chicago,IL,60645,302000,,,,,,,,,,,,,https://www.redfin.com/IL/Chicago/2712-W-Greenleaf-Ave-60645/unit-C/home/12746130,,,N,Y,42.009659,-87.697974
PAST SALE,February-27-2023,Condo/Co-op,1540 N Lasalle St #1908,Chicago,IL,60610,269500,1,1.0,LaSalle Terrace Condominiums,800,,1974,,337,650,Sold,,,https://www.redfin.com/IL/Chicago/1540-N-La-Salle-Dr-60610/unit-1908/home/14116009,MRED,11725317,N,Y,41.910269,-87.6337138
PAST SALE,March-16-2023,Condo/Co-op,450 E Waterside Dr #1910,Chicago,IL,60601,450000,1,1.5,CHI - Loop,1136,,2007,,396,721,Sold,,,https://www.redfin.com/IL/Chicago/450-E-Waterside-Dr-60601/unit-1910/home/26780521,MRED,11678925,N,Y,41.8871183,-87.6154424
PAST SALE,March-7-2023,Condo/Co-op,1625 N Mozart St Unit 2S,Chicago,IL,60647,350000,2,2.0,CHI - West Town,,,2004,,,186,Sold,,,https://www.redfin.com/IL/Chicago/1625-N-Mozart-St-60647/unit-2S/home/12657315,MRED,11712100,N,Y,41.9110817,-87.6978013
PAST SALE,May-3-2023,Condo/Co-op,912 N Wolcott Ave #2,Chicago,IL,60622,550000,2,2.0,CHI - West Town,1260,,2018,,437,173,Sold,,,https://www.redfin.com/IL/Chicago/912-N-Wolcott-Ave-60622/unit-2/home/144758599,MRED,11774152,N,Y,41.8982342,-87.6749984
PAST SALE,April-11-2023,Condo/Co-op,1915 N Damen Ave Unit C,Chicago,IL,60647,597000,2,2.0,CHI - Logan Square,1550,,2007,,385,293,Sold,,,https://www.redfin.com/IL/Chicago/1915-N-Damen-Ave-60647/unit-C/home/18928622,MRED,11756607,N,Y,41.9164578,-87.6772092
PAST SALE,,Condo/Co-op,300 N State St #5225,Chicago,IL,60654,148500,,,,,,,,,,,,,https://www.redfin.com/IL/Chicago/300-N-State-St-60654/unit-5225/home/14100467,,,N,Y,41.888374,-87.628794
PAST SALE,,Multi-Family (5+ Unit),2304 W Jackson Blvd Unit 1E,Chicago,IL,60612,472500,,,,,3927,,,,,,,,https://www.redfin.com/IL/Chicago/2304-W-Jackson-Blvd-60612/unit-1E/home/147877263,,,N,Y,41.8778085,-87.6840705
PAST SALE,May-5-2023,Condo/Co-op,594 Sheridan Sq #2,Evanston,IL,60202,175000,1,1.0,Evanston,,,1925,,,418,Sold,,,https://www.redfin.com/IL/Evanston/594-Sheridan-Sq-60202/unit-2/home/180164043,MRED,11756120,N,Y,42.0285972,-87.6695922
PAST SALE,,Condo/Co-op,6451D N Northwest Hwy Unit 2N,Chicago,IL,60631,222500,,,,,,,,,,,,,https://www.redfin.com/IL/Chicago/6451D-N-Northwest-Hwy-60631/unit-2N/home/13636152,,,N,Y,41.9983198,-87.8082214
PAST SALE,April-14-2023,Condo/Co-op,2249 W Foster Ave #3,Chicago,IL,60625,386000,2,2.0,CHI - Lincoln Square,,,2003,,,180,Sold,,,https://www.redfin.com/IL/Chicago/2249-W-Foster-Ave-60625/unit-3/home/12573310,MRED,11723811,N,Y,41.9757096,-87.6861876
PAST SALE,,Condo/Co-op,711 E Falcon Dr Unit E103,Arlington Heights,IL,60005,158000,,1.0,,1050,,,,150,,,,,https://www.redfin.com/IL/Arlington-Heights/711-E-Falcon-Dr-60005/unit-E103/home/13694096,,,N,Y,42.0439053,-87.9729601
PAST SALE,April-28-2023,Condo/Co-op,1524 W Jonquil Ter Unit 2W,Chicago,IL,60626,255000,2,1.0,CHI - Rogers Park,,,,,,239,Sold,,,https://www.redfin.com/IL/Chicago/1524-W-Jonquil-Ter-60626/unit-2W/home/12796058,MRED,11744465,N,Y,42.021399,-87.669188
PAST SALE,,Condo/Co-op,3256 N Washtenaw Ave,Chicago,IL,60618,400000,,,,,,,,,,,,,https://www.redfin.com/IL/Chicago/3256-N-Washtenaw-Ave-60618/home/12561423,,,N,Y,41.9411477,-87.6954393
PAST SALE,May-1-2023,Condo/Co-op,2852 W Lyndale St #2,Chicago,IL,60647,874000,3,2.5,CHI - Logan Square,,,2023,,,225,Sold,,,https://www.redfin.com/IL/Chicago/2852-W-Lyndale-St-60647/unit-2/home/185296689,MRED,11711846,N,Y,41.9225583,-87.6994058
PAST SALE,,Condo/Co-op,8923 Knight Ave #308,Des Plaines,IL,60016,116500,,,,900,,,,129,,,,,https://www.redfin.com/IL/Des-Plaines/8923-Knight-Ave-60016/unit-308/home/13672403,,,N,Y,42.0424759,-87.844769
PAST SALE,February-17-2023,Condo/Co-op,400 N La Salle St #4009,Chicago,IL,60654,318000,1,1.0,CHI - Near North Side,702,,2003,,453,556,Sold,,,https://www.redfin.com/IL/Chicago/400-N-La-Salle-Dr-60654/unit-4009/home/12603745,MRED,11689071,N,Y,41.8897707,-87.6329244
PAST SALE,March-1-2023,Condo/Co-op,132 E Delaware Pl #5801,Chicago,IL,60611,1800000,3,3.0,Bloomingdales,2500,,1988,,720,2101,Sold,,,https://www.redfin.com/IL/Chicago/132-E-Delaware-Pl-60611/unit-5801/home/14120439,MRED,11671467,N,Y,41.8994922,-87.6251109
PAST SALE,February-17-2023,Condo/Co-op,4250 N Marine Dr #2716,Chicago,IL,60613,315000,2,2.0,CHI - Uptown,1450,,1963,,217,,Sold,,,https://www.redfin.com/IL/Chicago/4250-N-Marine-Dr-60613/unit-2716/home/13396507,MRED,11683373,N,Y,41.9598845,-87.647122
PAST SALE,May-9-2023,Condo/Co-op,440 N Halsted St Unit 4A,Chicago,IL,60642,1125000,3,3.5,CHI - West Town,2400,,2016,,469,655,Sold,,,https://www.redfin.com/IL/Chicago/440-N-Halsted-St-60642/unit-4A/home/175653505,MRED,11720489,N,Y,41.8902644,-87.6479663
PAST SALE,April-28-2023,Condo/Co-op,2020 N Lincoln Park West Unit 36J,Chicago,IL,60614,292500,1,1.0,CHI - Lincoln Park,780,,1971,,375,691,Sold,,,https://www.redfin.com/IL/Chicago/2020-N-Lincoln-Park-W-60614/unit-36J/home/185292170,MRED,11745302,N,Y,41.9188778,-87.6366791
PAST SALE,March-2-2023,Condo/Co-op,304 N Grove Ave Unit 2B,Oak Park,IL,60302,306500,3,2.0,Oak Park,1550,,1928,,198,611,Sold,,,https://www.redfin.com/IL/Oak-Park/304-N-Grove-Ave-60302/unit-2B/home/13271207,MRED,11668170,N,Y,41.8915239,-87.795737
PAST SALE,April-21-2023,Condo/Co-op,7428 Washington St #202,Forest Park,IL,60130,145000,2,1.0,Forest Park,900,,1970,,161,281,Sold,,,https://www.redfin.com/IL/Forest-Park/7428-Washington-St-60130/unit-202/home/12605124,MRED,11725001,N,Y,41.8812059,-87.810496
PAST SALE,March-3-2023,Condo/Co-op,7707 W Irving Park Rd #410,Chicago,IL,60634,220000,2,2.0,Irving Park Terrace,900,,1987,,244,314,Sold,,,https://www.redfin.com/IL/Chicago/7707-W-Irving-Park-Rd-60634/unit-410/home/13544026,MRED,11703065,N,Y,41.952101,-87.819719
PAST SALE,February-15-2023,Condo/Co-op,500 W Superior St #602,Chicago,IL,60654,445000,2,2.0,CHI - Near North Side,1200,,1972,,371,1187,Sold,,,https://www.redfin.com/IL/Chicago/500-W-Superior-St-60654/unit-602/home/18947189,MRED,11720300,N,Y,41.895951,-87.642196
PAST SALE,March-9-2023,Condo/Co-op,6917 W Irving Park Rd Unit 2N,Chicago,IL,60634,130000,2,1.0,CHI - Dunning,1200,,1958,,108,,Sold,,,https://www.redfin.com/IL/Chicago/6917-W-Irving-Park-Rd-60634/unit-2N/home/12652998,MRED,11734914,N,Y,41.952482,-87.799478
PAST SALE,March-9-2023,Condo/Co-op,6917 W Irving Park Rd Unit 3N,Chicago,IL,60634,130000,2,1.0,CHI - Dunning,900,,1960,,144,283,Sold,,,https://www.redfin.com/IL/Chicago/6917-W-Irving-Park-Rd-60634/unit-3N/home/12659752,MRED,11734909,N,Y,41.952482,-87.799478
PAST SALE,March-20-2023,Condo/Co-op,2030 Rand Rd #104,Palatine,IL,60074,185500,2,1.0,Foxfire,,,1988,,,217,Sold,,,https://www.redfin.com/IL/Palatine/2030-N-Rand-Rd-60074/unit-104/home/12639159,MRED,11710291,N,Y,42.1449959,-88.0305407
PAST SALE,March-9-2023,Condo/Co-op,6917 W Irving Park Rd Unit 2S,Chicago,IL,60634,130000,2,1.0,CHI - Dunning,900,,1958,,144,179,Sold,,,https://www.redfin.com/IL/Chicago/6917-W-Irving-Park-Rd-60634/unit-2S/home/12663258,MRED,11734894,N,Y,41.952482,-87.799478
PAST SALE,March-15-2023,Condo/Co-op,373 Newport Ln Unit C2,Bartlett,IL,60103,181000,2,2.0,Hearthwood Farms,1100,,1988,,165,,Sold,,,https://www.redfin.com/IL/Bartlett/373-Newport-Ln-60103/unit-C2/home/40373634,MRED,11702951,N,Y,41.9881427,-88.169236
PAST SALE,,Condo/Co-op,2055 E 72nd St #2,Chicago,IL,60649,72000,,,,,,,,,,,,,https://www.redfin.com/IL/Chicago/2055-E-72nd-St-60649/unit-2/home/13923544,,,N,Y,41.7640413,-87.574012
PAST SALE,April-3-2023,Condo/Co-op,1255 N Sandburg Ter #2707,Chicago,IL,60610,192500,1,1.0,Sandburg Village,745,,1962,,258,584,Sold,,,https://www.redfin.com/IL/Chicago/1255-N-Sandburg-Ter-60610/unit-2707/home/184981503,MRED,11723758,N,Y,41.9054286,-87.6319398
PAST SALE,March-24-2023,Condo/Co-op,1939 N Humboldt Blvd Unit 1S,Chicago,IL,60647,659000,3,2.5,CHI - Logan Square,2000,,2017,,330,218,Sold,,,https://www.redfin.com/IL/Chicago/1939-N-Humboldt-Blvd-60647/unit-1S/home/184811362,MRED,11391011,N,Y,41.9167992,-87.7013299
PAST SALE,April-18-2023,Condo/Co-op,1410 N State St Unit 23A,Chicago,IL,60610,645000,3,2.5,CHI - Near North Side,2000,,1979,,323,1888,Sold,,,https://www.redfin.com/IL/Chicago/1410-N-State-Pkwy-60610/unit-23A/home/14113171,MRED,11688343,N,Y,41.9082456,-87.629251
PAST SALE,April-24-2023,Condo/Co-op,1033 S Racine Ave Unit 3NR,Chicago,IL,60607,690000,3,3.0,CHI - Near West Side,,,2015,,,210,Sold,,,https://www.redfin.com/IL/Chicago/1033-S-Racine-Ave-60607/unit-3NR/home/103185598,MRED,11728152,N,Y,41.8684752,-87.6564263
PAST SALE,February-16-2023,Condo/Co-op,305 S Racine Ave Unit 2C,Chicago,IL,60607,1016530,3,3.0,CHI - Near West Side,2160,,2021,,471,354,Sold,,,https://www.redfin.com/IL/Chicago/305-S-Racine-Ave-60607/unit-2C/home/175270777,MRED,11110999,N,Y,41.8775929,-87.6568178
PAST SALE,April-18-2023,Condo/Co-op,305 S Racine Ave Ph -B,Chicago,IL,60607,1846120,4,4.5,CHI - Near West Side,3103,,2021,,595,625,Sold,,,https://www.redfin.com/IL/Chicago/305-S-Racine-Ave-60607/unit-B/home/172525570,MRED,10788238,N,Y,41.8775929,-87.6568178
PAST SALE,May-4-2023,Condo/Co-op,1430 N Astor St Unit 13A,Chicago,IL,60610,500000,2,2.0,CHI - Near North Side,1600,,1972,,313,1820,Sold,,,https://www.redfin.com/IL/Chicago/1430-N-Astor-St-60610/unit-13A/home/14126355,MRED,11692340,N,Y,41.9085806,-87.6279494
PAST SALE,March-10-2023,Condo/Co-op,415 Franklin Ave Unit 5B,River Forest,IL,60305,200000,2,2.0,River Forest,1521,,1971,,131,348,Sold,,,https://www.redfin.com/IL/River-Forest/415-Franklin-Ave-60305/unit-5B/home/184592304,MRED,11702302,N,Y,41.8874087,-87.8171913
PAST SALE,February-24-2023,Condo/Co-op,1404 Ashton Ct Unit D1,Wheeling,IL,60090,244900,2,2.0,Arlington Club,,,1987,,,339,Sold,,,https://www.redfin.com/IL/Wheeling/1404-Ashton-Ct-60090/unit-D-1/home/49871697,MRED,11705114,N,Y,42.142403,-87.951611
PAST SALE,,Condo/Co-op,9803 W Creek Rd Unit B1,Palos Park,IL,60464,224500,,,,,,,,,,,,,https://www.redfin.com/IL/Palos-Park/9803-W-Creek-Rd-60464/unit-B1/home/13190926,,,N,Y,41.6550129,-87.8609479
PAST SALE,May-1-2023,Condo/Co-op,415 E North Water St #2706,Chicago,IL,60611,1800000,4,3.5,Riverview Condominiums,3500,,2005,,514,2120,Sold,,,https://www.redfin.com/IL/Chicago/415-E-North-Water-St-60611/unit-2706/home/185285421,MRED,11723780,N,Y,41.8893735,-87.6168504
PAST SALE,March-17-2023,Condo/Co-op,1602 Warwick Ct Unit A1,Wheeling,IL,60090,190000,1,1.0,Arlington Club,949,,1987,,200,281,Sold,,,https://www.redfin.com/IL/Wheeling/1602-Warwick-Ct-60090/unit-A1/home/13863816,MRED,11703443,N,Y,42.1436484,-87.9549674
PAST SALE,March-7-2023,Condo/Co-op,2916 N Damen Ave #2,Chicago,IL,60618,430000,2,2.0,CHI - North Center,,,2007,,,144,Sold,,,https://www.redfin.com/IL/Chicago/2916-N-Damen-Ave-60618/unit-2/home/13359484,MRED,11660810,N,Y,41.9346362,-87.6784839
PAST SALE,March-24-2023,Condo/Co-op,5100 Carriageway Dr Unit 205-1,Rolling Meadows,IL,60008,154000,2,1.0,Carriage Way,1100,,1967,,140,301,Sold,,,https://www.redfin.com/IL/Rolling-Meadows/5100-Carriage-Way-Dr-60008/unit-205-1/home/184835729,MRED,11727127,N,Y,42.0588444,-88.0138679
PAST SALE,May-9-2023,Condo/Co-op,2635 N Racine St #2,Chicago,IL,60614,557000,2,2.0,CHI - Lincoln Park,1669,,2003,,334,222,Sold,,,https://www.redfin.com/IL/Chicago/2635-N-Racine-Ave-60614/unit-2/home/12666078,MRED,11745843,N,Y,41.9299767,-87.6583006
PAST SALE,May-4-2023,Condo/Co-op,3300 N Lakewood Ave #1,Chicago,IL,60657,799000,4,2.5,CHI - Lake View,,,1996,,,300,Sold,,,https://www.redfin.com/IL/Chicago/3300-N-Lakewood-Ave-60657/unit-1/home/13381529,MRED,11746564,N,Y,41.9417251,-87.6617446
PAST SALE,May-5-2023,Condo/Co-op,2752 N Magnolia Ave Unit 1S,Chicago,IL,60614,1030000,4,3.0,CHI - Lincoln Park,2400,,2017,,429,347,Sold,,,https://www.redfin.com/IL/Chicago/2752-N-Magnolia-Ave-60614/unit-1S/home/171313049,MRED,11741361,N,Y,41.9322169,-87.660177
PAST SALE,April-25-2023,Condo/Co-op,1201 W Wrightwood Ave #2,Chicago,IL,60614,630000,2,2.0,Gaertner Residences,1200,,1926,,525,383,Sold,,,https://www.redfin.com/IL/Chicago/1201-W-Wrightwood-Ave-60614/unit-2/home/12716610,MRED,11720550,N,Y,41.9286447,-87.6589607
PAST SALE,,Condo/Co-op,4817 W 109th St #304,Oak Lawn,IL,60453,106000,,1.0,,,,,,,,,,,https://www.redfin.com/IL/Oak-Lawn/4817-W-109th-St-60453/unit-304/home/13146724,,,N,Y,41.6941421,-87.7426491
PAST SALE,February-28-2023,Condo/Co-op,10917 Lloyd Dr #8,Worth,IL,60482,98000,2,1.0,Worth,900,,1964,,109,251,Sold,,,https://www.redfin.com/IL/Worth/10917-S-Lloyd-Dr-60482/unit-8/home/184601718,MRED,11715026,N,Y,41.6930746,-87.7849607
PAST SALE,April-12-2023,Condo/Co-op,3100 N Kenmore Ave Unit 3H,Chicago,IL,60657,720000,3,2.5,CHI - Lake View,2000,,1924,,360,502,Sold,,,https://www.redfin.com/IL/Chicago/3100-N-Kenmore-Ave-60657/unit-3H/home/185082419,MRED,11715378,N,Y,41.938305,-87.6555032
PAST SALE,April-10-2023,Condo/Co-op,2835 N Lakewood Ave Unit 3B,Chicago,IL,60657,875000,3,2.5,Park View East,2205,,2004,,397,650,Sold,,,https://www.redfin.com/IL/Chicago/2835-N-Lakewood-Ave-60657/unit-3B/home/12651726,MRED,11714235,N,Y,41.9336034,-87.6609255
PAST SALE,March-16-2023,Condo/Co-op,1143 W Altgeld St #2,Chicago,IL,60614,1553856,4,4.0,CHI - Lincoln Park,,,2023,,,,Sold,,,https://www.redfin.com/IL/Chicago/1143-W-Altgeld-St-60614/unit-2/home/184952982,MRED,11752602,N,Y,41.9269345,-87.6576699
PAST SALE,March-27-2023,Condo/Co-op,3310 N Kenmore Ave Unit 1N,Chicago,IL,60657,702500,3,3.0,CHI - Lake View,2200,,1998,,319,234,Sold,,,https://www.redfin.com/IL/Chicago/3310-N-Kenmore-Ave-60657/unit-1N/home/12817757,MRED,11727399,N,Y,41.942081,-87.655743
PAST SALE,March-17-2023,Condo/Co-op,3023 N Ashland Ave Unit 3S,Chicago,IL,60657,550000,3,2.0,CHI - Lake View,,,2004,,,329,Sold,,,https://www.redfin.com/IL/Chicago/3023-N-Ashland-Ave-60657/unit-3S/home/144509708,MRED,11709798,N,Y,41.9367726,-87.6682441
PAST SALE,March-1-2023,Condo/Co-op,1424 W Cullom Ave #2,Chicago,IL,60613,231000,1,1.0,CHI - Lake View,,,1920,,,268,Sold,,,https://www.redfin.com/IL/Chicago/1424-W-Cullom-Ave-60613/unit-2/home/12674512,MRED,11700520,N,Y,41.960065,-87.665571
PAST SALE,February-24-2023,Condo/Co-op,7410 Dixon St #202,Forest Park,IL,60130,127000,1,1.0,Forest Park,,,1964,,,211,Sold,,,https://www.redfin.com/IL/Forest-Park/7410-Dixon-St-60130/unit-202/home/26809929,MRED,11681973,N,Y,41.8840058,-87.8102542
PAST SALE,April-28-2023,Condo/Co-op,2143 W Wellington Ave #304,Chicago,IL,60618,330000,2,1.0,CHI - North Center,,,2005,,,281,Sold,,,https://www.redfin.com/IL/Chicago/2143-W-Wellington-Ave-60618/unit-304/home/12593285,MRED,11744653,N,Y,41.9356825,-87.6824427
PAST SALE,,Single Family Residential,1024 Washington Blvd Unit 4S,Oak Park,IL,60302,625000,3,1.5,,1504,8010,1891,,416,,,,,https://www.redfin.com/IL/Oak-Park/1024-Washington-Blvd-60302/unit-4S/home/13270894,,,N,Y,41.8818034,-87.8010843
PAST SALE,March-13-2023,Condo/Co-op,151 N Kenilworth Ave Unit 1C,Oak Park,IL,60301,200000,2,2.0,Oak Park,1156,,1970,,173,467,Sold,,,https://www.redfin.com/IL/Oak-Park/151-N-Kenilworth-Ave-60301/unit-1C/home/13270759,MRED,11727504,N,Y,41.8890712,-87.7979275
PAST SALE,April-5-2023,Condo/Co-op,502 Beloit Ave Unit B1,Forest Park,IL,60130,108000,1,1.0,Morgan Court,750,,,,144,242,Sold,,,https://www.redfin.com/IL/Forest-Park/502-Beloit-Ave-60130/unit-B1/home/108540802,MRED,11736224,N,Y,41.8774923,-87.8117117
PAST SALE,April-27-2023,Condo/Co-op,1522 W School St Unit B,Chicago,IL,60657,535000,2,1.5,Henderson Square,,,1995,,,390,Sold,,,https://www.redfin.com/IL/Chicago/1522-W-School-St-60657/unit-B/home/13382284,MRED,11752177,N,Y,41.941999,-87.667646
PAST SALE,May-3-2023,Condo/Co-op,3520 N Bosworth Ave #2,Chicago,IL,60657,615500,2,2.0,CHI - Lake View,1200,,2017,,513,182,Sold,,,https://www.redfin.com/IL/Chicago/3520-N-Bosworth-Ave-60657/unit-2/home/171312819,MRED,11706435,N,Y,41.9458447,-87.6678032
PAST SALE,April-27-2023,Condo/Co-op,1423 W Fletcher St Unit CH,Chicago,IL,60657,495000,3,2.0,CHI - Lake View,,3125,,,,265,Sold,,,https://www.redfin.com/IL/Chicago/1423-W-Fletcher-St-60657/unit-CH/home/177424018,MRED,11299583,N,Y,41.9386807,-87.6647569
PAST SALE,April-6-2023,Condo/Co-op,305 S Racine Ave Ph -A,Chicago,IL,60607,2354394,5,5.0,CHI - Near West Side,3178,,2021,,741,682,Sold,,,https://www.redfin.com/IL/Chicago/305-S-Racine-Ave-60607/unit-A/home/172525572,MRED,10788235,N,Y,41.8775929,-87.6568178
PAST SALE,,Condo/Co-op,949 W Madison St #503,Chicago,IL,60607,669000,,,,,,,,,,,,,https://www.redfin.com/IL/Chicago/949-W-Madison-St-60607/unit-503/home/12780544,,,N,Y,41.8814923,-87.6517543
PAST SALE,,Condo/Co-op,1152 W Roscoe St Unit 1E,Chicago,IL,60657,445000,,,,,,,,,,,,,https://www.redfin.com/IL/Chicago/1152-W-Roscoe-St-60657/unit-1E/home/12593373,,,N,Y,41.9437058,-87.658691
PAST SALE,May-1-2023,Condo/Co-op,616 W Fulton St #617,Chicago,IL,60661,790000,2,2.5,CHI - Near West Side,1813,,,,436,869,Sold,,,https://www.redfin.com/IL/Chicago/616-W-Fulton-St-60661/unit-617/home/14101308,MRED,11710833,N,Y,41.887158,-87.643835
PAST SALE,,Condo/Co-op,111 E Chestnut St Unit 2000J,Chicago,IL,60611,365000,,,,1000,,,,365,,,,,https://www.redfin.com/IL/Chicago/111-E-Chestnut-St-60611/unit-2000J/home/14118335,,,N,Y,41.8978884,-87.6251938
PAST SALE,April-24-2023,Condo/Co-op,1413 W Farwell Ave Unit C2,Chicago,IL,60626,167000,2,1.0,CHI - Rogers Park,,,1920,,,,Sold,,,https://www.redfin.com/IL/Chicago/1413-W-Farwell-Ave-60626/unit-C2/home/52638926,MRED,11766848,N,Y,42.0063375,-87.6662767
PAST SALE,,Condo/Co-op,11 E Walton St #3201,Chicago,IL,60611,2750000,,,,,,,,,,,,,https://www.redfin.com/IL/Chicago/11-E-Walton-St-60611/unit-3201/home/21808597,,,N,Y,41.899701,-87.6276042
PAST SALE,May-2-2023,Condo/Co-op,1902 W Belmont Ave #2,Chicago,IL,60657,565000,3,2.0,CHI - North Center,1700,,2008,,332,187,Sold,,,https://www.redfin.com/IL/Chicago/1902-W-Belmont-Ave-60657/unit-2/home/13128456,MRED,11743915,N,Y,41.9398168,-87.6761996
PAST SALE,April-6-2023,Condo/Co-op,840 Weidner Rd #507,Buffalo Grove,IL,60089,435000,3,2.5,Delacourte Condominiums,2319,,2000,,188,583,Sold,,,https://www.redfin.com/IL/Buffalo-Grove/840-Weidner-Rd-60089/unit-507/home/12722543,MRED,11704734,N,Y,42.1400279,-87.9756139
PAST SALE,April-10-2023,Condo/Co-op,219 N Grove Ave #1,Oak Park,IL,60302,280000,2,1.0,Oak Park,1200,,,,233,,Sold,,,https://www.redfin.com/IL/Oak-Park/219-N-Grove-Ave-60302/unit-1/home/13271737,MRED,11680821,N,Y,41.8909755,-87.796377
PAST SALE,February-17-2023,Condo/Co-op,645 N Kingsbury St #1208,Chicago,IL,60654,455000,2,2.0,CHI - Near North Side,1225,,2002,,371,832,Sold,,,https://www.redfin.com/IL/Chicago/645-N-Kingsbury-St-60654/unit-1208/home/12698152,MRED,11711707,N,Y,41.8933258,-87.6411183
PAST SALE,February-21-2023,Condo/Co-op,5445 N Sheridan Rd #3806,Chicago,IL,60640,199900,1,1.0,Edgewater Beach,800,,1974,,250,568,Sold,,,https://www.redfin.com/IL/Chicago/5445-N-Sheridan-Rd-60640/unit-3806/home/13401546,MRED,11697875,N,Y,41.9813625,-87.6544907
PAST SALE,,Condo/Co-op,2115 W Farwell Ave #308,Chicago,IL,60645,98000,,,,,,,,,,,,,https://www.redfin.com/IL/Chicago/2115-W-Farwell-Ave-60645/unit-308/home/12622836,,,N,Y,42.0060016,-87.6846627
PAST SALE,March-15-2023,Condo/Co-op,55 W Delaware Pl #616,Chicago,IL,60610,1800000,4,3.5,CHI - Near North Side,3000,,1998,,600,1516,Sold,,,https://www.redfin.com/IL/Chicago/55-W-Delaware-Pl-60610/unit-616/home/12789029,MRED,11660874,N,Y,41.8981917,-87.6305548
PAST SALE,April-26-2023,Condo/Co-op,320 S Ridgeland Ave #1,Oak Park,IL,60302,218000,2,1.0,Oak Park,1100,,1903,,198,451,Sold,,,https://www.redfin.com/IL/Oak-Park/320-S-Ridgeland-Ave-60302/unit-1/home/183666406,MRED,11740064,N,Y,41.8825498,-87.7840799
PAST SALE,April-19-2023,Condo/Co-op,842 Hinman Ave #3,Evanston,IL,60202,111000,0,1.0,Evanston,,,,,,257,Sold,,,https://www.redfin.com/IL/Evanston/842-Hinman-Ave-60202/unit-3/home/13577122,MRED,11739073,N,Y,42.033367,-87.678274
PAST SALE,May-10-2023,Condo/Co-op,6147 N Sheridan Rd Unit 11A,Chicago,IL,60660,210000,2,2.0,CHI - Edgewater,1600,,1970,,131,815,Sold,,,https://www.redfin.com/IL/Chicago/6147-N-Sheridan-Rd-60660/unit-11A/home/13413238,MRED,11758229,N,Y,41.9935888,-87.655105
PAST SALE,April-28-2023,Condo/Co-op,404 S Elmwood Ave Unit 2S,Oak Park,IL,60302,170000,2,1.0,Oak Park,,,1971,,,334,Sold,,,https://www.redfin.com/IL/Oak-Park/404-S-Elmwood-Ave-60302/unit-2S/home/13268274,MRED,11730452,N,Y,41.881376,-87.78588
PAST SALE,,Condo/Co-op,817 Forest Ave Unit B,Evanston,IL,60202,170000,,,,,,,,,,,,,https://www.redfin.com/IL/Evanston/817-Forest-Ave-60202/unit-B/home/13577957,,,N,Y,42.0329499,-87.6734393
PAST SALE,,Condo/Co-op,1 E Schiller St Unit 14C,Chicago,IL,60610,280000,,,,,,,,,,,,,https://www.redfin.com/IL/Chicago/1-E-Schiller-St-60610/unit-14C/home/14125720,,,N,Y,41.907619,-87.6281771
PAST SALE,April-3-2023,Condo/Co-op,1817 W Armitage Ave #3,Chicago,IL,60622,405000,2,1.5,CHI - Logan Square,,,,,,125,Sold,,,https://www.redfin.com/IL/Chicago/1817-W-Armitage-Ave-60622/unit-3/home/12804322,MRED,11479607,N,Y,41.9176566,-87.6735931
PAST SALE,April-6-2023,Condo/Co-op,2614 W Chicago Ave #3,Chicago,IL,60622,705000,3,2.0,CHI - West Town,,,2023,,,285,Sold,,,https://www.redfin.com/IL/Chicago/2614-W-Chicago-Ave-60622/unit-3/home/184414672,MRED,11723026,N,Y,41.8959197,-87.6924864
PAST SALE,March-13-2023,Condo/Co-op,1500 W Wrightwood Ave #1,Chicago,IL,60614,1620000,4,3.5,CHI - Lincoln Park,,,2022,,,,Sold,,,https://www.redfin.com/IL/Chicago/1500-W-Wrightwood-Ave-60614/unit-1/home/179432690,MRED,11405503,N,Y,41.9289874,-87.6660951
PAST SALE,April-26-2023,Condo/Co-op,539 W Stratford Pl #204,Chicago,IL,60657,180000,1,1.0,CHI - Lake View,,,1965,,,370,Sold,,,https://www.redfin.com/IL/Chicago/539-W-Stratford-Pl-60657/unit-204/home/13375740,MRED,11732489,N,Y,41.9454022,-87.6433532
PAST SALE,May-1-2023,Condo/Co-op,539 W Roscoe St Unit G,Chicago,IL,60657,218000,1,1.0,CHI - Lake View,787,,1935,,277,,Sold,,,https://www.redfin.com/IL/Chicago/539-W-Roscoe-St-60657/unit-G/home/12772614,MRED,11762206,N,Y,41.9430196,-87.6435452
PAST SALE,April-7-2023,Condo/Co-op,1528 N Wood St #1,Chicago,IL,60622,923000,3,2.5,CHI - West Town,,,2023,,,225,Sold,,,https://www.redfin.com/IL/Chicago/1528-N-Wood-St-60622/unit-1/home/185015471,MRED,11644959,N,Y,41.909619,-87.672879
PAST SALE,March-9-2023,Condo/Co-op,6917 W Irving Park Rd Unit GS,Chicago,IL,60634,105000,1,1.0,CHI - Dunning,900,,1958,,117,,Sold,,,https://www.redfin.com/IL/Chicago/6917-W-Irving-Park-Rd-60634/unit-GS/home/12652999,MRED,11734883,N,Y,41.952482,-87.799478
PAST SALE,February-28-2023,Condo/Co-op,1436 W Elmdale Ave #2,Chicago,IL,60660,550000,3,2.5,CHI - Edgewater,2000,,,,275,186,Sold,,,https://www.redfin.com/IL/Chicago/1436-W-Elmdale-Ave-60660/unit-2/home/13415094,MRED,11707005,N,Y,41.9910395,-87.6666464
PAST SALE,April-21-2023,Condo/Co-op,1528 N Wood St #3,Chicago,IL,60622,749000,2,2.0,CHI - West Town,,,2023,,,200,Sold,,,https://www.redfin.com/IL/Chicago/1528-N-Wood-St-60622/unit-3/home/185192088,MRED,11645009,N,Y,41.909619,-87.672879
PAST SALE,March-10-2023,Condo/Co-op,1601 W School St #313,Chicago,IL,60657,330000,1,1.0,CHI - Lake View,,,,,,450,Sold,,,https://www.redfin.com/IL/Chicago/1601-W-School-St-60657/unit-313/home/13385754,MRED,11360817,N,Y,41.9422016,-87.6692559
PAST SALE,March-16-2023,Condo/Co-op,730 W Aldine Ave #1,Chicago,IL,60657,382500,2,2.0,CHI - Lake View,1004,,1901,,381,219,Sold,,,https://www.redfin.com/IL/Chicago/730-W-Aldine-Ave-60657/unit-1/home/39947898,MRED,11673154,N,Y,41.9420825,-87.6480889
PAST SALE,March-10-2023,Condo/Co-op,1215 W Granville Ave Unit 3A,Chicago,IL,60660,239999,2,1.0,CHI - Edgewater,1200,,1925,,200,434,Sold,,,https://www.redfin.com/IL/Chicago/1215-W-Granville-Ave-60660/unit-3A/home/26806897,MRED,11712346,N,Y,41.994352,-87.6612013
PAST SALE,May-2-2023,Condo/Co-op,4866 N Ashland Ave Unit 3E,Chicago,IL,60640,225000,2,1.0,CHI - Uptown,,,1920,,,323,Sold,,,https://www.redfin.com/IL/Chicago/4866-N-Ashland-Ave-60640/unit-3E/home/13402926,MRED,11733934,N,Y,41.9708653,-87.6700205
PAST SALE,April-25-2023,Condo/Co-op,1520 W Wilson Ave Unit 2W,Chicago,IL,60640,410000,2,2.0,CHI - Uptown,,,1906,,,300,Sold,,,https://www.redfin.com/IL/Chicago/1520-W-Wilson-Ave-60640/unit-2W/home/13394785,MRED,11742339,N,Y,41.9655108,-87.6686314
PAST SALE,February-16-2023,Condo/Co-op,3228 N Kenmore Ave #3,Chicago,IL,60657,745000,3,2.0,CHI - Lake View,,,1997,,,257,Sold,,,https://www.redfin.com/IL/Chicago/3228-N-Kenmore-Ave-60657/unit-3/home/12805775,MRED,11698027,N,Y,41.940762,-87.6556653
PAST SALE,March-17-2023,Condo/Co-op,7751 Bristol Park Dr Unit 1NE,Tinley Park,IL,60477,220000,2,2.0,Grafton Place,1500,,1996,,147,235,Sold,,,https://www.redfin.com/IL/Tinley-Park/7751-Bristol-Park-Dr-60477/unit-1NE/home/12730400,MRED,11709229,N,Y,41.5682405,-87.8042654
PAST SALE,April-26-2023,Condo/Co-op,3057 N Seminary Ave Unit 3N,Chicago,IL,60657,427000,2,1.0,CHI - Lake View,,,,,,340,Sold,,,https://www.redfin.com/IL/Chicago/3057-N-Seminary-Ave-60657/unit-3N/home/13364281,MRED,11748251,N,Y,41.9379244,-87.6563206
PAST SALE,April-10-2023,Condo/Co-op,807 Davis St #1610,Evanston,IL,60201,360000,1,1.0,Sherman Plaza,929,,2006,,388,405,Sold,,,https://www.redfin.com/IL/Evanston/807-Davis-St-60201/unit-1610/home/26802463,MRED,11716823,N,Y,42.0472535,-87.6825151
PAST SALE,April-7-2023,Condo/Co-op,606 Beach Ave,La Grange Park,IL,60526,239000,2,1.0,La Grange Park,1166,6000,1949,,205,,Sold,,,https://www.redfin.com/IL/La-Grange-Park/606-Beach-Ave-60526/home/13296047,MRED,11726692,N,Y,41.8257243,-87.8638785
PAST SALE,May-5-2023,Condo/Co-op,3323 N Paulina St Unit 2B,Chicago,IL,60657,304000,1,1.0,CHI - Lake View,,,1925,,,,Sold,,,https://www.redfin.com/IL/Chicago/3323-N-Paulina-St-60657/unit-2B/home/13384454,MRED,11776033,N,Y,41.9421085,-87.6710133
PAST SALE,April-28-2023,Condo/Co-op,1632 W Diversey Pkwy Unit 1W,Chicago,IL,60614,875000,4,2.5,CHI - Lake View,2600,,2010,,337,253,Sold,,,https://www.redfin.com/IL/Chicago/1632-W-Diversey-Pkwy-60614/unit-1W/home/45510735,MRED,11736899,N,Y,41.9326001,-87.6696617
PAST SALE,April-14-2023,Condo/Co-op,2630 N Windsor Dr #202,Arlington Heights,IL,60004,150000,1,1.0,Arlington Heights,,,1971,,,318,Sold,,,https://www.redfin.com/IL/Arlington-Heights/2630-N-Windsor-Dr-60004/unit-202/home/13847970,MRED,11742679,N,Y,42.123019,-87.967034
PAST SALE,May-5-2023,Condo/Co-op,1215 W Rosemont Ave #2,Chicago,IL,60660,285000,2,1.0,CHI - Edgewater,,,1920,,,326,Sold,,,https://www.redfin.com/IL/Chicago/1215-W-Rosemont-Ave-60660/unit-2/home/12707461,MRED,11744052,N,Y,41.9961945,-87.6612354
PAST SALE,May-9-2023,Condo/Co-op,1944 W Newport Ave #1,Chicago,IL,60657,402000,2,2.0,CHI - North Center,,,2008,,,354,Sold,,,https://www.redfin.com/IL/Chicago/1944-W-Newport-Ave-60657/unit-1/home/39562653,MRED,11720094,N,Y,41.9442304,-87.677972
PAST SALE,March-27-2023,Condo/Co-op,2231 N Leavitt St #3,Chicago,IL,60647,561335,2,2.0,CHI - Logan Square,2600,,2020,,216,186,Sold,,,https://www.redfin.com/IL/Chicago/2231-N-Leavitt-St-60647/unit-3/home/18925191,MRED,11710264,N,Y,41.9222604,-87.6823634
PAST SALE,March-29-2023,Condo/Co-op,2550 N Lakeview Ave Unit S801,Chicago,IL,60614,4400000,3,3.5,Lincoln Park 2550,3965,,2012,,1110,4388,Sold,,,https://www.redfin.com/IL/Chicago/2550-N-Lakeview-Ave-60614/unit-S801/home/64225747,MRED,11738135,N,Y,41.9292285,-87.6395349
PAST SALE,May-5-2023,Condo/Co-op,433 W Briar Pl Unit 9A,Chicago,IL,60657,860000,3,2.5,CHI - Lake View,2600,,1929,,331,900,Sold,,,https://www.redfin.com/IL/Chicago/433-W-Briar-Pl-60657/unit-9A/home/26808644,MRED,11721273,N,Y,41.9386231,-87.6409357
PAST SALE,March-27-2023,Condo/Co-op,2300 N Kimball Ave #3,Chicago,IL,60647,353000,2,2.0,CHI - Logan Square,,,,,,368,Sold,,,https://www.redfin.com/IL/Chicago/2300-N-Kimball-Ave-60647/unit-3/home/12639424,MRED,11711613,N,Y,41.9229618,-87.7124219
PAST SALE,March-17-2023,Condo/Co-op,5108 N Lincoln Ave #1,Chicago,IL,60625,435000,3,2.0,CHI - Lincoln Square,1700,,2007,,256,234,Sold,,,https://www.redfin.com/IL/Chicago/5108-N-Lincoln-Ave-60625/unit-1/home/18912639,MRED,11719278,N,Y,41.974356,-87.692469
PAST SALE,April-14-2023,Condo/Co-op,3350 N Southport Ave Unit 4N,Chicago,IL,60657,662500,2,2.0,CHI - Lake View,,,2002,,,230,Sold,,,https://www.redfin.com/IL/Chicago/3350-N-Southport-Ave-60657/unit-4N/home/12700128,MRED,11723352,N,Y,41.9431253,-87.6642524
PAST SALE,February-28-2023,Condo/Co-op,545 W Aldine St Unit 6C,Chicago,IL,60657,685000,2,2.0,CHI - Lake View,1846,,2000,,371,689,Sold,,,https://www.redfin.com/IL/Chicago/545-W-Aldine-Ave-60657/unit-6C/home/12741917,MRED,11650612,N,Y,41.9420995,-87.6436045
PAST SALE,April-17-2023,Condo/Co-op,2740 N Pine Grove Ave Unit 20A,Chicago,IL,60614,234000,1,1.0,CHI - Lincoln Park,770,,1974,,304,499,Sold,,,https://www.redfin.com/IL/Chicago/2740-N-Pine-Grove-Ave-60614/unit-20A/home/13369373,MRED,11751370,N,Y,41.9322617,-87.6412551
PAST SALE,March-21-2023,Condo/Co-op,100 N Regency Dr E #3,Arlington Heights,IL,60004,154000,1,1.5,Regent Park,,,1967,,,362,Sold,,,https://www.redfin.com/IL/Arlington-Heights/100-N-Regency-Dr-E-60004/unit-3/home/22857408,MRED,11714948,N,Y,42.0832756,-87.9475647
PAST SALE,April-14-2023,Condo/Co-op,2860 N Orchard St #502,Chicago,IL,60657,580000,2,2.0,CHI - Lake View,,,1998,,,511,Sold,,,https://www.redfin.com/IL/Chicago/2860-N-Orchard-St-60657/unit-502/home/12792809,MRED,11716665,N,Y,41.9345575,-87.6469743
PAST SALE,March-31-2023,Condo/Co-op,7347 W 79th Pl Unit 3A,Bridgeview,IL,60455,135500,2,2.0,Bridgeview,1499,,1980,,90,209,Sold,,,https://www.redfin.com/IL/Bridgeview/7347-W-79th-Pl-60455/unit-3A/home/14039360,MRED,11735866,N,Y,41.7468964,-87.8037265
PAST SALE,February-27-2023,Condo/Co-op,315 N Jefferson St #301,Chicago,IL,60661,650000,2,2.0,CHI - Near West Side,1300,,2000,,500,502,Sold,,,https://www.redfin.com/IL/Chicago/315-N-Jefferson-St-60661/unit-301/home/12725841,MRED,11703688,N,Y,41.8872765,-87.6425815
PAST SALE,May-5-2023,Condo/Co-op,3348 N Sheffield Ave Unit 1N,Chicago,IL,60657,645000,3,3.0,CHI - Lake View,2500,,2006,,258,,Sold,,,https://www.redfin.com/IL/Chicago/3348-N-Sheffield-Ave-60657/unit-1N/home/12589810,MRED,11718399,N,Y,41.943128,-87.654566
PAST SALE,February-27-2023,Condo/Co-op,200 E Delaware Pl Unit 31C,Chicago,IL,60611,499000,2,2.0,CHI - Near North Side,1550,,1973,,322,1843,Sold,,,https://www.redfin.com/IL/Chicago/200-E-Delaware-Pl-60611/unit-31C/home/14119629,MRED,11726729,N,Y,41.8995075,-87.6211813
PAST SALE,,Condo/Co-op,559 W Surf St,Chicago,IL,60657,210000,,,,,,,,,,,,,https://www.redfin.com/IL/Chicago/559-W-Surf-St-60657/home/13372116,,,N,Y,41.93395,-87.643736
PAST SALE,,Multi-Family (2-4 Unit),912 W Roscoe St #2,Chicago,IL,60657,1115000,6,3.0,,2472,3125,1884,,451,,,,,https://www.redfin.com/IL/Chicago/912-W-Roscoe-St-60657/unit-2/home/13382427,,,N,Y,41.9437896,-87.6524201
PAST SALE,March-1-2023,Condo/Co-op,600 N Fairbanks Ct #1605,Chicago,IL,60611,615000,2,2.0,CHI - Near North Side,1253,,2007,,491,725,Sold,,,https://www.redfin.com/IL/Chicago/600-N-Fairbanks-Ct-60611/unit-1605/home/39551799,MRED,11681793,N,Y,41.8927936,-87.6206433
PAST SALE,April-7-2023,Condo/Co-op,8650 Ferris Ave #202,Morton Grove,IL,60053,235000,2,2.0,Morton Grove,,,1973,,,368,Sold,,,https://www.redfin.com/IL/Morton-Grove/8650-Ferris-Ave-60053/unit-202/home/13615848,MRED,11704522,N,Y,42.0390484,-87.7851414
PAST SALE,March-30-2023,Condo/Co-op,211 N Harbor Dr #608,Chicago,IL,60601,1202000,3,2.5,CHI - Loop,1581,,2021,,760,1195,Sold,,,https://www.redfin.com/IL/Chicago/211-N-Harbor-Dr-60601/unit-608/home/184043331,MRED,11709230,N,Y,41.8864877,-87.6146074
PAST SALE,March-21-2023,Condo/Co-op,540 N Lake Shore Dr #324,Chicago,IL,60611,359904,2,1.0,CHI - Near North Side,1052,,1912,,342,1000,Sold,,,https://www.redfin.com/IL/Chicago/540-N-Lake-Shore-Dr-60611/unit-324/home/12584315,MRED,11742638,N,Y,41.8924498,-87.6152054
PAST SALE,April-4-2023,Condo/Co-op,505 N Lake Shore Dr #1113,Chicago,IL,60611,365000,1,1.0,CHI - Near North Side,1100,,1968,,332,696,Sold,,,https://www.redfin.com/IL/Chicago/505-N-Lake-Shore-Dr-60611/unit-1113/home/14095932,MRED,11730790,N,Y,41.8915839,-87.6126983
PAST SALE,,Condo/Co-op,1101 S State St Unit H1804,Chicago,IL,60605,315000,,,,,,,,,,,,,https://www.redfin.com/IL/Chicago/1101-S-State-St-60605/unit-H1804/home/26816211,,,N,Y,41.8689674,-87.6270061
PAST SALE,,Condo/Co-op,300 N State St #4533,Chicago,IL,60654,300000,,,,,,,,,,,,,https://www.redfin.com/IL/Chicago/300-N-State-St-60654/unit-4533/home/14100280,,,N,Y,41.888374,-87.628794
PAST SALE,February-27-2023,Condo/Co-op,531 W Addison St Unit 3N,Chicago,IL,60613,260000,2,1.0,CHI - Lake View,1035,,,,251,583,Sold,,,https://www.redfin.com/IL/Chicago/531-W-Addison-St-60613/unit-3N/home/13378379,MRED,11726758,N,Y,41.948086,-87.6446224
PAST SALE,May-11-2023,Condo/Co-op,1570 Elmwood Ave #1304,Evanston,IL,60201,1150000,3,2.5,Evanston,2629,,2009,,437,1382,Sold,,,https://www.redfin.com/IL/Evanston/1570-Elmwood-Ave-60201/unit-1304/home/21972280,MRED,11718835,N,Y,42.0463172,-87.6841335
PAST SALE,February-28-2023,Condo/Co-op,1109 W Washington Blvd Unit 4B,Chicago,IL,60607,2525000,3,3.5,CHI - Near West Side,,,2018,,,1803,Sold,,,https://www.redfin.com/IL/Chicago/1109-W-Washington-Blvd-60607/unit-4B/home/143578093,MRED,11715462,N,Y,41.8827137,-87.6549916
PAST SALE,March-20-2023,Condo/Co-op,1443 W Belmont Ave #1,Chicago,IL,60657,550200,2,2.0,CHI - Lake View,1650,,2007,,333,264,Sold,,,https://www.redfin.com/IL/Chicago/1443-W-Belmont-Ave-60657/unit-1/home/18931782,MRED,11717820,N,Y,41.9395384,-87.6655441
PAST SALE,,Condo/Co-op,2629 N Hampden Ct #209,Chicago,IL,60614,110000,,,,,,,,,,,,,https://www.redfin.com/IL/Chicago/2629-N-Hampden-Ct-60614/unit-209/home/13366651,,,N,Y,41.9301734,-87.640809
PAST SALE,April-14-2023,Condo/Co-op,1155 W Armitage Ave #202,Chicago,IL,60614,715000,2,2.0,CHI - Lincoln Park,1444,,1995,,495,731,Sold,,,https://www.redfin.com/IL/Chicago/1155-W-Armitage-Ave-60614/unit-202/home/13351799,MRED,11662554,N,Y,41.9178671,-87.6577505
PAST SALE,March-24-2023,Condo/Co-op,1429 N Paulina St Unit C,Chicago,IL,60622,685000,3,2.5,CHI - West Town,1774,,1998,,386,200,Sold,,,https://www.redfin.com/IL/Chicago/1429-N-Paulina-St-60622/unit-C/home/184835977,MRED,11712016,N,Y,41.9078074,-87.6698003
PAST SALE,April-18-2023,Condo/Co-op,2215 N Halsted St Unit 4N,Chicago,IL,60614,1533672,3,3.0,CHI - Lincoln Park,,,2022,,,375,Sold,,,https://www.redfin.com/IL/Chicago/2215-N-Halsted-St-60614/unit-4N/home/177930005,MRED,11308558,N,Y,41.922347,-87.6482846
PAST SALE,April-19-2023,Condo/Co-op,2215 N Halsted St Unit 4S,Chicago,IL,60614,1739439,4,3.5,CHI - Lincoln Park,,,2022,,,430,Sold,,,https://www.redfin.com/IL/Chicago/2215-N-Halsted-St-60614/unit-4S/home/177930007,MRED,11308552,N,Y,41.922347,-87.6482846
PAST SALE,April-26-2023,Condo/Co-op,1502 N Bosworth Ave Unit 3S,Chicago,IL,60642,531000,3,2.0,CHI - West Town,,,1997,,,176,Sold,,,https://www.redfin.com/IL/Chicago/1502-N-Bosworth-Ave-60642/unit-3S/home/12726189,MRED,11730197,N,Y,41.9090585,-87.6667694
PAST SALE,April-3-2023,Condo/Co-op,1510 N Greenview Ave Unit 3F,Chicago,IL,60642,345000,2,2.0,CHI - West Town,1350,,,,256,,Sold,,,https://www.redfin.com/IL/Chicago/1510-N-Greenview-Ave-60642/unit-3F/home/18919709,MRED,11719719,N,Y,41.9092364,-87.6654537
PAST SALE,April-3-2023,Condo/Co-op,1060 N Paulina St #2,Chicago,IL,60622,620000,2,2.5,CHI - West Town,,,2005,,,280,Sold,,,https://www.redfin.com/IL/Chicago/1060-N-Paulina-St-60622/unit-2/home/12604166,MRED,11726568,N,Y,41.9014453,-87.670196
PAST SALE,February-15-2023,Condo/Co-op,1601 N Paulina St Unit 3A,Chicago,IL,60622,555000,3,2.0,CHI - West Town,1784,,1999,,311,366,Sold,,,https://www.redfin.com/IL/Chicago/1601-N-Paulina-St-60622/unit-3A/home/12753291,MRED,11699139,N,Y,41.9108569,-87.6699021
PAST SALE,April-19-2023,Condo/Co-op,2215 N Halsted St Unit 3N,Chicago,IL,60614,1300000,3,3.0,CHI - Lincoln Park,,,2022,,,320,Sold,,,https://www.redfin.com/IL/Chicago/2215-N-Halsted-St-60614/unit-3N/home/182241847,MRED,11649312,N,Y,41.922347,-87.6482846
PAST SALE,March-30-2023,Condo/Co-op,1500 W Wrightwood Ave #2,Chicago,IL,60614,1150000,3,2.5,CHI - Lincoln Park,,,2022,,,,Sold,,,https://www.redfin.com/IL/Chicago/1500-W-Wrightwood-Ave-60614/unit-2/home/183918909,MRED,11370154,N,Y,41.9289845,-87.6660957
PAST SALE,April-12-2023,Condo/Co-op,1719 N Burling St Unit 4S,Chicago,IL,60614,1800000,3,2.5,CHI - Lincoln Park,,,2022,,,284,Sold,,,https://www.redfin.com/IL/Chicago/1719-N-Burling-St-60614/unit-4S/home/182101739,MRED,11643787,N,Y,41.9133356,-87.6468838
PAST SALE,March-15-2023,Condo/Co-op,2226 N Lincoln Ave Unit 4C,Chicago,IL,60614,565000,2,2.0,CHI - Lincoln Park,1400,,1996,,404,,Sold,,,https://www.redfin.com/IL/Chicago/2226-N-Lincoln-Ave-60614/unit-4C/home/13349027,MRED,11716695,N,Y,41.9223561,-87.6448142
PAST SALE,,Condo/Co-op,10430 Ridgeland Ave #8,Chicago Ridge,IL,60415,86500,,,,,,,,,,,,,https://www.redfin.com/IL/Chicago-Ridge/10430-Ridgeland-Ave-60415/unit-8/home/13140552,,,N,Y,41.702304,-87.7797159
PAST SALE,March-13-2023,Condo/Co-op,2500 N Orchard St Unit 2S,Chicago,IL,60614,599000,2,2.0,CHI - Lincoln Park,1500,,1895,,399,282,Sold,,,https://www.redfin.com/IL/Chicago/2500-N-Orchard-St-60614/unit-2S/home/13367924,MRED,11705834,N,Y,41.9279588,-87.6467285
PAST SALE,March-22-2023,Condo/Co-op,2743 N Wolcott Ave #39,Chicago,IL,60614,579150,3,2.5,CHI - Lincoln Park,2700,,1996,,215,404,Sold,,,https://www.redfin.com/IL/Chicago/2743-N-Wolcott-Ave-60614/unit-39/home/12805340,MRED,11687900,N,Y,41.9321008,-87.6746408
PAST SALE,April-21-2023,Condo/Co-op,1021 Peterson Ave #202,Park Ridge,IL,60068,345000,2,2.5,Park Ridge,1412,,2007,,244,165,Sold,,,https://www.redfin.com/IL/Park-Ridge/1021-Peterson-Ave-60068/unit-202/home/26803327,MRED,11731659,N,Y,41.9880755,-87.8393962
PAST SALE,April-28-2023,Condo/Co-op,1960 N Lincoln Park West #2309,Chicago,IL,60614,365000,1,1.0,CHI - Lincoln Park,,,1972,,,866,Sold,,,https://www.redfin.com/IL/Chicago/1960-N-Lincoln-Park-W-60614/unit-2309/home/13344470,MRED,11730443,N,Y,41.9180273,-87.6369341
PAST SALE,March-31-2023,Condo/Co-op,2020 N Lincoln Park West Unit 19A,Chicago,IL,60614,430000,2,2.0,CHI - Lincoln Park,,,1972,,,1093,Sold,,,https://www.redfin.com/IL/Chicago/2020-N-Lincoln-Park-W-60614/unit-19A/home/13347313,MRED,11736707,N,Y,41.9188778,-87.6366791
PAST SALE,March-10-2023,Condo/Co-op,6238 26th St #405,Berwyn,IL,60402,133000,1,1.0,Berwyn,900,,1998,,148,287,Sold,,,https://www.redfin.com/IL/Berwyn/6238-26th-St-60402/unit-405/home/12715904,MRED,11702983,N,Y,41.8433344,-87.7800568
PAST SALE,April-5-2023,Condo/Co-op,4174 N Clarendon Ave Unit 2S,Chicago,IL,60613,405000,3,2.0,CHI - Uptown,1600,,1906,,253,450,Sold,,,https://www.redfin.com/IL/Chicago/4174-N-Clarendon-Ave-60613/unit-2S/home/13392330,MRED,11716512,N,Y,41.9578238,-87.6501251
PAST SALE,April-14-2023,Condo/Co-op,5455 N Sheridan Rd #3905,Chicago,IL,60640,137000,0,1.0,CHI - Edgewater,600,,1970,,228,432,Sold,,,https://www.redfin.com/IL/Chicago/5455-N-Sheridan-Rd-60640/unit-3905/home/12555265,MRED,11735854,N,Y,41.9816886,-87.6547103
PAST SALE,,Condo/Co-op,2424 W Estes Ave Unit 1I,Chicago,IL,60645,99000,,,,,,,,,,,,,https://www.redfin.com/IL/Chicago/2424-W-Estes-Ave-60645/unit-1I/home/12564964,,,N,Y,42.0105943,-87.6915217
PAST SALE,February-17-2023,Condo/Co-op,915 W Belle Plaine Ave Unit G,Chicago,IL,60613,230000,2,1.0,CHI - Uptown,1200,,1909,,192,267,Sold,,,https://www.redfin.com/IL/Chicago/915-W-Belle-Plaine-Ave-60613/unit-G/home/12630228,MRED,11691941,N,Y,41.956507,-87.652735
PAST SALE,March-27-2023,Condo/Co-op,7377 N Rogers Ave #208,Chicago,IL,60626,285000,2,1.0,CHI - Rogers Park,1877,,,,152,259,Sold,,,https://www.redfin.com/IL/Chicago/7377-N-Rogers-Ave-60626/unit-208/home/18935931,MRED,11724091,N,Y,42.0152303,-87.6763837
PAST SALE,March-1-2023,Condo/Co-op,3243 N Seminary Ave #3,Chicago,IL,60657,517500,2,2.0,CHI - Lake View,1250,,2001,,414,227,Sold,,,https://www.redfin.com/IL/Chicago/3243-N-Seminary-Ave-60657/unit-3/home/12741951,MRED,11666346,N,Y,41.9411698,-87.6563308
PAST SALE,April-3-2023,Condo/Co-op,4907 N Winchester Ave #3,Chicago,IL,60640,550000,3,2.0,CHI - Lincoln Square,,,1911,,,161,Sold,,,https://www.redfin.com/IL/Chicago/4907-N-Winchester-Ave-60640/unit-3/home/105707472,MRED,11723890,N,Y,41.9709004,-87.6774028
PAST SALE,February-21-2023,Condo/Co-op,5057 N Sheridan Rd Unit 2S,Chicago,IL,60640,480000,3,2.0,CHI - Uptown,,,1917,,,508,Sold,,,https://www.redfin.com/IL/Chicago/5057-N-Sheridan-Rd-60640/unit-2S/home/13399864,MRED,11635530,N,Y,41.9750919,-87.6545952
PAST SALE,April-24-2023,Condo/Co-op,3924 N Southport Ave Unit 4S,Chicago,IL,60613,665000,3,2.0,CHI - Lake View,1700,,1997,,391,322,Sold,,,https://www.redfin.com/IL/Chicago/3924-N-Southport-Ave-60613/unit-4S/home/12793107,MRED,11720662,N,Y,41.9532859,-87.6644273
PAST SALE,March-1-2023,Condo/Co-op,911 W Altgeld St Unit 3E,Chicago,IL,60614,560000,2,2.0,CHI - Lincoln Park,,,1997,,,210,Sold,,,https://www.redfin.com/IL/Chicago/911-W-Altgeld-St-60614/unit-3E/home/12804429,MRED,11699093,N,Y,41.9269883,-87.6517534
PAST SALE,,Condo/Co-op,1720 S Michigan Ave #1807,Chicago,IL,60616,200000,,,,,,,,,,,,,https://www.redfin.com/IL/Chicago/1720-S-Michigan-Ave-60616/unit-1807/home/13136095,,,N,Y,41.8586026,-87.6246153
PAST SALE,February-24-2023,Condo/Co-op,1620 S Michigan Ave #511,Chicago,IL,60616,210000,1,1.0,CHI - Near South Side,700,,2003,,300,227,Sold,,,https://www.redfin.com/IL/Chicago/1620-S-Michigan-Ave-60616/unit-511/home/18913214,MRED,11665768,N,Y,41.859565,-87.6242683
PAST SALE,April-21-2023,Condo/Co-op,6807 W 13th St Unit 2M,Berwyn,IL,60402,87000,1,1.0,Berwyn,,,,,,137,Sold,,,https://www.redfin.com/IL/Berwyn/6807-13th-St-60402/unit-2M/home/185205688,MRED,11734728,N,Y,41.8634928,-87.7940851
PAST SALE,April-7-2023,Condo/Co-op,653 W Barry Ave Unit 3S,Chicago,IL,60657,640000,3,2.0,CHI - Lake View,,,1890,,,411,Sold,,,https://www.redfin.com/IL/Chicago/653-W-Barry-Ave-60657/unit-3S/home/13373387,MRED,11695099,N,Y,41.9376256,-87.646378
PAST SALE,,Condo/Co-op,110 E Delaware Pl,Chicago,IL,60611,245000,,,,,,,,,,,,,https://www.redfin.com/IL/Chicago/110-E-Delaware-Pl-60611/home/14119518,,,N,Y,41.899393,-87.625666
PAST SALE,March-10-2023,Condo/Co-op,723 W Diversey Pkwy Unit 2E,Chicago,IL,60614,735000,3,2.0,CHI - Lincoln Park,1800,,2008,,408,214,Sold,,,https://www.redfin.com/IL/Chicago/723-W-Diversey-Pkwy-60614/unit-2E/home/21725151,MRED,11716634,N,Y,41.9324856,-87.6476071
PAST SALE,March-1-2023,Condo/Co-op,1212 N Wells St #1101,Chicago,IL,60610,410000,2,2.0,CHI - Near North Side,,,2000,,,768,Sold,,,https://www.redfin.com/IL/Chicago/1212-N-Wells-St-60610/unit-1101/home/12715448,MRED,11707204,N,Y,41.9043498,-87.635045
PAST SALE,,Condo/Co-op,5310 N Chester Ave #206,Chicago,IL,60656,100000,,,,,,,,,,,,,https://www.redfin.com/IL/Chicago/5310-N-Chester-Ave-60656/unit-206/home/40374703,,,N,Y,41.9761677,-87.8400103
PAST SALE,April-30-2023,Condo/Co-op,2016 N Howe St Unit 2N,Chicago,IL,60614,875000,2,2.0,CHI - Lincoln Park,1400,,2018,,625,245,Sold,,,https://www.redfin.com/IL/Chicago/2016-N-Howe-St-60614/unit-2N/home/145771377,MRED,11719189,N,Y,41.9187979,-87.6451909
PAST SALE,March-29-2023,Condo/Co-op,545 W Roscoe St #1,Chicago,IL,60657,545000,3,2.0,CHI - Lake View,,,1925,,,641,Sold,,,https://www.redfin.com/IL/Chicago/545-W-Roscoe-St-60657/unit-1/home/12774072,MRED,11679612,N,Y,41.943085,-87.643712
PAST SALE,March-22-2023,Condo/Co-op,1823 N Sedgwick St Unit PHS,Chicago,IL,60614,2550000,3,3.0,CHI - Lincoln Park,,,2023,,,300,Sold,,,https://www.redfin.com/IL/Chicago/1823-N-Sedgwick-St-60614/unit-PHS/home/182991105,MRED,11677345,N,Y,41.9154213,-87.6384313
PAST SALE,March-1-2023,Condo/Co-op,333 W Hubbard St #606,Chicago,IL,60654,350000,1,1.0,CHI - Near North Side,,,1998,,,835,Sold,,,https://www.redfin.com/IL/Chicago/333-W-Hubbard-St-60654/unit-606/home/12767343,MRED,11705014,N,Y,41.8897282,-87.636144
PAST SALE,April-21-2023,Condo/Co-op,2114 N Spaulding Ave #2,Chicago,IL,60647,460000,3,2.0,CHI - Logan Square,1350,,,,341,320,Sold,,,https://www.redfin.com/IL/Chicago/2114-N-Spaulding-Ave-60647/unit-2/home/18932903,MRED,11727701,N,Y,41.919815,-87.7107319
PAST SALE,April-14-2023,Condo/Co-op,400 W Ontario St #502,Chicago,IL,60654,656250,2,2.0,Gallery 400,1700,,,,386,803,Sold,,,https://www.redfin.com/IL/Chicago/400-W-Ontario-St-60654/unit-502/home/12766764,MRED,11682740,N,Y,41.8934007,-87.638723
