SALE TYPE,SOLD DATE,PROPERTY TYPE,ADDRESS,CITY,STATE OR PROVINCE,ZIP OR POSTAL CODE,PRICE,BEDS,BATHS,LOCATION,SQUARE FEET,LOT SIZE,YEAR BUILT,DAYS ON MARKET,$/SQUARE FEET,HOA/MONTH,STATUS,NEXT OPEN HOUSE START TIME,NEXT OPEN HOUSE END TIME,URL (SEE https://www.redfin.com/buy-a-home/comparative-market-analysis FOR INFO ON PRICING),SOURCE,MLS#,FAVORITE,INTERESTED,LATITUDE,LONGITUDE
PAST SALE,October-24-2023,Condo/Co-op,1600 S Ocean Dr Unit 17C,Hollywood,FL,33019,378500,1,1.5,Allington Towers,900,,1971,,421,513,Sold,,,https://www.redfin.com/FL/Hollywood/1600-S-Ocean-Dr-33019/unit-17C/home/41963248,Beaches MLS,F10382081,N,Y,25.9999717,-80.1186725
PAST SALE,September-8-2023,Condo/Co-op,110 N Federal Hwy #616,Fort Lauderdale,FL,33301,527000,2,2.0,Waverly,1244,,2005,,424,1068,Sold,,,https://www.redfin.com/FL/Fort-Lauderdale/110-N-Federal-Hwy-33301/unit-616/home/42027061,Beaches MLS,F10392557,N,Y,26.1233048,-80.1369654
PAST SALE,September-15-2023,Condo/Co-op,1341 SE 3rd Ave #110,Dania Beach,FL,33004,340000,2,2.0,SHERIDAN EAST CONDO BLDG,1020,,1998,,333,553,Sold,,,https://www.redfin.com/FL/Dania/1341-SE-3rd-Ave-33004/unit-110/home/42028016,MARMLS,A11425465,N,Y,26.034706,-80.139638
PAST SALE,August-21-2023,Condo/Co-op,9450 Live Oak Pl #102,Davie,FL,33324,310000,2,2.0,LIVE OAK CONDO SEVEN,980,,1974,,316,568,Sold,,,https://www.redfin.com/FL/Davie/9450-Live-Oak-Pl-33324/unit-102/home/41767480,MARMLS,A11414137,N,Y,26.094318,-80.2786031
PAST SALE,October-17-2023,Condo/Co-op,5661 Riverside Dr Unit 306b7,Coral Springs,FL,33067,271000,2,2.0,Grand Oasis Condo,950,,1988,,285,607,Sold,,,https://www.redfin.com/FL/Coral-Springs/5661-Riverside-Dr-33067/unit-306B7/home/42022673,Beaches MLS,RX-10899415,N,Y,26.2984746,-80.2349632
PAST SALE,August-29-2023,Condo/Co-op,2401 Riverside Dr Unit 411-B,Coral Springs,FL,33065,140000,1,1.0,Tower Club,464,,1983,,302,200,Sold,,,https://www.redfin.com/FL/Coral-Springs/2401-Riverside-Dr-33065/unit-411-B/home/41430582,Beaches MLS,F10397536,N,Y,26.2602695,-80.2345275
PAST SALE,September-11-2023,Condo/Co-op,9676 W Mcnab Rd #110,Tamarac,FL,33321,190000,2,2.0,Tamarac Gardens,1170,,1988,,162,802,Sold,,,https://www.redfin.com/FL/Tamarac/9676-W-McNab-Rd-33321/unit-110/home/41556258,Beaches MLS,F10399738,N,Y,26.2068758,-80.2809884
PAST SALE,,Condo/Co-op,2200 S Ocean Ln #1608,Fort Lauderdale,FL,33316,1300000,2,2.0,,2005,,1971,,648,,,,,https://www.redfin.com/FL/Fort-Lauderdale/2200-S-Ocean-Ln-33316/unit-1608/home/41807847,,,N,Y,26.0959028,-80.1063464
PAST SALE,October-31-2023,Condo/Co-op,200 S Birch #1204,Fort Lauderdale,FL,33316,300000,1,1.0,Leisure Beach,,,1970,,,350,Sold,,,https://www.redfin.com/FL/Fort-Lauderdale/200-S-Birch-Rd-33316/unit-1204/home/41798368,Beaches MLS,F10396530,N,Y,26.1204536,-80.1066482
PAST SALE,,Condo/Co-op,4015 N University Dr #105,Sunrise,FL,33351,230000,3,2.0,,1580,,1975,,146,,,,,https://www.redfin.com/FL/Sunrise/4015-N-University-Dr-33351/unit-105/home/42055190,,,N,Y,26.1741148,-80.2565211
PAST SALE,,Condo/Co-op,340 Sunset Dr #1802,Fort Lauderdale,FL,33301,485000,2,2.0,,1228,,1971,,395,,,,,https://www.redfin.com/FL/Fort-Lauderdale/340-Sunset-Dr-33301/unit-1802/home/41802641,,,N,Y,26.1192869,-80.1133111
PAST SALE,,Condo/Co-op,2501 S Ocean Dr #408,Hollywood,FL,33019,442000,1,1.0,,745,,1968,,593,,,,,https://www.redfin.com/FL/Hollywood/2501-S-Ocean-Dr-33019/unit-408/home/42020944,,,N,Y,25.9972936,-80.1174716
PAST SALE,,Condo/Co-op,2072 Newport Q,Deerfield Beach,FL,33442,95000,1,2.0,,753,,1978,,126,,,,,https://www.redfin.com/FL/Deerfield-Beach/2072-Newport-Q-33442/home/41465405,,,N,Y,26.304624,-80.144956
PAST SALE,,Condo/Co-op,750 SW 138th Ave Unit 206F,Pembroke Pines,FL,33027,230000,2,2.0,,1030,,1994,,223,,,,,https://www.redfin.com/FL/Pembroke-Pines/750-SW-138th-Ave-33027/unit-206F/home/41848146,,,N,Y,26.0015672,-80.3301787
PAST SALE,,Condo/Co-op,12874 SW 31st St #142,Miramar,FL,33027,407000,3,3.0,,1747,,2002,,233,,,,,https://www.redfin.com/FL/Miramar/12874-SW-31st-St-33027/unit-142/home/42024777,,,N,Y,25.9804913,-80.3189893
PAST SALE,September-20-2023,Condo/Co-op,663 Vista Isles Dr #1725,Sunrise,FL,33325,225000,1,1.0,ISLES AT LAGO MAR CONDO,743,,1990,,303,286,Sold,,,https://www.redfin.com/FL/Plantation/663-Vista-Isles-Dr-33325/unit-1725/home/42059863,MARMLS,A11443584,N,Y,26.129062,-80.3169829
PAST SALE,August-22-2023,Condo/Co-op,3930 Inverrary Blvd Unit 103-D,Lauderhill,FL,33319,195000,2,2.0,18th Hole,1260,,1978,,155,573,Sold,,,https://www.redfin.com/FL/Lauderhill/3930-Inverrary-Blvd-33319/unit-103D/home/41583796,Beaches MLS,F10391641,N,Y,26.174291,-80.238377
PAST SALE,,Condo/Co-op,3730 Inverrary Dr Unit 2A,Lauderhill,FL,33319,115000,1,2.0,,800,,1973,,144,,,,,https://www.redfin.com/FL/Lauderhill/3730-Inverrary-Dr-33319/unit-2A/home/41589218,,,N,Y,26.1719027,-80.2252495
PAST SALE,,Condo/Co-op,2881 NE 33rd Ct Unit 10C,Fort Lauderdale,FL,33306,430000,2,2.0,,1250,,1970,,344,,,,,https://www.redfin.com/FL/Fort-Lauderdale/2881-NE-33rd-Ct-33306/unit-10C/home/41673253,,,N,Y,26.1697623,-80.1056483
PAST SALE,August-25-2023,Condo/Co-op,2930 NW 55th Ave Unit 1A,Lauderhill,FL,33313,118000,1,1.5,STONEBRIDGE GARDENS SECT,840,,1974,,140,287,Sold,,,https://www.redfin.com/FL/Lauderhill/2930-NW-55th-Ave-33313/unit-1A/home/41601716,MARMLS,A11442594,N,Y,26.1641345,-80.2205612
PAST SALE,,Condo/Co-op,3010 N Course Dr #908,Pompano Beach,FL,33069,90000,1,2.0,,1130,,1973,,80,,,,,https://www.redfin.com/FL/Pompano-Beach/3010-N-Course-Dr-33069/unit-908/home/41640995,,,N,Y,26.2247482,-80.1653162
PAST SALE,,Condo/Co-op,9250 W Atlantic Blvd #916,Coral Springs,FL,33071,290000,3,2.0,,1263,,1991,,230,,,,,https://www.redfin.com/FL/Coral-Springs/9250-W-Atlantic-Blvd-33071/unit-916/home/42022096,,,N,Y,26.2368412,-80.2476159
PAST SALE,October-30-2023,Condo/Co-op,6075 N Sabal Palm Blvd #313,Tamarac,FL,33319,115000,2,1.0,Gardens OF Sabal Palms,970,,1980,,119,356,Sold,,,https://www.redfin.com/FL/Tamarac/6075-N-Sabal-Palm-Blvd-33319/unit-313/home/41567010,Beaches MLS,RX-10932153,N,Y,26.1992695,-80.2176395
PAST SALE,August-24-2023,Condo/Co-op,1100 NE 9th Ave #207,Fort Lauderdale,FL,33304,137000,1,1.0,Southdale Condo,680,,1979,,201,379,Sold,,,https://www.redfin.com/FL/Fort-Lauderdale/1100-NE-9th-Ave-33304/unit-207/home/41691466,Beaches MLS,F10392038,N,Y,26.1392285,-80.1341571
PAST SALE,October-19-2023,Condo/Co-op,536 Woodgate Cir Unit D,Sunrise,FL,33326,445000,3,2.5,WOODGATE CONDOMINIUM 45,1400,,1990,,318,375,Sold,,,https://www.redfin.com/FL/Sunrise/536-Woodgate-Cir-33326/unit-D/home/41733813,MARMLS,A11449718,N,Y,26.1153284,-80.3542501
PAST SALE,,Condo/Co-op,941 Crystal Lake Dr #201,Deerfield Beach,FL,33064,235000,2,2.0,,996,,1966,,236,,,,,https://www.redfin.com/FL/Deerfield-Beach/941-Crystal-Lake-Dr-33064/unit-201/home/41482681,,,N,Y,26.2779309,-80.1366215
PAST SALE,,Condo/Co-op,1361 S Ocean Blvd #301,Pompano Beach,FL,33062,371640,2,2.0,,1460,,1981,,255,,,,,https://www.redfin.com/FL/Pompano-Beach/1361-S-Ocean-Blvd-33062/unit-301/home/41704155,,,N,Y,26.2193525,-80.0923298
PAST SALE,,Condo/Co-op,2304 S Cypress Bend Dr #212,Pompano Beach,FL,33069,174000,1,2.0,,2000,,1974,,87,,,,,https://www.redfin.com/FL/Pompano-Beach/2304-S-Cypress-Bend-Dr-33069/unit-212/home/41632674,,,N,Y,26.2142319,-80.1520339
PAST SALE,August-25-2023,Condo/Co-op,2922 NW 55th Ave Unit 1C,Lauderhill,FL,33313,147000,2,2.0,STONEBRIDGE GARDENS SECT,1070,,1974,,137,636,Sold,,,https://www.redfin.com/FL/Lauderhill/2922-NW-55th-Ave-33313/unit-1C/home/42084786,MARMLS,A11441472,N,Y,26.1634157,-80.2203981
PAST SALE,,Condo/Co-op,13250 SW 7th Ct Unit 406L,Pembroke Pines,FL,33027,,2,2.0,,953,,1985,,,,Sold,,,https://www.redfin.com/FL/Pembroke-Pines/13250-SW-7th-Ct-33027/unit-406L/home/41842958,MARMLS,,N,Y,26.0048882,-80.3239943
PAST SALE,,Condo/Co-op,2950 NW 46th Ave Unit 108A,Lauderdale Lakes,FL,33313,90000,2,2.0,,1021,,1972,,88,,,,,https://www.redfin.com/FL/Lauderdale-Lakes/2950-NW-46th-Ave-33313/unit-108A/home/41599308,,,N,Y,26.162047,-80.2089372
PAST SALE,,Condo/Co-op,3750 Inverrary Dr Unit 1O,Lauderhill,FL,33319,138000,1,2.0,,800,,1974,,173,,,,,https://www.redfin.com/FL/Lauderhill/3750-Inverrary-Dr-33319/unit-1O/home/41590166,,,N,Y,26.1720297,-80.2275572
PAST SALE,October-27-2023,Condo/Co-op,1330 NW 43rd Ave #102,Lauderhill,FL,33313,127000,2,2.0,Park South,930,,1969,,137,353,Sold,,,https://www.redfin.com/FL/Lauderhill/1330-NW-43rd-Ave-33313/unit-102/home/41628051,Beaches MLS,F10397859,N,Y,26.1438066,-80.2067408
PAST SALE,,Condo/Co-op,13250 SW 7th Ct Unit L218,Pembroke Pines,FL,33027,200000,2,2.0,,1166,,1985,,172,,,,,https://www.redfin.com/FL/Pembroke-Pines/13250-SW-7th-Ct-33027/unit-L218/home/41843603,,,N,Y,26.0048882,-80.3239943
PAST SALE,,Condo/Co-op,850 E Commercial Blvd Unit 145F,Oakland Park,FL,33334,180000,2,1.0,,830,,1973,,217,,,,,https://www.redfin.com/FL/Oakland-Park/850-E-Commercial-Blvd-33334/unit-145F/home/42037537,,,N,Y,26.1885614,-80.1363709
PAST SALE,,Condo/Co-op,1515 E Broward Blvd #216,Fort Lauderdale,FL,33301,275000,1,1.0,,660,,1966,,417,,,,,https://www.redfin.com/FL/Fort-Lauderdale/1515-E-Broward-Blvd-33301/unit-216/home/42020034,,,N,Y,26.1232195,-80.1275488
PAST SALE,,Condo/Co-op,1480 E Sample Rd #101,Pompano Beach,FL,33064,140000,2,1.0,,840,,1967,,167,,,,,https://www.redfin.com/FL/Pompano-Beach/1480-E-Sample-Rd-33064/unit-101/home/41494587,,,N,Y,26.275132,-80.103346
PAST SALE,,Condo/Co-op,4113 NW 88th Ave #103,Coral Springs,FL,33065,149000,2,2.0,,1085,,1974,,137,,,,,https://www.redfin.com/FL/Coral-Springs/4113-NW-88th-Ave-33065/unit-103/home/41418204,,,N,Y,26.2824712,-80.2423809
PAST SALE,October-3-2023,Condo/Co-op,7100 Radice Ct #604,Lauderhill,FL,33319,190000,2,2.0,Environ Towers,1384,,1982,,137,669,Sold,,,https://www.redfin.com/FL/Lauderhill/7100-Radice-Ct-33319/unit-604/home/41583561,Beaches MLS,F10397892,N,Y,26.1739449,-80.2466381
PAST SALE,,Condo/Co-op,101 NE 41st St Unit E72,Oakland Park,FL,33334,69000,2,1.0,,590,,1978,,117,,,,,https://www.redfin.com/FL/Oakland-Park/101-NE-41st-St-33334/unit-E72/home/42063049,,,N,Y,26.1784913,-80.1456115
PAST SALE,,Condo/Co-op,311 SE 3rd St #106,Dania,FL,33004,300000,2,2.0,,1190,,1981,,252,,,,,https://www.redfin.com/FL/Dania/311-SE-3rd-St-33004/unit-106/home/41921759,,,N,Y,26.0483138,-80.1383552
PAST SALE,,Condo/Co-op,3421 Merrick Ln #602,Margate,FL,33063,370000,3,3.0,,1536,,2004,,241,,,,,https://www.redfin.com/FL/Margate/3421-Merrick-Ln-33063/unit-602/home/42032594,,,N,Y,26.2693241,-80.2003833
PAST SALE,,Condo/Co-op,2002 Belmont Ln #2002,North Lauderdale,FL,33068,209000,1,1.0,,878,,2004,,238,,,,,https://www.redfin.com/FL/North-Lauderdale/2002-Belmont-Ln-33068/unit-2002/home/42017117,,,N,Y,26.204552,-80.232567
PAST SALE,,Condo/Co-op,141 SE 3rd Ave #207,Dania,FL,33004,220000,2,2.0,,1190,,1980,,185,,,,,https://www.redfin.com/FL/Dania/141-SE-3rd-Ave-33004/unit-207/home/41821221,,,N,Y,26.0491869,-80.1389009
PAST SALE,,Condo/Co-op,381 Tilford R,Deerfield Beach,FL,33442,105000,1,2.0,,708,,1978,,148,,,,,https://www.redfin.com/FL/Deerfield-Beach/381-Tilford-R-33442/home/41463417,,,N,Y,26.3110225,-80.1508413
PAST SALE,,Condo/Co-op,5601 Coral Lake Dr #101,Margate,FL,33063,162000,2,2.0,,1090,,1979,,149,,,,,https://www.redfin.com/FL/Margate/5601-Coral-Lake-Dr-33063/unit-101/home/41483003,,,N,Y,26.26498,-80.1973858
PAST SALE,,Condo/Co-op,3301 Spanish Moss Ter #306,Lauderhill,FL,33319,100000,2,2.0,,1105,,1971,,90,,,,,https://www.redfin.com/FL/Lauderhill/3301-Spanish-Moss-Ter-33319/unit-306/home/41586068,,,N,Y,26.1672668,-80.2344404
PAST SALE,,Condo/Co-op,12550 SW 15th St Unit 408E,Pembroke Pines,FL,33027,220000,2,2.0,,1207,,1995,,182,,,,,https://www.redfin.com/FL/Pembroke-Pines/12550-SW-15th-St-33027/unit-408E/home/41846395,,,N,Y,25.9946715,-80.3136207
PAST SALE,August-18-2023,Condo/Co-op,16135 Emerald Estates Dr #468,Weston,FL,33331,589000,2,2.5,THE PALMS,1529,,2005,,385,1233,Sold,,,https://www.redfin.com/FL/Weston/16135-Emerald-Estates-Dr-33331/unit-468/home/42063932,MARMLS,A11420362,N,Y,26.0674346,-80.3657186
PAST SALE,October-2-2023,Condo/Co-op,801 N Ocean Blvd #804,Pompano Beach,FL,33062,350000,2,2.0,Gabriel Towers Condo,933,,1977,,375,505,Sold,,,https://www.redfin.com/FL/Pompano-Beach/801-N-Ocean-Blvd-33062/unit-804/home/41527620,Beaches MLS,RX-10918363,N,Y,26.2450516,-80.0879183
PAST SALE,,Condo/Co-op,284 Ventnor S,Deerfield Beach,FL,33442,80000,1,2.0,,708,,1978,,113,,,,,https://www.redfin.com/FL/Deerfield-Beach/284-Ventnor-S-33442/home/41465745,,,N,Y,26.314333,-80.143489
PAST SALE,September-8-2023,Condo/Co-op,551 N Fort Lauderdale Beach Blvd Unit H907,Fort Lauderdale,FL,33304,450000,0,1.0,Ocean Resort,579,,2009,,777,1435,Sold,,,https://www.redfin.com/FL/Fort-Lauderdale/551-N-Beach-Blvd-33304/unit-H907/home/63058511,Beaches MLS,F10399201,N,Y,26.1308727,-80.1040339
PAST SALE,August-15-2023,Condo/Co-op,1461 S Ocean Blvd #329,Pompano Beach,FL,33062,382000,2,2.0,North Leisure Gardens,920,,1967,,415,592,Sold,,,https://www.redfin.com/FL/Pompano-Beach/1461-S-Ocean-Blvd-33062/unit-329/home/41695631,Beaches MLS,F10388902,N,Y,26.2133304,-80.0937796
PAST SALE,,Condo/Co-op,3070 NW 48th Ter #405,Lauderdale Lakes,FL,33313,110000,2,2.0,,960,,1979,,115,,,,,https://www.redfin.com/FL/Lauderdale-Lakes/3070-NW-48th-Ter-33313/unit-405/home/41597579,,,N,Y,26.1640419,-80.215052
PAST SALE,,Condo/Co-op,12276 Royal Palm Blvd Unit A-7,Coral Springs,FL,33065,237000,2,2.0,,629,,1993,,377,,,,,https://www.redfin.com/FL/Coral-Springs/12276-Royal-Palm-Blvd-33065/unit-A-7/home/42021807,,,N,Y,26.258848,-80.2891759
PAST SALE,October-9-2023,Condo/Co-op,2681 N Flamingo Rd Unit 1206S,Sunrise,FL,33323,325000,2,2.0,TAO SAWGRASS CONDOMINIUM,1165,,2009,,279,1078,Sold,,,https://www.redfin.com/FL/Sunrise/2681-N-Flamingo-Rd-33323/unit-1206S/home/42077743,MARMLS,A11457140,N,Y,26.1575902,-80.3155497
PAST SALE,,Condo/Co-op,2100 S Ocean Ln #508,Fort Lauderdale,FL,33316,760000,2,2.0,,1823,,1969,,417,,,,,https://www.redfin.com/FL/Fort-Lauderdale/2100-S-Ocean-Ln-33316/unit-508/home/41805423,,,N,Y,26.0965298,-80.1068264
PAST SALE,,Condo/Co-op,4311 NW 16th St Unit B111,Lauderhill,FL,33313,55500,2,2.0,,867,,1968,,64,,,,,https://www.redfin.com/FL/Lauderhill/4311-NW-16th-St-33313/unit-B111/home/41631958,,,N,Y,26.147084,-80.208111
PAST SALE,,Condo/Co-op,10781 Cleary Blvd #103,Plantation,FL,33324,210000,2,1.0,,940,,1990,,223,,,,,https://www.redfin.com/FL/Plantation/10781-Cleary-Blvd-33324/unit-103/home/42020980,,,N,Y,26.1334409,-80.2921026
PAST SALE,,Condo/Co-op,4384 NW 9th Ave Unit 19-1D,Deerfield Beach,FL,33064,210000,2,2.0,,1040,,1987,,202,,,,,https://www.redfin.com/FL/Deerfield-Beach/4384-NW-9th-Ave-33064/unit-19-1D/home/41480484,,,N,Y,26.283701,-80.134083
PAST SALE,,Condo/Co-op,5200 N Ocean Blvd Unit 210B,Lauderdale By The Sea,FL,33308,475000,2,2.0,,1200,,1971,,396,,,,,https://www.redfin.com/FL/Lauderdale-by-the-Sea/5200-N-Ocean-Blvd-33308/unit-210B/home/41704464,,,N,Y,26.2010003,-80.0946293
PAST SALE,,Condo/Co-op,57 Deer Creek Rd Unit F105,Deerfield Beach,FL,33442,220000,1,1.0,,800,,1983,,275,,,,,https://www.redfin.com/FL/Deerfield-Beach/57-Deer-Creek-Rd-33442/unit-F105/home/41465189,,,N,Y,26.3183744,-80.1447056
PAST SALE,,Condo/Co-op,811 NE 14th Pl #8,Fort Lauderdale,FL,33304,178000,1,1.0,,540,,1969,,330,,,,,https://www.redfin.com/FL/Fort-Lauderdale/811-NE-14th-Pl-33304/unit-8/home/42073853,,,N,Y,26.1456957,-80.1352039
PAST SALE,October-27-2023,Condo/Co-op,3000 NE 16th Ave #313,Oakland Park,FL,33334,140000,1,1.0,River Shores,600,,1966,,233,372,Sold,,,https://www.redfin.com/FL/Oakland-Park/3000-NE-16th-Ave-33334/unit-313/home/41674957,Beaches MLS,F10400628,N,Y,26.1650757,-80.1252174
PAST SALE,,Condo/Co-op,3500 NW 48th Ave #614,Lauderdale Lakes,FL,33319,130000,2,2.0,,944,,1973,,138,,,,,https://www.redfin.com/FL/Lauderdale-Lakes/3500-NW-48th-Ave-33319/unit-614/home/41594514,,,N,Y,26.1714909,-80.2129813
PAST SALE,,Condo/Co-op,8810 W McNab Rd #103,Tamarac,FL,33321,85000,1,1.0,,730,,1977,,116,,,,,https://www.redfin.com/FL/Tamarac/8810-W-McNab-Rd-33321/unit-103/home/41561552,,,N,Y,26.207259,-80.268839
PAST SALE,,Condo/Co-op,2121 NE 42nd Ct Unit 103C,Lighthouse Point,FL,33064,160000,2,2.0,,960,,1965,,167,,,,,https://www.redfin.com/FL/Lighthouse-Point/2121-NE-42nd-Ct-33064/unit-103C/home/41515443,,,N,Y,26.2841978,-80.0945342
PAST SALE,September-29-2023,Condo/Co-op,2631 NE 14th Ave #304,Wilton Manors,FL,33334,375000,1,2.0,Wilton Station,1082,,2007,,347,779,Sold,,,https://www.redfin.com/FL/Wilton-Manors/2631-NE-14th-Ave-33334/unit-304/home/42054801,Beaches MLS,F10391513,N,Y,26.161008,-80.130465
PAST SALE,,Condo/Co-op,7175 Orange Dr Unit 209H,Davie,FL,33314,196000,2,2.0,,1080,,1974,,181,,,,,https://www.redfin.com/FL/Davie/7175-Orange-Dr-33314/unit-209H/home/41776038,,,N,Y,26.0667028,-80.2417504
PAST SALE,,Condo/Co-op,2631 NE 14th Ave #217,Wilton Manors,FL,33334,395000,1,2.0,,975,,2005,,405,,,,,https://www.redfin.com/FL/Wilton-Manors/2631-NE-14th-Ave-33334/unit-217/home/42058959,,,N,Y,26.161008,-80.130465
PAST SALE,,Condo/Co-op,3140 S Ocean Dr Ph 2,Hallandale Beach,FL,33009,360000,1,1.0,,836,,1979,,431,,,,,https://www.redfin.com/FL/Hallandale-Beach/3140-S-Ocean-Dr-33009/unit-2/home/41970142,,,N,Y,25.9763784,-80.1192168
PAST SALE,,Condo/Co-op,8510 Sunrise Lakes Blvd #108,Sunrise,FL,33322,110000,1,1.0,,640,,1974,,172,,,,,https://www.redfin.com/FL/Sunrise/8510-Sunrise-Lakes-Blvd-33322/unit-108/home/41609900,,,N,Y,26.1636727,-80.2662378
PAST SALE,October-6-2023,Condo/Co-op,1750 NE 39th Ct #807,Pompano Beach,FL,33064,314900,2,2.0,Lighthouse Condo,1250,,1984,,252,129,Sold,,,https://www.redfin.com/FL/Pompano-Beach/1750-NE-39th-Ct-33064/unit-807/home/41518817,Beaches MLS,F10403503,N,Y,26.2792976,-80.0995568
PAST SALE,,Condo/Co-op,209 N Fort Lauderdale Beach Blvd Unit 4G,Fort Lauderdale,FL,33304,350000,1,2.0,,730,,1981,,479,,,,,https://www.redfin.com/FL/Fort-Lauderdale/209-N-Fort-Lauderdale-Beach-Blvd-33304/unit-4G/home/41786308,,,N,Y,26.1256166,-80.1039903
PAST SALE,,Condo/Co-op,1701 Washington St #603,Hollywood,FL,33020,170000,1,2.0,,753,,1970,,226,,,,,https://www.redfin.com/FL/Hollywood/1701-Washington-St-33020/unit-603/home/41941092,,,N,Y,26.0044562,-80.1410842
PAST SALE,September-6-2023,Condo/Co-op,711 SW 111th Way #304,Pembroke Pines,FL,33025,230000,1,1.0,DEVONAIRE CONDO AT PEMBRO,742,,2002,,310,500,Sold,,,https://www.redfin.com/FL/Pembroke-Pines/711-SW-111th-Way-33025/unit-304/home/42065267,MARMLS,A11413629,N,Y,26.0018307,-80.2952372
PAST SALE,,Condo/Co-op,1828 Hammock Blvd #227,Coconut Creek,FL,33063,260000,2,2.0,,1238,,1985,,210,,,,,https://www.redfin.com/FL/Coconut-Creek/1828-Hammock-Blvd-33063/unit-227/home/41500162,,,N,Y,26.2504878,-80.190991
PAST SALE,September-11-2023,Condo/Co-op,2200 NE 66th St #1404,Fort Lauderdale,FL,33308,170000,2,2.0,Imperial Point Colonnades,1100,,1971,,155,520,Sold,,,https://www.redfin.com/FL/Fort-Lauderdale/2200-NE-66th-St-33308/unit-1404/home/41650392,Beaches MLS,F10384052,N,Y,26.2089618,-80.1117168
PAST SALE,,Condo/Co-op,3140 S Ocean Dr #1501,Hallandale Beach,FL,33009,275000,1,1.0,,920,,1979,,299,,,,,https://www.redfin.com/FL/Hallandale-Beach/3140-S-Ocean-Dr-33009/unit-1501/home/41971560,,,N,Y,25.9763784,-80.1192168
PAST SALE,October-5-2023,Condo/Co-op,505 E Dania Beach Blvd Unit 2L,Dania,FL,33004,230000,2,2.0,Danians South,1190,,1974,,193,475,Sold,,,https://www.redfin.com/FL/Dania-Beach/505-E-Dania-Beach-Blvd-33004/unit-2L/home/187740124,Beaches MLS,F10400283,N,Y,26.0540141,-80.1350513
PAST SALE,October-2-2023,Condo/Co-op,555 SE 8th St #251,Deerfield Beach,FL,33441,160000,1,1.5,Brookfield Gardens,925,,1973,,173,300,Sold,,,https://www.redfin.com/FL/Deerfield-Beach/555-SE-8th-St-33441/unit-251/home/41507606,Beaches MLS,F10398602,N,Y,26.3075675,-80.0959692
PAST SALE,,Condo/Co-op,10124 Twin Lakes Dr Unit 11-D,Coral Springs,FL,33071,180000,2,2.0,,768,,1981,,234,,,,,https://www.redfin.com/FL/Coral-Springs/10124-Twin-Lakes-Dr-33071/unit-11-D/home/41448911,,,N,Y,26.2417703,-80.2602206
PAST SALE,,Condo/Co-op,16100 Emerald Estates Dr #485,Weston,FL,33331,395000,2,3.0,,1280,,2005,,309,,,,,https://www.redfin.com/FL/Weston/16100-Emerald-Estates-Dr-33331/unit-485/home/42067453,,,N,Y,26.0677354,-80.365161
PAST SALE,,Condo/Co-op,1200 SW 52nd Ave Unit 210-1,North Lauderdale,FL,33068,58000,3,2.0,,1027,,1975,,56,,,,,https://www.redfin.com/FL/North-Lauderdale/1200-SW-52nd-Ave-33068/unit-210-1/home/42063415,,,N,Y,26.2125792,-80.2007708
PAST SALE,,Condo/Co-op,4055 W McNab Rd Unit H104,Pompano Beach,FL,33069,52500,1,1.0,,633,,1992,,83,,,,,https://www.redfin.com/FL/Pompano-Beach/4055-W-McNab-Rd-33069/unit-H104/home/42046499,,,N,Y,26.2100601,-80.1786382
PAST SALE,September-29-2023,Condo/Co-op,4400 NW 30th St #224,Coconut Creek,FL,33066,328000,3,2.0,Bayport Village,1392,,1992,,236,546,Sold,,,https://www.redfin.com/FL/Coconut-Creek/4400-NW-30th-St-33066/unit-224/home/41482463,Beaches MLS,F10396716,N,Y,26.2636222,-80.1853474
PAST SALE,October-15-2023,Condo/Co-op,10988 Royal Palm Blvd Unit 4-2,Coral Springs,FL,33065,219900,2,2.0,GRENADIER GARDENS,800,,1982,,275,360,Sold,,,https://www.redfin.com/FL/Coral-Springs/10988-Royal-Palm-Blvd-33065/unit-4-2/home/41425774,MARMLS,A11469767,N,Y,26.2585326,-80.2726884
PAST SALE,,Condo/Co-op,3101 Oakland Shores Dr Unit H206,Oakland Park,FL,33309,220000,2,2.0,,1050,,1974,,210,,,,,https://www.redfin.com/FL/Oakland-Park/3101-Oakland-Shores-Dr-33309/unit-H206/home/41662279,,,N,Y,26.166579,-80.1842372
PAST SALE,October-26-2023,Condo/Co-op,1263 SW 46th Ave #2109,Pompano Beach,FL,33069,275000,2,2.0,ROYAL POINCIANA CONDO,903,,1987,,305,321,Sold,,,https://www.redfin.com/FL/Pompano-Beach/1263-SW-46th-Ave-33069/unit-2109/home/42053193,MARMLS,A11474814,N,Y,26.2126628,-80.1888578
PAST SALE,,Condo/Co-op,3710 Inverrary Dr Unit 1H,Lauderhill,FL,33319,122500,2,2.0,,1150,,1973,,107,,,,,https://www.redfin.com/FL/Lauderhill/3710-Inverrary-Dr-33319/unit-1H/home/41590047,,,N,Y,26.1707811,-80.2276873
PAST SALE,,Condo/Co-op,157 Grantham E,Deerfield Beach,FL,33442,178000,2,2.0,,841,,1977,,212,,,,,https://www.redfin.com/FL/Deerfield-Beach/157-Grantham-E-33442/home/41461697,,,N,Y,26.308817,-80.135212
PAST SALE,October-3-2023,Condo/Co-op,777 Bayshore #1705,Fort Lauderdale,FL,33304,725000,2,2.5,Americas On The Park,1820,,1976,,398,1495,Sold,,,https://www.redfin.com/FL/Fort-Lauderdale/777-Bayshore-Dr-33304/unit-1705/home/41787284,Beaches MLS,F10398194,N,Y,26.1342436,-80.1078735
PAST SALE,October-5-2023,Condo/Co-op,3333 NE 34th St #1708,Fort Lauderdale,FL,33308,450000,3,2.0,Coral Ridge Towers South,1400,,1968,,321,954,Sold,,,https://www.redfin.com/FL/Fort-Lauderdale/3333-NE-34th-St-33308/unit-1708/home/41712815,Beaches MLS,F10393556,N,Y,26.170545,-80.1011105
PAST SALE,,Condo/Co-op,7480 NW 17th St #307,Plantation,FL,33313,175000,2,2.0,,1031,,1978,,170,,,,,https://www.redfin.com/FL/Plantation/7480-NW-17th-St-33313/unit-307/home/41623730,,,N,Y,26.1468397,-80.2497942
PAST SALE,,Condo/Co-op,4003 N University Dr #104,Sunrise,FL,33351,53000,1,1.0,,800,,1975,,66,,,,,https://www.redfin.com/FL/Sunrise/4003-N-University-Dr-33351/unit-104/home/42061447,,,N,Y,26.1738236,-80.2559376
PAST SALE,October-27-2023,Condo/Co-op,3700 Galt Ocean Dr #1215,Fort Lauderdale,FL,33308,675000,3,2.0,Royal Ambassador,1490,,1967,,453,975,Sold,,,https://www.redfin.com/FL/Fort-Lauderdale/3700-Galt-Ocean-Dr-33308/unit-1215/home/41710198,Beaches MLS,F10403418,N,Y,26.1734275,-80.0978815
PAST SALE,,Condo/Co-op,2 Briarwood Cir #207,Hollywood,FL,33024,242000,2,2.0,,1010,,1980,,240,,,,,https://www.redfin.com/FL/Hollywood/2-Briarwood-Cir-33024/unit-207/home/41866600,,,N,Y,26.0438926,-80.2264238
PAST SALE,,Condo/Co-op,13705 SW 12th St Unit B112,Pembroke Pines,FL,33027,350000,2,2.0,,1533,,1994,,228,,,,,https://www.redfin.com/FL/Pembroke-Pines/13705-SW-12th-St-33027/unit-B112/home/41846781,,,N,Y,25.9970634,-80.3304062
PAST SALE,October-31-2023,Condo/Co-op,1400 NE 57th St #102,Fort Lauderdale,FL,33334,285000,2,2.0,Casa Del Sol,860,,1983,,331,435,Sold,,,https://www.redfin.com/FL/Fort-Lauderdale/1400-NE-57th-St-33334/unit-102/home/41650020,Beaches MLS,F10407796,N,Y,26.1978078,-80.1308639
PAST SALE,,Condo/Co-op,2300 Park Ln #206,Hollywood,FL,33021,155000,1,1.0,,710,,1969,,218,,,,,https://www.redfin.com/FL/Hollywood/2300-Park-Ln-33021/unit-206/home/41928972,,,N,Y,26.0315469,-80.1749148
PAST SALE,October-13-2023,Condo/Co-op,12950 SW 4th Ct Unit 202H,Pembroke Pines,FL,33027,155000,1,1.0,BUCKINGHAM AT CENTURY VIL,840,,1987,,185,590,Sold,,,https://www.redfin.com/FL/Pembroke-Pines/12950-SW-4th-Ct-33027/unit-H202/home/41845277,MARMLS,A11438653,N,Y,26.0037088,-80.3199634
PAST SALE,,Condo/Co-op,850 E Commercial Blvd Unit 142E,Oakland Park,FL,33334,140000,2,1.0,,830,,1973,,169,,,,,https://www.redfin.com/FL/Oakland-Park/850-E-Commercial-Blvd-33334/unit-142E/home/42045599,,,N,Y,26.1885614,-80.1363709
PAST SALE,,Condo/Co-op,809 W Oakland Park Blvd Unit K4,Wilton Manors,FL,33311,165000,2,2.0,,1000,,1973,,165,,,,,https://www.redfin.com/FL/Wilton-Manors/809-W-Oakland-Park-Blvd-33311/unit-K4/home/41669556,,,N,Y,26.1672021,-80.1536955
PAST SALE,,Condo/Co-op,411 N New River Dr E #705,Fort Lauderdale,FL,33301,1180000,2,2.0,,1630,,2005,,724,,,,,https://www.redfin.com/FL/Fort-Lauderdale/411-N-New-River-Dr-E-33301/unit-705/home/42030332,,,N,Y,26.1180851,-80.1385842
PAST SALE,,Condo/Co-op,1971 NE 32nd Ct #62,Lighthouse Point,FL,33064,164978,2,2.0,,950,,1973,,174,,,,,https://www.redfin.com/FL/Lighthouse-Point/1971-NE-32nd-Ct-33064/unit-62/home/41524104,,,N,Y,26.2715187,-80.0960625
PAST SALE,August-25-2023,Condo/Co-op,3270 Coral Lake Ln #3270,Coral Springs,FL,33065,184350,1,1.0,Crescent Cove Condo,720,,1988,,256,237,Sold,,,https://www.redfin.com/FL/Coral-Springs/3270-Coral-Lake-Ln-33065/unit-3270/home/186000480,Beaches MLS,RX-10908674,N,Y,26.2706351,-80.2374608
PAST SALE,September-21-2023,Condo/Co-op,10750 W Clairmont Cir #312,Tamarac,FL,33321,230000,2,2.0,Kings Point,1250,,1989,,184,575,Sold,,,https://www.redfin.com/FL/Tamarac/10750-W-Clairmont-Cir-33321/unit-312/home/41557785,Beaches MLS,F10399539,N,Y,26.2140255,-80.2940847
PAST SALE,,Condo/Co-op,3237 NW 104th Ave #3237,Coral Springs,FL,33065,200000,2,2.0,,870,,1982,,230,,,,,https://www.redfin.com/FL/Coral-Springs/3237-NW-104th-Ave-33065/unit-3237/home/41427516,,,N,Y,26.2710419,-80.2652026
PAST SALE,,Condo/Co-op,1711 NW 46th Ave #117,Lauderhill,FL,33313,129000,2,2.0,,828,,1969,,156,,,,,https://www.redfin.com/FL/Lauderhill/1711-NW-46th-Ave-33313/unit-117/home/41632667,,,N,Y,26.1473409,-80.2106522
PAST SALE,August-11-2023,Condo/Co-op,7525 NW 61st Ter #2704,Parkland,FL,33067,468000,3,2.0,CARRIAGE HOMES AT TERRAMAR,1823,,1991,,257,417,Sold,,,https://www.redfin.com/FL/Parkland/7525-NW-61st-Ter-33067/unit-2704/home/41397906,MARMLS,A11409677,N,Y,26.3250177,-80.2120063
PAST SALE,,Condo/Co-op,610 W Las Olas Blvd Unit 516N,Fort Lauderdale,FL,33312,600000,2,2.0,,1194,,2005,,503,,,,,https://www.redfin.com/FL/Fort-Lauderdale/610-W-Las-Olas-Blvd-33312/unit-516N/home/42042953,,,N,Y,26.1184508,-80.1488986
PAST SALE,,Condo/Co-op,4009 N University Dr #108,Sunrise,FL,33351,140000,1,1.0,,800,,1975,,175,,,,,https://www.redfin.com/FL/Sunrise/4009-N-University-Dr-33351/unit-108/home/42063974,,,N,Y,26.1734484,-80.2578105
PAST SALE,,Condo/Co-op,9150 NW 38th Dr #110,Coral Springs,FL,33065,190000,2,2.0,,1000,,1979,,190,,,,,https://www.redfin.com/FL/Coral-Springs/9150-NW-38th-Dr-33065/unit-110/home/41419202,,,N,Y,26.2769061,-80.2484458
PAST SALE,,Condo/Co-op,650 S Park Rd Unit 36-5,Hollywood,FL,33021,299000,2,2.0,,1060,,1991,,282,,,,,https://www.redfin.com/FL/Hollywood/650-S-Park-Rd-33021/unit-36-5/home/42041096,,,N,Y,26.006346,-80.177018
PAST SALE,,Condo/Co-op,2120 W Preserve Way #202,Miramar,FL,33025,242000,2,1.0,,850,,2005,,285,,,,,https://www.redfin.com/FL/Miramar/2120-W-Preserve-Way-33025/unit-202/home/42048962,,,N,Y,25.9895325,-80.2926772
PAST SALE,,Condo/Co-op,200 SE 5th Ave #102,Dania,FL,33004,227000,2,2.0,,1190,,1988,,191,,,,,https://www.redfin.com/FL/Dania/200-SE-5th-Ave-33004/unit-102/home/41820955,,,N,Y,26.0483556,-80.1361635
PAST SALE,,Condo/Co-op,112 Royal Park Dr Unit 2E,Oakland Park,FL,33309,100000,1,2.0,,750,,1974,,133,,,,,https://www.redfin.com/FL/Oakland-Park/112-Royal-Park-Dr-33309/unit-2E/home/41670312,,,N,Y,26.1705807,-80.1653162
PAST SALE,,Condo/Co-op,151 SW 135th Ter Unit T314,Pembroke Pines,FL,33027,205000,2,2.0,,1166,,1984,,176,,,,,https://www.redfin.com/FL/Pembroke-Pines/151-SW-135th-Ter-33027/unit-T314/home/41844678,,,N,Y,26.0063951,-80.3275869
PAST SALE,,Condo/Co-op,6586 W Sample Rd #6586,Coral Springs,FL,33067,205000,1,1.0,,716,,2004,,286,,,,,https://www.redfin.com/FL/Coral-Springs/6586-W-Sample-Rd-33067/unit-6586/home/42033081,,,N,Y,26.2728603,-80.2141235
PAST SALE,,Condo/Co-op,2200 NE 33rd Ave Unit 4E,Fort Lauderdale,FL,33305,350000,1,2.0,,1103,,1971,,317,,,,,https://www.redfin.com/FL/Fort-Lauderdale/2200-NE-33rd-Ave-33305/unit-4E/home/41713517,,,N,Y,26.1567149,-80.1018959
PAST SALE,September-18-2023,Condo/Co-op,1600 SE 15th St #313,Fort Lauderdale,FL,33316,220000,2,2.0,PLAZA 15 CONDO,1020,,1973,,216,343,Sold,,,https://www.redfin.com/FL/Fort-Lauderdale/1600-SE-15th-St-33316/unit-313/home/41802550,MARMLS,A11444399,N,Y,26.1029915,-80.1252731
PAST SALE,August-18-2023,Condo/Co-op,333 Las Olas Way #1806,Fort Lauderdale,FL,33301,1195000,2,2.5,Las Olas River House,1869,,2004,,639,1935,Sold,,,https://www.redfin.com/FL/Fort-Lauderdale/333-Las-Olas-Way-33301/unit-1806/home/42020981,Beaches MLS,F10386480,N,Y,26.1183316,-80.1415063
PAST SALE,,Condo/Co-op,1200 SW 125th Ave Unit 105L,Pembroke Pines,FL,33027,330000,2,2.0,,1032,,1989,,320,,,,,https://www.redfin.com/FL/Pembroke-Pines/1200-SW-125th-Ave-33027/unit-105L/home/41846226,,,N,Y,25.997787,-80.3139552
PAST SALE,,Condo/Co-op,411 N New River Dr E #703,Fort Lauderdale,FL,33301,930000,2,3.0,,2110,,2005,,441,,,,,https://www.redfin.com/FL/Fort-Lauderdale/411-N-New-River-Dr-E-33301/unit-703/home/42035312,,,N,Y,26.1180851,-80.1385842
PAST SALE,,Condo/Co-op,851 Lyons Rd #22108,Coconut Creek,FL,33063,180000,1,1.0,,821,,1989,,219,,,,,https://www.redfin.com/FL/Coconut-Creek/851-Lyons-Rd-33063/unit-22108/home/42058513,,,N,Y,26.2414465,-80.1890322
PAST SALE,,Condo/Co-op,1000 Colony Point Cir #520,Pembroke Pines,FL,33026,185000,2,2.0,,1040,,1980,,178,,,,,https://www.redfin.com/FL/Pembroke-Pines/1000-Colony-Point-Cir-33026/unit-520/home/41843042,,,N,Y,26.0146147,-80.3017672
PAST SALE,,Condo/Co-op,1153 NW 84th Ave Unit B19,Plantation,FL,33322,250000,2,2.0,,1065,,1973,,235,,,,,https://www.redfin.com/FL/Plantation/1153-NW-84th-Ave-33322/unit-B19/home/41623306,,,N,Y,26.1386343,-80.2611447
PAST SALE,,Condo/Co-op,200 Diplomat Pkwy #529,Hallandale Beach,FL,33009,216500,1,2.0,,850,,1970,,255,,,,,https://www.redfin.com/FL/Hallandale-Beach/200-Diplomat-Pkwy-33009/unit-529/home/41962809,,,N,Y,25.9891657,-80.1271859
PAST SALE,,Condo/Co-op,8664 SW 3rd St #206,Pembroke Pines,FL,33025,200000,1,2.0,,805,,1989,,248,,,,,https://www.redfin.com/FL/Pembroke-Pines/8664-SW-3rd-St-33025/unit-206/home/42009861,,,N,Y,26.0065782,-80.261273
PAST SALE,,Condo/Co-op,5681 Riverside Dr Unit 103A6,Coral Springs,FL,33067,212000,1,1.0,,814,,1988,,260,,,,,https://www.redfin.com/FL/Coral-Springs/5681-Riverside-Dr-33067/unit-103A6/home/42024698,,,N,Y,26.2994379,-80.2356111
PAST SALE,,Condo/Co-op,2960 Riverside Dr Unit 220-2,Coral Springs,FL,33065,226000,2,2.0,,1179,,1979,,192,,,,,https://www.redfin.com/FL/Coral-Springs/2960-Riverside-Dr-33065/unit-220-2/home/41430650,,,N,Y,26.2671116,-80.2357474
PAST SALE,October-31-2023,Condo/Co-op,101 S Ft Lauderdale Bch Blvd #2701,Fort Lauderdale,FL,33316,3950000,3,4.5,Las Olas Beach Club,4059,,2007,,973,4206,Sold,,,https://www.redfin.com/FL/Fort-Lauderdale/101-S-Fort-Lauderdale-Beach-Blvd-33316/unit-2701/home/42067740,Beaches MLS,F10407503,N,Y,26.1212729,-80.1052556
PAST SALE,September-25-2023,Condo/Co-op,3400 Galt Ocean Dr Unit 1008S,Fort Lauderdale,FL,33308,515000,1,1.5,Southpoint Condominium,1265,,1974,,407,825,Sold,,,https://www.redfin.com/FL/Fort-Lauderdale/3400-Galt-Ocean-Dr-33308/unit-1008S/home/41710981,Beaches MLS,F10386826,N,Y,26.169887,-80.098341
PAST SALE,,Condo/Co-op,8560 N Sherman Cir #507,Miramar,FL,33025,216000,2,2.0,,891,,1982,,242,,,,,https://www.redfin.com/FL/Miramar/8560-N-Sherman-Cir-33025/unit-507/home/41896772,,,N,Y,25.9912059,-80.2583985
PAST SALE,,Condo/Co-op,8826 W McNab Rd #306,Tamarac,FL,33321,160000,2,2.0,,920,,1977,,174,,,,,https://www.redfin.com/FL/Tamarac/8826-W-McNab-Rd-33321/unit-306/home/41561640,,,N,Y,26.2063783,-80.2694605
PAST SALE,,Condo/Co-op,1170 N Federal Hwy #1101,Fort Lauderdale,FL,33304,600000,2,2.0,,1920,,1973,,313,,,,,https://www.redfin.com/FL/Fort-Lauderdale/1170-N-Federal-Hwy-33304/unit-1101/home/41694016,,,N,Y,26.1384483,-80.1191732
PAST SALE,,Condo/Co-op,3400 Galt Ocean Dr Unit 201S,Fort Lauderdale,FL,33308,912500,2,3.0,,1891,,1974,,483,,,,,https://www.redfin.com/FL/Fort-Lauderdale/3400-Galt-Ocean-Dr-33308/unit-201S/home/41710618,,,N,Y,26.169887,-80.098341
PAST SALE,,Condo/Co-op,3237 NW 103rd Ter Unit 303-C,Coral Springs,FL,33065,192500,2,2.0,,767,,1983,,251,,,,,https://www.redfin.com/FL/Coral-Springs/3237-NW-103rd-Ter-33065/unit-303-C/home/41428032,,,N,Y,26.2706449,-80.2635907
PAST SALE,,Condo/Co-op,2731 NE 14th Street Cswy #612,Pompano Beach,FL,33062,180000,2,2.0,,980,,1970,,184,,,,,https://www.redfin.com/FL/Pompano-Beach/2731-NE-14th-Street-Cswy-33062/unit-612/home/41526438,,,N,Y,26.2510571,-80.0939542
PAST SALE,,Condo/Co-op,28 Westbury B #28,Deerfield Beach,FL,33442,156500,2,2.0,,820,,1977,,191,,,,,https://www.redfin.com/FL/Deerfield-Beach/28-Westbury-B-33442/unit-28/home/41461971,,,N,Y,26.317339,-80.131504
PAST SALE,September-18-2023,Condo/Co-op,7525 NW 61st Ter #2604,Parkland,FL,33067,463000,3,2.0,CARRIAGE HOMES AT TERRAMAR,1823,,1991,,254,500,Sold,,,https://www.redfin.com/FL/Parkland/7525-NW-61st-Ter-33067/unit-2604/home/41401423,MARMLS,A11423747,N,Y,26.3250177,-80.2120063
PAST SALE,,Condo/Co-op,10120 Sunrise Lakes Blvd #203,Sunrise,FL,33322,170000,2,2.0,,810,,1983,,210,,,,,https://www.redfin.com/FL/Sunrise/10120-Sunrise-Lakes-Blvd-33322/unit-203/home/41614109,,,N,Y,26.1597516,-80.2852235
PAST SALE,October-6-2023,Condo/Co-op,619 Orton Ave #404,Fort Lauderdale,FL,33304,305000,1,1.5,Gallery Condo,828,,1976,,368,531,Sold,,,https://www.redfin.com/FL/Fort-Lauderdale/619-Orton-Ave-33304/unit-404/home/41784145,Beaches MLS,F10400977,N,Y,26.1316857,-80.1071239
PAST SALE,October-17-2023,Condo/Co-op,1921 SW 15th St #25,Deerfield Beach,FL,33442,320000,3,2.0,MEADOWRIDGE EAST CONDO,1200,,1983,,267,550,Sold,,,https://www.redfin.com/FL/Deerfield-Beach/1921-SW-15th-St-33442/unit-25/home/41470079,MARMLS,A11448888,N,Y,26.298201,-80.130688
PAST SALE,August-22-2023,Condo/Co-op,410 SE 2nd St #420,Hallandale Beach,FL,33009,150000,1,1.5,FOURTH GULFSTREAM GARDEN,770,,1973,,195,493,Sold,,,https://www.redfin.com/FL/Hallandale-Beach/410-SE-2nd-St-33009/unit-420/home/41972357,MARMLS,A11422464,N,Y,25.9829862,-80.1434456
PAST SALE,September-1-2023,Condo/Co-op,2770 NE 14th St #306,Fort Lauderdale,FL,33304,1775000,3,3.5,Aquarius,,,2016,,,1420,Sold,,,https://www.redfin.com/FL/Fort-Lauderdale/2770-NE-14th-St-33304/unit-306/home/58809103,Beaches MLS,F10382789,N,Y,26.1451492,-80.1083851
PAST SALE,October-6-2023,Condo/Co-op,2504 Antigua Ter Unit G3,Coconut Creek,FL,33066,107500,2,2.0,Wynmoor/antigua Village,1156,,1979,,93,601,Sold,,,https://www.redfin.com/FL/Coconut-Creek/2504-Antigua-Ter-33066/unit-G3/home/41500293,Beaches MLS,F10397634,N,Y,26.2495536,-80.1844128
PAST SALE,August-31-2023,Condo/Co-op,270 Layne Blvd #313,Hallandale,FL,33009,188000,1,1.0,Paradise By The Sea,700,,1980,,269,278,Sold,,,https://www.redfin.com/FL/Hallandale-Beach/270-Layne-Blvd-33009/unit-313/home/41960302,Beaches MLS,F10391779,N,Y,25.9833686,-80.1308421
PAST SALE,September-27-2023,Condo/Co-op,11904 NW 11th St #11904,Pembroke Pines,FL,33026,309000,2,2.0,PIERPOINTE FIVE CONDO I,900,,1987,,343,465,Sold,,,https://www.redfin.com/FL/Pembroke-Pines/11904-NW-11th-St-33026/unit-11904/home/41841575,MARMLS,A11431379,N,Y,26.01538,-80.306284
PAST SALE,October-25-2023,Condo/Co-op,2200 S Ocean Ln #309,Fort Lauderdale,FL,33316,1350000,2,2.0,Point Of Americas Ii,1765,,1969,,765,,Sold,,,https://www.redfin.com/FL/Fort-Lauderdale/2200-S-Ocean-Ln-33316/unit-309/home/41803664,Beaches MLS,F10395125,N,Y,26.0959028,-80.1063464
PAST SALE,August-10-2023,Condo/Co-op,1 Las Olas Cir #1402,Fort Lauderdale,FL,33316,1299000,2,2.0,Venetian Condominium,1625,,1971,,799,1313,Sold,,,https://www.redfin.com/FL/Fort-Lauderdale/1-Las-Olas-Cir-33316/unit-1402/home/41799275,Beaches MLS,F10394048,N,Y,26.1179892,-80.1071313
PAST SALE,October-6-2023,Condo/Co-op,2601 NW 48th Ter #151,Lauderdale Lakes,FL,33313,125000,2,2.0,CYPRESS CHASE CONDO NO 8,960,,1977,,130,467,Sold,,,https://www.redfin.com/FL/Lauderdale-Lakes/2601-NW-48th-Ter-33313/unit-151/home/41596235,MARMLS,A11454381,N,Y,26.1591789,-80.2153299
PAST SALE,August-18-2023,Condo/Co-op,1309 Belmont Ln #1,North Lauderdale,FL,33068,235000,2,2.0,BELMONT AT NORTH LAUDERDA,1276,,2004,,184,818,Sold,,,https://www.redfin.com/FL/North-Lauderdale/1309-Belmont-Ln-33068/unit-1/home/185815142,MARMLS,A11403829,N,Y,26.2060417,-80.233303
PAST SALE,August-21-2023,Condo/Co-op,104 Royal Park Dr Unit 4E,Oakland Park,FL,33309,193000,1,1.5,Royal Park Condominiums,750,,1974,,257,367,Sold,,,https://www.redfin.com/FL/Oakland-Park/104-Royal-Park-Dr-33309/unit-4E/home/41665422,Beaches MLS,F10387606,N,Y,26.1710765,-80.1632233
PAST SALE,September-20-2023,Condo/Co-op,9100 W Atlantic Blvd #611,Coral Springs,FL,33071,300000,3,2.0,VISCONTI CONDO,1263,,1991,,238,466,Sold,,,https://www.redfin.com/FL/Coral-Springs/9100-W-Atlantic-Blvd-33071/unit-611/home/42032638,MARMLS,A11440044,N,Y,26.2362629,-80.2468123
PAST SALE,September-26-2023,Condo/Co-op,2901 Riverside Dr #301,Coral Springs,FL,33065,280000,3,2.0,Royal River Condo,1200,,2003,,233,600,Sold,,,https://www.redfin.com/FL/Coral-Springs/2901-Riverside-Dr-33065/unit-301/home/42020750,Beaches MLS,RX-10914444,N,Y,26.2660203,-80.2347377
PAST SALE,September-12-2023,Condo/Co-op,1022 Ventnor H Cres,Deerfield Beach,FL,33442,142000,2,2.0,Century Village*ventnor H Condo,1000,,1978,,142,633,Sold,,,https://www.redfin.com/FL/Deerfield-Beach/1022-Ventnor-H-33442/home/41470211,Beaches MLS,RX-10908479,N,Y,26.3168149,-80.143094
PAST SALE,August-16-2023,Condo/Co-op,428 Lakeview Dr #201,Weston,FL,33326,310000,2,2.0,WESTON LAKES 21 INC CONDO,1231,,1982,,252,581,Sold,,,https://www.redfin.com/FL/Weston/428-Lakeview-Dr-33326/unit-201/home/41724384,MARMLS,A11420883,N,Y,26.1198687,-80.383809
PAST SALE,August-7-2023,Condo/Co-op,301 N Ocean Blvd #1110,Pompano Beach,FL,33062,355000,2,2.0,Nassau House Condominium,1150,,1967,,309,562,Sold,,,https://www.redfin.com/FL/Pompano-Beach/301-N-Ocean-Blvd-33062/unit-1110/home/41525417,Beaches MLS,F10390416,N,Y,26.2369597,-80.0908122
PAST SALE,August-7-2023,Condo/Co-op,3501 Inverrary Dr #204,Lauderhill,FL,33319,108500,2,2.0,LAS VISTAS L IN INVERRARY,904,,1974,,120,763,Sold,,,https://www.redfin.com/FL/Lauderhill/3501-Inverrary-Dr-33319/unit-204/home/41586962,MARMLS,A11400749,N,Y,26.1704009,-80.234121
PAST SALE,September-5-2023,Condo/Co-op,510 NW 84th Ave #117,Plantation,FL,33324,310000,1,1.0,VERANDA CONDO,852,,2007,,364,633,Sold,,,https://www.redfin.com/FL/Plantation/510-NW-84th-Ave-33324/unit-117/home/42077957,MARMLS,A11429525,N,Y,26.1275915,-80.2601774
PAST SALE,October-16-2023,Condo/Co-op,5011 Wiles Rd #302,Coconut Creek,FL,33073,275000,2,2.0,Evergreen Lakes Condo,1246,365,2002,,221,474,Sold,,,https://www.redfin.com/FL/Coconut-Creek/5011-Wiles-Rd-33073/unit-302/home/42043838,Beaches MLS,RX-10918706,N,Y,26.2889432,-80.1940512
PAST SALE,October-23-2023,Condo/Co-op,11211 W Atlantic Blvd #104,Coral Springs,FL,33071,255000,2,2.0,ATLANTIC SPRINGS CONDO,1114,,1991,,229,412,Sold,,,https://www.redfin.com/FL/Coral-Springs/11211-W-Atlantic-Blvd-33071/unit-104/home/42055832,MARMLS,A11455313,N,Y,26.2307651,-80.2538335
PAST SALE,August-8-2023,Condo/Co-op,2039 SE 10th Ave #508,Fort Lauderdale,FL,33316,380000,2,2.0,VILLAGE EAST CONDO,1054,,2002,,361,541,Sold,,,https://www.redfin.com/FL/Fort-Lauderdale/2039-SE-10th-Ave-33316/unit-508/home/42066199,MARMLS,A11407207,N,Y,26.095774,-80.132868
PAST SALE,September-1-2023,Condo/Co-op,101 Berkley Rd #102,Hollywood,FL,33024,192500,2,2.0,Carriage Hills,920,,1973,,209,452,Sold,,,https://www.redfin.com/FL/Hollywood/101-Berkley-Rd-33024/unit-102/home/41860869,Beaches MLS,F10389565,N,Y,26.0443928,-80.225457
PAST SALE,September-12-2023,Condo/Co-op,7531 NW 79th Ave #205,Tamarac,FL,33321,195000,2,2.0,Bonaire At Woodmont,985,,1987,,198,500,Sold,,,https://www.redfin.com/FL/Tamarac/7531-NW-79th-Ave-33321/unit-205/home/41545784,Beaches MLS,F10392929,N,Y,26.2160767,-80.2589211
PAST SALE,August-29-2023,Condo/Co-op,9778 N Belfort Cir #206,Tamarac,FL,33321,180000,2,2.0,Belfort,1063,,1986,,169,559,Sold,,,https://www.redfin.com/FL/Tamarac/9778-N-Belfort-Cir-33321/unit-206/home/41549863,Beaches MLS,F10387993,N,Y,26.2136748,-80.28424
PAST SALE,September-8-2023,Condo/Co-op,4310 NW 12th Ct #106,Lauderhill,FL,33313,98000,1,1.0,Park South Eleven Inc Con,730,,1970,,134,350,Sold,,,https://www.redfin.com/FL/Lauderhill/4310-NW-12th-Ct-33313/unit-106/home/41632666,Beaches MLS,F10395983,N,Y,26.1413791,-80.2071897
PAST SALE,October-3-2023,Condo/Co-op,3690 Inverrary Dr Unit 2M,Lauderhill,FL,33319,105000,0,1.0,International Village,420,,1972,,250,175,Sold,,,https://www.redfin.com/FL/Lauderhill/3690-Inverrary-Dr-33319/unit-2M/home/41590010,Beaches MLS,F10395442,N,Y,26.1713734,-80.2303451
PAST SALE,,Condo/Co-op,2813 N Course Dr #201,Pompano Beach,FL,33069,238000,2,2.0,,1120,,1987,,213,,,,,https://www.redfin.com/FL/Pompano-Beach/2813-N-Course-Dr-33069/unit-201/home/42063473,,,N,Y,26.2294201,-80.1638555
PAST SALE,October-20-2023,Condo/Co-op,1817 NW 54th Ter Unit BB3,Lauderhill,FL,33313,160000,3,2.0,WINDERMERE CONDO NUMBER S,1350,,1973,,119,518,Sold,,,https://www.redfin.com/FL/Lauderhill/1817-NW-54th-Ter-33313/unit-BB3/home/41627966,MARMLS,A11441202,N,Y,26.1482882,-80.2227638
PAST SALE,August-7-2023,Condo/Co-op,455 Golden Isles Dr #209,Hallandale Beach,FL,33009,210000,1,1.0,ENVOY APARTMENTS CONDOMIN,630,,1978,,333,1030,Sold,,,https://www.redfin.com/FL/Hallandale-Beach/455-Golden-Isles-Dr-33009/unit-209/home/41966284,MARMLS,A11407230,N,Y,25.9833451,-80.1293869
PAST SALE,August-11-2023,Condo/Co-op,510 NW 84th Ave #618,Plantation,FL,33324,410000,2,2.0,VERANDA CONDO,1137,,2007,,361,836,Sold,,,https://www.redfin.com/FL/Plantation/510-NW-84th-Ave-33324/unit-618/home/42077912,MARMLS,A11416014,N,Y,26.1275915,-80.2601774
PAST SALE,August-11-2023,Condo/Co-op,801 NE 1st St #2,Fort Lauderdale,FL,33301,499250,3,2.5,CASCADES TOWNHOMES CONDO,1605,,1989,,311,642,Sold,,,https://www.redfin.com/FL/Fort-Lauderdale/801-NE-1st-St-33301/unit-2/home/41790744,MARMLS,A11413380,N,Y,26.1238025,-80.1350295
PAST SALE,September-26-2023,Condo/Co-op,10510 E Clairmont Cir #108,Tamarac,FL,33321,200000,2,2.0,Kings Point,1230,,1987,,163,599,Sold,,,https://www.redfin.com/FL/Tamarac/10510-E-Clairmont-Cir-33321/unit-108/home/41551854,Beaches MLS,F10388368,N,Y,26.213672,-80.291712
PAST SALE,August-28-2023,Condo/Co-op,5100 Washington St #303,Hollywood,FL,33021,235000,2,2.0,HILLCREST COUNTRY CLUB AP,992,,1967,,237,337,Sold,,,https://www.redfin.com/FL/Hollywood/5100-Washington-St-33021/unit-303/home/41941220,MARMLS,A11428981,N,Y,26.0024131,-80.1945943
PAST SALE,October-25-2023,Condo/Co-op,1444 SE 15th Ct #104,Deerfield Beach,FL,33441,240000,1,1.0,Eastway Harbour,810,,1986,,296,351,Sold,,,https://www.redfin.com/FL/Deerfield-Beach/1444-SE-15th-Ct-33441/unit-104/home/41515668,Beaches MLS,F10403324,N,Y,26.2972714,-80.0826345
PAST SALE,October-25-2023,Condo/Co-op,2000 Metropica Way #2403,Sunrise,FL,33323,768900,2,2.5,METROPICA NORTH TOWER ONE,1179,,2020,,652,1232,Sold,,,https://www.redfin.com/FL/Sunrise/2000-Metropica-Way-33323/unit-2403/home/145208285,MARMLS,A11474132,N,Y,26.1492936,-80.3281433
PAST SALE,October-4-2023,Condo/Co-op,2041 NW 81st Ave #426,Pembroke Pines,FL,33024,185000,2,1.5,UNIVERSITY MANORS CONDO N,870,,1973,,213,297,Sold,,,https://www.redfin.com/FL/Pembroke-Pines/2041-NW-81st-Ave-33024/unit-426/home/41875687,MARMLS,A11443027,N,Y,26.026744,-80.2497843
PAST SALE,August-31-2023,Condo/Co-op,238 NW 60th Ave #238,Margate,FL,33063,210000,2,2.0,Malibu North,825,,1988,,255,292,Sold,,,https://www.redfin.com/FL/Margate/238-NW-60th-Ave-33063/unit-238/home/41454378,Beaches MLS,F10392388,N,Y,26.232652,-80.2056247
PAST SALE,October-24-2023,Condo/Co-op,113 Royal Park Dr Unit 1G,Oakland Park,FL,33309,165000,2,2.0,Royal Park Condominiums,975,,1974,,169,463,Sold,,,https://www.redfin.com/FL/Oakland-Park/113-Royal-Park-Dr-33309/unit-1G/home/41668154,Beaches MLS,F10401054,N,Y,26.1711749,-80.1649891
PAST SALE,August-18-2023,Condo/Co-op,2501 Riverside Dr Unit 403-A,Coral Springs,FL,33065,150000,1,1.0,CORAL SPRINGS TOWER CLUB,606,,1983,,248,220,Sold,,,https://www.redfin.com/FL/Coral-Springs/2501-Riverside-Dr-33065/unit-403A/home/41430979,MARMLS,A11391274,N,Y,26.2611889,-80.2346146
PAST SALE,August-31-2023,Condo/Co-op,13300 SW 1st St Unit 208O,Pembroke Pines,FL,33027,159000,1,1.0,NEW HAMPTON AT CENTURY VI,685,,1986,,232,575,Sold,,,https://www.redfin.com/FL/Pembroke-Pines/13300-SW-1st-St-33027/unit-208O/home/41853653,MARMLS,A11412372,N,Y,26.0068733,-80.3244966
PAST SALE,September-20-2023,Condo/Co-op,365 W Laurel Dr Unit N4,Margate,FL,33063,115,2,2.0,The Laurels At Margate,1019,,1981,,0,500,Sold,,,https://www.redfin.com/FL/Margate/365-W-Laurel-Dr-33063/unit-N4/home/184200529,Beaches MLS,F10388213,N,Y,26.2331207,-80.1960861
PAST SALE,August-7-2023,Condo/Co-op,1851 NW 96th Ter Unit 6j,Pembroke Pines,FL,33024,220000,1,1.0,Reflections AT Pembroke Pines,628,,1987,,350,261,Sold,,,https://www.redfin.com/FL/Pembroke-Pines/1851-NW-96th-Ter-33024/unit-6J/home/42032529,Beaches MLS,RX-10901974,N,Y,26.0248831,-80.2738424
PAST SALE,September-2-2023,Condo/Co-op,2000 Metropica Way #1907,Sunrise,FL,33323,577500,2,2.0,METROPICA NORTH TOWER ONE,920,,2020,,628,961,Sold,,,https://www.redfin.com/FL/Sunrise/2000-Metropica-Way-33323/unit-1907/home/113720867,MARMLS,A11444643,N,Y,26.1492936,-80.3281433
PAST SALE,October-11-2023,Condo/Co-op,5681 Riverside Dr #103,Coral Springs,FL,33067,212000,1,1.0,Grand Oasis,814,,1988,,260,508,Sold,,,https://www.redfin.com/FL/Coral-Springs/5681-Riverside-Dr-33067/unit-103/home/187180900,Beaches MLS,F10397133,N,Y,26.2994379,-80.2356111
PAST SALE,August-11-2023,Condo/Co-op,220 SW 116th Ave #15103,Pembroke Pines,FL,33025,300000,1,1.0,MARQUESA CONDO,690,,1999,,435,237,Sold,,,https://www.redfin.com/FL/Pembroke-Pines/220-SW-116th-Ave-33025/unit-15103/home/42050838,MARMLS,A11417847,N,Y,26.0051544,-80.3038567
PAST SALE,October-11-2023,Condo/Co-op,420 S Park Rd Unit 2-208,Hollywood,FL,33021,263000,2,2.0,PINEHURST CLUB CONDO,820,,1997,,321,462,Sold,,,https://www.redfin.com/FL/Hollywood/420-S-Park-Rd-33021/unit-2-208/home/42042561,MARMLS,A11446450,N,Y,26.007869,-80.1766518
PAST SALE,October-31-2023,Condo/Co-op,3850 Washington St #805,Hollywood,FL,33021,185000,2,2.0,Hillcrest East NO 27,1164,,1980,,159,572,Sold,,,https://www.redfin.com/FL/Hollywood/3850-Washington-St-33021/unit-805/home/41949915,Beaches MLS,RX-10925786,N,Y,26.0021578,-80.1828143
PAST SALE,October-6-2023,Condo/Co-op,138 S Cypress Rd #218,Pompano Beach,FL,33060,219000,2,2.0,Cypress Park,936,,1977,,234,447,Sold,,,https://www.redfin.com/FL/Pompano-Beach/138-S-Cypress-Rd-33060/unit-218/home/41633531,Beaches MLS,F10398804,N,Y,26.2294425,-80.1225095
PAST SALE,,Condo/Co-op,7610 Westwood Dr #132,Tamarac,FL,33321,96000,2,2.0,,958,,1991,,100,,,,,https://www.redfin.com/FL/Tamarac/7610-Westwood-Dr-33321/unit-132/home/42051888,,,N,Y,26.2166875,-80.2785249
PAST SALE,October-18-2023,Condo/Co-op,4031 Farnham O,Deerfield Beach,FL,33442,149000,2,2.0,Century Village,983,,1979,,152,514,Sold,,,https://www.redfin.com/FL/Deerfield-Beach/4031-Farnham-O-33442/home/41453443,Beaches MLS,RX-10910268,N,Y,26.305163,-80.133546
PAST SALE,September-6-2023,Condo/Co-op,314 NW 69th Ave #285,Plantation,FL,33317,210000,2,1.0,FRENCH QUARTER CONDOMINIU,847,,1973,,248,415,Sold,,,https://www.redfin.com/FL/Plantation/314-NW-69th-Ave-33317/unit-285/home/41746230,MARMLS,A11425553,N,Y,26.1253511,-80.2391751
PAST SALE,October-27-2023,Condo/Co-op,430 S Park Rd Unit 3-302,Hollywood,FL,33021,285000,2,2.0,PINEHURST CLUB CONDO,867,,2006,,329,986,Sold,,,https://www.redfin.com/FL/Hollywood/430-S-Park-Rd-33021/unit-3-302/home/42042034,MARMLS,A11451656,N,Y,26.0077457,-80.1775237
PAST SALE,October-19-2023,Condo/Co-op,2228 N Cypress Bend Dr #403,Pompano Beach,FL,33069,245000,2,2.0,Cypress Bend Condo Vii,825,,1989,,297,580,Sold,,,https://www.redfin.com/FL/Pompano-Beach/2228-N-Cypress-Bend-Dr-33069/unit-403/home/41638826,Beaches MLS,F10398331,N,Y,26.2178286,-80.1512434
PAST SALE,September-27-2023,Condo/Co-op,3725 S Ocean Dr Ph 01,Hollywood,FL,33019,775000,2,2.0,SEA AIR TOWERS CONDO,1368,,1971,,567,1790,Sold,,,https://www.redfin.com/FL/Hollywood/3725-S-Ocean-Dr-33019/unit-01/home/41968501,MARMLS,A11446252,N,Y,25.9898475,-80.1183443
PAST SALE,September-14-2023,Condo/Co-op,10751 Royal Palm Blvd #17,Coral Springs,FL,33065,145000,1,1.5,Villa Madrid I,855,,1977,,170,323,Sold,,,https://www.redfin.com/FL/Coral-Springs/10751-Royal-Palm-Blvd-33065/unit-17/home/41421044,Beaches MLS,F10395202,N,Y,26.2593441,-80.2689618
PAST SALE,October-6-2023,Condo/Co-op,510 NW 84th Ave #545,Plantation,FL,33324,465000,3,2.0,Veranda Condo,1599,,2007,,291,1061,Sold,,,https://www.redfin.com/FL/Plantation/510-NW-84th-Ave-33324/unit-545/home/42072397,Beaches MLS,RX-10913995,N,Y,26.1275915,-80.2601774
PAST SALE,August-17-2023,Condo/Co-op,2050 NE 39th St Unit 112S,Lighthouse Point,FL,33064,127400,1,1.5,Lighthouse Point Gardens,676,,1966,,188,315,Sold,,,https://www.redfin.com/FL/Lighthouse-Point/2050-NE-39th-St-33064/unit-S112/home/41518358,Beaches MLS,F10388484,N,Y,26.2791494,-80.0949732
PAST SALE,October-20-2023,Condo/Co-op,201 N Ocean Blvd #107,Pompano Beach,FL,33062,390000,2,2.0,GRANADA HOUSE CONDOMINIUM,1000,,1966,,390,825,Sold,,,https://www.redfin.com/FL/Pompano-Beach/201-N-Ocean-Blvd-33062/unit-107/home/41524008,MARMLS,A11439158,N,Y,26.2384644,-80.0896619
PAST SALE,September-5-2023,Condo/Co-op,11133 SW 8th St #205,Pembroke Pines,FL,33025,285000,2,2.0,DEVONAIRE CONDO AT PEMBRO,1058,,2002,,269,365,Sold,,,https://www.redfin.com/FL/Pembroke-Pines/11133-SW-8th-St-33025/unit-205/home/42064319,MARMLS,A11427125,N,Y,26.0009784,-80.2948018
PAST SALE,October-10-2023,Condo/Co-op,3160 Holiday Springs Blvd #104,Margate,FL,33063,67000,1,1.5,Holiday Springs,728,,1974,,92,455,Sold,,,https://www.redfin.com/FL/Margate/3160-Holiday-Springs-Blvd-33063/unit-104/home/187327340,Beaches MLS,F10398276,N,Y,26.265849,-80.2333077
PAST SALE,November-2-2023,Condo/Co-op,6921 Cypress Rd Ph 18,Plantation,FL,33317,205000,2,2.0,PLANTATION ROYAL SECTION,1090,,1969,,188,643,Sold,,,https://www.redfin.com/FL/Plantation/6921-Cypress-Rd-33317/unit-18/home/41744610,MARMLS,A11466647,N,Y,26.1245831,-80.2395405
PAST SALE,September-29-2023,Condo/Co-op,2918 NE 8th Ter #102,Fort Lauderdale,FL,33334,220000,2,2.0,Middle River Homes,761,,1986,,289,399,Sold,,,https://www.redfin.com/FL/Wilton-Manors/2918-NE-8th-Ter-33334/unit-102/home/41675134,Beaches MLS,F10395869,N,Y,26.1639239,-80.1352475
PAST SALE,September-18-2023,Condo/Co-op,3141 NW 47th Ter #130,Lauderdale Lakes,FL,33319,172000,2,2.0,Cypress Chase North No. 3,1056,,1981,,163,573,Sold,,,https://www.redfin.com/FL/Lauderdale-Lakes/3141-NW-47th-Ter-33319/unit-130/home/41593419,Beaches MLS,F10394701,N,Y,26.165764,-80.2151856
PAST SALE,October-18-2023,Condo/Co-op,401 Lakeview Dr #205,Weston,FL,33326,307000,2,2.0,Racquet Club,1225,,1980,,251,295,Sold,,,https://www.redfin.com/FL/Weston/401-Lakeview-Dr-33326/unit-205/home/41724438,Beaches MLS,F10400243,N,Y,26.1222716,-80.3855573
PAST SALE,October-24-2023,Condo/Co-op,701 SW 128th Ave Unit 214F,Pembroke Pines,FL,33027,150000,1,1.0,BUCKINGHAM AT CENTURY VIL,840,,1987,,179,488,Sold,,,https://www.redfin.com/FL/Pembroke-Pines/701-SW-128th-Ave-33027/unit-214F/home/41855606,MARMLS,A11453074,N,Y,26.0016356,-80.3177135
PAST SALE,September-22-2023,Condo/Co-op,5061 W Oakland Park Blvd #111,Lauderdale Lakes,FL,33313,115000,1,1.0,FERN GARDENS CONDO,684,,1970,,168,330,Sold,,,https://www.redfin.com/FL/Lauderdale-Lakes/5061-W-Oakland-Park-Blvd-33313/unit-111/home/41594625,MARMLS,A11436466,N,Y,26.1681587,-80.2173948
PAST SALE,September-28-2023,Condo/Co-op,8900 Washington Blvd Unit 203b,Pembroke Pines,FL,33025,140000,1,1.5,Hollybrook Golf & Tennis,800,,1974,,175,,Sold,,,https://www.redfin.com/FL/Pembroke-Pines/8900-Washington-Blvd-33025/unit-203B/home/41894224,Beaches MLS,F10395255,N,Y,26.0008154,-80.2649531
PAST SALE,August-7-2023,Condo/Co-op,600 W Las Olas Blvd Unit 1805-S,Fort Lauderdale,FL,33312,710000,2,2.0,Symphony,1224,,2005,,580,1129,Sold,,,https://www.redfin.com/FL/Fort-Lauderdale/600-W-Las-Olas-Blvd-33312/unit-1805S/home/42036921,Beaches MLS,F10383289,N,Y,26.1182897,-80.1491649
PAST SALE,August-15-2023,Condo/Co-op,3003 Portofino Isle(s) Unit K4,Coconut Creek,FL,33066,349900,2,2.0,Wynmoor,1156,,1980,,303,530,Sold,,,https://www.redfin.com/FL/Coconut-Creek/3003-Portofino-Isle-33066/unit-K4/home/41495685,Beaches MLS,RX-10901213,N,Y,26.2522974,-80.1834525
PAST SALE,September-29-2023,Condo/Co-op,1709 Whitehall Dr #402,Davie,FL,33324,329900,2,2.0,CONDO 24 OF WHITEHALL CON,1385,,1984,,238,542,Sold,,,https://www.redfin.com/FL/Davie/1709-Whitehall-Dr-33324/unit-402/home/41767775,MARMLS,A11435557,N,Y,26.095311,-80.2702443
PAST SALE,September-29-2023,Condo/Co-op,4034 Lakeside Dr #4034,Tamarac,FL,33319,150000,2,1.0,LAKESIDE AT TAMARAC CONDO,720,,1985,,208,238,Sold,,,https://www.redfin.com/FL/Tamarac/4034-Lakeside-Dr-33319/unit-4034/home/187223929,MARMLS,A11444339,N,Y,26.1929164,-80.2063858
PAST SALE,October-31-2023,Condo/Co-op,6088 SW 41st St #20,Davie,FL,33314,325777,3,2.0,LAKESHORE TOWNHOMES CONDO,1150,,1975,,283,397,Sold,,,https://www.redfin.com/FL/Davie/6088-SW-41st-St-33314/unit-20/home/41778952,MARMLS,A11459164,N,Y,26.0711991,-80.2277498
PAST SALE,August-14-2023,Condo/Co-op,750 SE SE 6th Ave #124,Deerfield Beach,FL,33441,222000,2,2.0,South Garden Condo,980,,1976,,227,418,Sold,,,https://www.redfin.com/FL/Deerfield-Beach/750-SE-6th-Ave-33441/unit-124/home/41510580,Beaches MLS,F10390038,N,Y,26.3075721,-80.0952633
PAST SALE,October-23-2023,Condo/Co-op,2981 N Nob Hill Rd #102,Sunrise,FL,33322,170000,2,2.0,SUNRISE LAKES 172 CONDO,1365,,1985,,125,591,Sold,,,https://www.redfin.com/FL/Sunrise/2981-N-Nob-Hill-Rd-33322/unit-102/home/41620684,MARMLS,A11444946,N,Y,26.163139,-80.284376
PAST SALE,October-19-2023,Condo/Co-op,4848 NW 24th Ct #318,Lauderdale Lakes,FL,33313,187500,2,2.0,TOWN SQUARE CONDO,1220,,1979,,154,420,Sold,,,https://www.redfin.com/FL/Lauderdale-Lakes/4848-NW-24th-Ct-33313/unit-318/home/41602020,MARMLS,A11456232,N,Y,26.1563887,-80.2162713
PAST SALE,September-5-2023,Condo/Co-op,1665 NW 81st Way #1665,Plantation,FL,33322,325000,2,2.0,Parc Village,1122,,1983,,290,357,Sold,,,https://www.redfin.com/FL/Plantation/1665-NW-81st-Way-33322/unit-1665/home/186238209,Beaches MLS,F10392727,N,Y,26.145025,-80.260291
PAST SALE,September-12-2023,Condo/Co-op,66 Farnham C #66,Deerfield Beach,FL,33442,94000,1,1.0,FARNHAM C CONDO,595,,1974,,158,407,Sold,,,https://www.redfin.com/FL/Deerfield-Beach/66-Farnham-E-33442/unit-66/home/104485873,MARMLS,A11426871,N,Y,26.3058543,-80.1304688
PAST SALE,October-27-2023,Condo/Co-op,1951 NE 39th St #243,Lighthouse Point,FL,33064,220000,2,2.0,Lighthouse Pt Gardens Nor,,,1966,,,384,Sold,,,https://www.redfin.com/FL/Lighthouse-Point/1951-NE-39th-St-33064/unit-243/home/41519114,Beaches MLS,F10400200,N,Y,26.2805666,-80.0955251
PAST SALE,August-28-2023,Condo/Co-op,16101 Emerald Estates Dr #350,Weston,FL,33331,464000,2,2.0,Palms At Weston,1405,,2005,,330,1076,Sold,,,https://www.redfin.com/FL/Weston/16101-Emerald-Estates-Dr-33331/unit-350/home/42063970,Beaches MLS,F10392237,N,Y,26.0672708,-80.3656083
PAST SALE,,Condo/Co-op,2925 NW 126th Ave Unit 215-1,Sunrise,FL,33323,376000,2,2.0,,1174,,2007,,320,,,,,https://www.redfin.com/FL/Sunrise/2925-NW-126th-Ave-33323/unit-215-1/home/42069810,,,N,Y,26.1613622,-80.3181314
PAST SALE,September-20-2023,Condo/Co-op,302 NW 69th Ave #158,Plantation,FL,33317,277000,2,2.0,French Quarter Condominium,1028,,1973,,269,458,Sold,,,https://www.redfin.com/FL/Plantation/302-NW-69th-Ave-33317/unit-158/home/41750278,Beaches MLS,RX-10911261,N,Y,26.1249254,-80.2385319
PAST SALE,October-16-2023,Condo/Co-op,2760 NW 42nd Ave #1125,Coconut Creek,FL,33066,270000,2,2.0,Township - Pond Apple 1,1220,,1980,,221,537,Sold,,,https://www.redfin.com/FL/Coconut-Creek/2760-NW-42nd-Ave-33066/unit-1125/home/41479120,Beaches MLS,F10397950,N,Y,26.2629987,-80.182487
PAST SALE,September-27-2023,Condo/Co-op,6505 Winfield Blvd Unit B-39,Margate,FL,33063,117500,1,1.0,Bahama Building Margate,720,,1974,,163,377,Sold,,,https://www.redfin.com/FL/Margate/6505-Winfield-Blvd-33063/unit-B-39/home/41432337,Beaches MLS,F10394819,N,Y,26.2592091,-80.2132191
PAST SALE,August-8-2023,Condo/Co-op,9234 Wedgewood Ln Unit D7,Tamarac,FL,33321,290,2,2.0,Wedgewood,1060,,1979,,0,498,Sold,,,https://www.redfin.com/FL/Tamarac/9234-Wedgewood-Ln-33321/unit-D7/home/41555725,Beaches MLS,F10387316,N,Y,26.2029077,-80.2736371
PAST SALE,October-19-2023,Condo/Co-op,3012 Swansea A #3012,Deerfield Beach,FL,33442,129900,1,1.5,Swansea A,753,,1978,,173,448,Sold,,,https://www.redfin.com/FL/Deerfield-Beach/3012-Swansea-Cres-33442/unit-3012/home/104338025,Beaches MLS,F10397200,N,Y,26.314515,-80.129391
PAST SALE,October-30-2023,Condo/Co-op,100 Wimbledon Lake Dr #100,Plantation,FL,33324,370000,3,2.5,WIMBLEDON AT JACARANDA CO,1500,,1975,,247,461,Sold,,,https://www.redfin.com/FL/Plantation/100-Wimbledon-Lakes-Dr-33324/unit-100/home/185890002,MARMLS,A11457247,N,Y,26.118358,-80.273528
PAST SALE,September-6-2023,Condo/Co-op,9610 NW 2nd St Unit 8-303,Pembroke Pines,FL,33024,270000,2,2.0,LA VIA CONDO,1000,,1999,,270,457,Sold,,,https://www.redfin.com/FL/Pembroke-Pines/9610-NW-2nd-St-33024/unit-8-303/home/42048771,MARMLS,A11394415,N,Y,26.009901,-80.2712024
PAST SALE,September-22-2023,Condo/Co-op,7450 NW 17th St #302,Plantation,FL,33313,230000,2,2.0,OMEGA CONDO NO 6,952,,1977,,242,349,Sold,,,https://www.redfin.com/FL/Plantation/7450-NW-17th-St-33313/unit-302/home/41622445,MARMLS,A11441579,N,Y,26.1466308,-80.2494259
PAST SALE,September-14-2023,Condo/Co-op,2300 SE 2nd St #21,Pompano Beach,FL,33062,176500,1,1.0,MON PETIT CONDO,590,,1979,,299,253,Sold,,,https://www.redfin.com/FL/Pompano-Beach/2300-SE-2nd-St-33062/unit-21/home/41699553,MARMLS,A11432283,N,Y,26.2298231,-80.1006277
PAST SALE,September-8-2023,Condo/Co-op,551 SW 135th Ave Unit 310B,Pembroke Pines,FL,33027,162000,1,1.0,CENTURY VILLAGE,685,,1985,,236,449,Sold,,,https://www.redfin.com/FL/Pembroke-Pines/551-SW-135th-Ave-33027/unit-310B/home/41856574,MARMLS,A11428765,N,Y,26.003046,-80.3270705
PAST SALE,August-15-2023,Condo/Co-op,9877 Westview Dr #634,Coral Springs,FL,33076,180000,1,1.0,CITATION WAY CONDO,700,,1990,,257,239,Sold,,,https://www.redfin.com/FL/Coral-Springs/9877-Westview-Dr-33076/unit-634/home/42034522,MARMLS,A11416991,N,Y,26.2993641,-80.2573532
PAST SALE,August-11-2023,Condo/Co-op,215 SE 3rd Ave Unit 205A,Hallandale Beach,FL,33009,125000,2,1.0,FIRST GULFSTREAM GARDEN,935,,1968,,134,502,Sold,,,https://www.redfin.com/FL/Hallandale-Beach/215-SE-3rd-Ave-33009/unit-205A/home/41964719,MARMLS,A11412152,N,Y,25.9825689,-80.1451222
PAST SALE,October-24-2023,Condo/Co-op,6921 Cypress Rd Unit C24,Plantation,FL,33317,180000,2,2.0,Plantation Royal,1090,,1969,,165,643,Sold,,,https://www.redfin.com/FL/Plantation/6921-Cypress-Rd-33317/unit-C24/home/41744657,Beaches MLS,F10398174,N,Y,26.1245831,-80.2395405
PAST SALE,September-12-2023,Condo/Co-op,5208 NW 18th Ct Unit 4K,Lauderhill,FL,33313,150000,3,2.0,Windermere Condo 2,1350,,1971,,111,468,Sold,,,https://www.redfin.com/FL/Lauderhill/5208-NW-18th-Ct-33313/unit-4K/home/41626582,Beaches MLS,F10388542,N,Y,26.1484217,-80.2207919
PAST SALE,September-28-2023,Condo/Co-op,2324 Taylor St #7,Hollywood,FL,33020,160100,1,1.0,CORONET ARMS CONDO,590,,1968,,271,175,Sold,,,https://www.redfin.com/FL/Hollywood/2324-Taylor-St-33020/unit-7/home/41941699,MARMLS,A11431943,N,Y,26.0132707,-80.1537487
PAST SALE,August-22-2023,Condo/Co-op,9561 N Belfort Cir #208,Tamarac,FL,33321,179000,2,2.0,BELFORT CONDOMINIUM P,1228,,1986,,146,559,Sold,,,https://www.redfin.com/FL/Tamarac/9561-N-Belfort-Cir-33321/unit-208/home/41554064,MARMLS,A11409612,N,Y,26.214312,-80.282234
PAST SALE,September-11-2023,Condo/Co-op,11579 NW 44th St #11579,Coral Springs,FL,33065,240000,3,2.0,CORAL WEST CONDO,950,,1992,,253,435,Sold,,,https://www.redfin.com/FL/Coral-Springs/11579-NW-44th-St-33065/unit-11579/home/42027424,MARMLS,A11420697,N,Y,26.284478,-80.282101
PAST SALE,September-29-2023,Condo/Co-op,2131 NE 42nd Ct Unit 107E,Lighthouse Point,FL,33064,130000,1,1.0,Venetian Park Gardens,630,,1965,,206,278,Sold,,,https://www.redfin.com/FL/Lighthouse-Point/2131-NE-42nd-Ct-33064/unit-107E/home/41520462,Beaches MLS,F10392394,N,Y,26.2841978,-80.0945342
PAST SALE,September-13-2023,Condo/Co-op,3701 Tyler St #101,Hollywood,FL,33021,255000,2,2.0,SUBURBANITE CONDOMINIUM,883,,1985,,289,518,Sold,,,https://www.redfin.com/FL/Hollywood/3701-Tyler-St-33021/unit-101/home/41927442,MARMLS,A11440652,N,Y,26.011839,-80.1810133
PAST SALE,October-31-2023,Condo/Co-op,8421 Forest Hills Dr #308,Coral Springs,FL,33065,215000,3,2.0,Greenglades,1330,,1977,,162,462,Sold,,,https://www.redfin.com/FL/Coral-Springs/8421-Forest-Hills-Dr-33065/unit-308/home/41429564,Beaches MLS,F10398425,N,Y,26.2679473,-80.2386226
PAST SALE,August-18-2023,Condo/Co-op,4157 Carambola Cir #4157,Coconut Creek,FL,33066,260000,3,2.0,Karanda Village Vii,1093,,1985,,238,440,Sold,,,https://www.redfin.com/FL/Coconut-Creek/4157-Carambola-Cir-S-33066/unit-4157/home/186102119,Beaches MLS,F10387702,N,Y,26.2666813,-80.1803829
PAST SALE,October-10-2023,Condo/Co-op,8059 NW 15th Mnr #8059,Plantation,FL,33322,325000,2,2.0,PARC VILLAGE CONDO,1034,,1986,,314,357,Sold,,,https://www.redfin.com/FL/Plantation/8059-NW-15th-Mnr-33322/unit-8059/home/184548619,MARMLS,A11446856,N,Y,26.144721,-80.2586281
PAST SALE,August-31-2023,Condo/Co-op,2551 NW 39th Ter #102,Lauderdale Lakes,FL,33311,200000,2,1.0,Lakeside Condo,759,,1983,,264,325,Sold,,,https://www.redfin.com/FL/Lauderdale-Lakes/2551-NW-39th-Ter-33311/unit-102/home/41682269,Beaches MLS,F10393505,N,Y,26.1585339,-80.201206
PAST SALE,September-18-2023,Condo/Co-op,4812 NE 23rd Ave #7,Fort Lauderdale,FL,33308,353000,2,2.0,The Colonial,942,,1965,,375,525,Sold,,,https://www.redfin.com/FL/Fort-Lauderdale/4812-NE-23rd-Ave-33308/unit-7/home/42066070,Beaches MLS,F10394195,N,Y,26.1867102,-80.1146741
PAST SALE,September-15-2023,Condo/Co-op,7706 Granville Dr #104,Tamarac,FL,33321,334500,2,2.0,GRANVILLE CONDOMINIUM,1500,,1998,,223,607,Sold,,,https://www.redfin.com/FL/Tamarac/7706-Granville-Dr-33321/unit-104/home/41975907,MARMLS,A11437859,N,Y,26.2222276,-80.2911537
PAST SALE,September-11-2023,Condo/Co-op,1203 Bahama Bnd Unit D2,Coconut Creek,FL,33066,127000,1,1.0,Wynmoor,661,,1975,,192,455,Sold,,,https://www.redfin.com/FL/Coconut-Creek/1203-Bahama-Bnd-33066/unit-D2/home/41492853,Beaches MLS,F10393850,N,Y,26.2468655,-80.171979
PAST SALE,September-8-2023,Condo/Co-op,800 Parkview Dr #1029,Hallandale Beach,FL,33009,299900,2,2.0,OCEANVIEW PARK CONDO,1130,,1976,,265,665,Sold,,,https://www.redfin.com/FL/Hallandale-Beach/800-Parkview-Dr-33009/unit-1029/home/41948669,MARMLS,A11419870,N,Y,25.9951947,-80.1210054
PAST SALE,August-24-2023,Condo/Co-op,3506 NW 49th Ave Unit M-411,Lauderdale Lakes,FL,33319,125000,1,1.0,Marigold Gardens,684,,1973,,183,297,Sold,,,https://www.redfin.com/FL/Lauderdale-Lakes/3506-NW-49th-Ave-33319/unit-M-411/home/183727699,Beaches MLS,F10385817,N,Y,26.1714453,-80.2149893
PAST SALE,October-11-2023,Condo/Co-op,2681 S Course Dr #101,Pompano Beach,FL,33069,386500,3,2.0,NO 22 PALM-AIRE COUNTRY C,1390,,1972,,278,610,Sold,,,https://www.redfin.com/FL/Pompano-Beach/2681-S-Course-Dr-33069/unit-101/home/41638791,MARMLS,A11446748,N,Y,26.2191031,-80.1602582
PAST SALE,September-1-2023,Condo/Co-op,1817 S Ocean Dr #219,Hallandale Beach,FL,33009,215000,1,1.5,Imperial Towers Condo,780,,1969,,276,691,Sold,,,https://www.redfin.com/FL/Hallandale-Beach/1817-S-Ocean-Dr-33009/unit-219/home/41959418,Beaches MLS,RX-10907606,N,Y,25.985275,-80.1210849
PAST SALE,August-28-2023,Condo/Co-op,5200 NW 31st Ave #38,Fort Lauderdale,FL,33309,255000,2,2.5,VILLAS AT LAKEVIEW CONDO,1032,,1987,,247,330,Sold,,,https://www.redfin.com/FL/Fort-Lauderdale/5200-NW-31st-Ave-33309/unit-38/home/42036072,MARMLS,A11403040,N,Y,26.1901213,-80.1838094
PAST SALE,September-29-2023,Condo/Co-op,7540 NW 79th Ave Unit T4,Tamarac,FL,33321,405000,3,2.0,Bonaire Village,1624,,1988,,249,500,Sold,,,https://www.redfin.com/FL/Tamarac/7540-NW-79th-Ave-33321/unit-T4/home/41549303,Beaches MLS,F10396357,N,Y,26.2159544,-80.2576369
PAST SALE,October-11-2023,Condo/Co-op,2151 NE 68th St #226,Fort Lauderdale,FL,33308,130000,1,1.5,Imperial Point Colonnades,850,,1971,,153,413,Sold,,,https://www.redfin.com/FL/Fort-Lauderdale/2151-NE-68th-St-33308/unit-226/home/41650526,Beaches MLS,F10401045,N,Y,26.2106024,-80.1140448
PAST SALE,August-11-2023,Condo/Co-op,2363 SW 15th St #86,Deerfield Beach,FL,33442,295000,2,2.0,Meadowrirge Condo,1100,,1981,,268,368,Sold,,,https://www.redfin.com/FL/Deerfield-Beach/2363-SW-15th-St-33442/unit-86/home/41473553,Beaches MLS,F10387476,N,Y,26.2986208,-80.135595
PAST SALE,August-18-2023,Condo/Co-op,2925 NW 126th Ave Unit 421-1,Sunrise,FL,33323,360000,2,2.0,Artesia,1159,,2007,,311,738,Sold,,,https://www.redfin.com/FL/Sunrise/2925-NW-126th-Ave-33323/unit-421-1/home/42069784,Beaches MLS,F10387096,N,Y,26.1613622,-80.3181314
PAST SALE,September-13-2023,Condo/Co-op,4134 Carambola Cir #205,Coconut Creek,FL,33066,280000,2,2.0,Township - Karanda 7,1385,,1985,,202,646,Sold,,,https://www.redfin.com/FL/Coconut-Creek/4134-Carambola-Cir-S-33066/unit-205/home/185726388,Beaches MLS,F10384764,N,Y,26.2660937,-80.1794667
PAST SALE,September-15-2023,Condo/Co-op,5200 Washington St #105,Hollywood,FL,33021,186000,1,1.0,Hillcrest,700,,1976,,266,,Sold,,,https://www.redfin.com/FL/Hollywood/5200-Washington-St-33021/unit-105/home/41948869,Beaches MLS,F10392846,N,Y,26.0019084,-80.1950727
PAST SALE,September-22-2023,Condo/Co-op,2003 Granada Dr Unit G1,Coconut Creek,FL,33066,163000,2,2.0,Wynmoor,1161,,1982,,140,534,Sold,,,https://www.redfin.com/FL/Coconut-Creek/2003-Granada-Dr-33066/unit-G1/home/41495991,Beaches MLS,F10395367,N,Y,26.2532977,-80.176739
PAST SALE,August-28-2023,Condo/Co-op,2400 NW 39th Way #104,Lauderdale Lakes,FL,33311,260000,3,1.5,LAKESIDE CONDO AT LAUDERD,957,,1983,,272,350,Sold,,,https://www.redfin.com/FL/Lauderdale-Lakes/2400-NW-39th-Way-33311/unit-104/home/41685750,MARMLS,A11424664,N,Y,26.156066,-80.2016535
PAST SALE,October-30-2023,Condo/Co-op,301 N Pine Island Rd #121,Plantation,FL,33324,248000,1,1.5,RAINTREE FOREST CONDO,1010,,1976,,246,423,Sold,,,https://www.redfin.com/FL/Plantation/301-N-Pine-Island-Rd-33324/unit-121/home/41747640,MARMLS,A11460175,N,Y,26.1233582,-80.2647622
PAST SALE,August-23-2023,Condo/Co-op,2900 NW 42 #105,Coconut Creek,FL,33066,285000,2,2.0,Tradewinds At The Townshi,,,1984,,,537,Sold,,,https://www.redfin.com/FL/Coconut-Creek/2900-NW-42nd-Ave-33066/unit-105/home/104354794,Beaches MLS,F10389415,N,Y,26.2642399,-80.1830435
PAST SALE,October-12-2023,Condo/Co-op,4851 NW 21st St #211,Lauderhill,FL,33313,97000,1,1.5,Castle Apartments,928,,1973,,105,376,Sold,,,https://www.redfin.com/FL/Lauderhill/4851-NW-21st-St-33313/unit-211/home/41596144,Beaches MLS,F10397915,N,Y,26.1530091,-80.2156177
PAST SALE,August-7-2023,Condo/Co-op,340 Sunset Dr #407,Fort Lauderdale,FL,33301,220000,1,1.5,ESSEX TOWER CONDO,841,,1971,,262,654,Sold,,,https://www.redfin.com/FL/Fort-Lauderdale/340-Sunset-Dr-33301/unit-407/home/41800044,MARMLS,A11413139,N,Y,26.1192869,-80.1133111
PAST SALE,August-31-2023,Condo/Co-op,8750 Royal Palm Blvd Unit 203-3,Coral Springs,FL,33065,210000,2,2.0,PALM VILLAGE CONDO,805,,1984,,261,356,Sold,,,https://www.redfin.com/FL/Coral-Springs/8750-Royal-Palm-Blvd-33065/unit-203-3/home/41432275,MARMLS,A11412881,N,Y,26.2582088,-80.2421193
PAST SALE,August-22-2023,Condo/Co-op,9430 Tangerine Pl #301,Davie,FL,33324,255000,2,2.0,Pine Island Ridge,1100,,1978,,232,477,Sold,,,https://www.redfin.com/FL/Davie/9430-Tangerine-Pl-33324/unit-301/home/41768348,MARMLS,A11411661,N,Y,26.1014697,-80.2731543
PAST SALE,November-2-2023,Condo/Co-op,2301 Lucaya Ln Unit F1,Coconut Creek,FL,33066,115000,1,1.5,Wynmoor,811,,1980,,142,487,Sold,,,https://www.redfin.com/FL/Coconut-Creek/2301-Lucaya-Ln-33066/unit-F1/home/41494669,Beaches MLS,F10399146,N,Y,26.2555852,-80.1834525
PAST SALE,September-5-2023,Condo/Co-op,4069 NW 87th Ave #4069,Sunrise,FL,33351,205500,1,1.0,PRESERVE AT AVERY LAKES,595,,1986,,345,254,Sold,,,https://www.redfin.com/FL/Sunrise/4069-NW-87th-Ave-33351/unit-4069/home/177074378,MARMLS,A11427024,N,Y,26.1746078,-80.2665831
PAST SALE,August-18-2023,Condo/Co-op,6921 Environ Blvd Unit 2P,Lauderhill,FL,33319,150000,2,2.0,ENVIRON I CONDO 9,1160,,1973,,129,710,Sold,,,https://www.redfin.com/FL/Lauderhill/6921-Environ-Blvd-33319/unit-2P/home/41584792,MARMLS,A11403423,N,Y,26.1744133,-80.2438523
PAST SALE,September-12-2023,Condo/Co-op,5860 W Sample Rd #208,Coral Springs,FL,33067,292000,2,2.0,Poinciana Place,1084,,2005,,269,489,Sold,,,https://www.redfin.com/FL/Coral-Springs/5860-W-Sample-Rd-33067/unit-208/home/42032722,Beaches MLS,F10389747,N,Y,26.272885,-80.203238
PAST SALE,August-25-2023,Condo/Co-op,2301 W Preserve Way #201,Miramar,FL,33025,256000,1,1.0,El-ad Residences At Miram,726,,2005,,353,288,Sold,,,https://www.redfin.com/FL/Miramar/2301-W-Preserve-Way-33025/unit-201/home/42050483,Beaches MLS,F10392142,N,Y,25.9877224,-80.2935349
PAST SALE,September-8-2023,Condo/Co-op,2101 Atlantic Shores Blvd #111,Hallandale Beach,FL,33009,243000,1,1.5,DESOTO PARK NORTH CONDO,1100,,1976,,221,477,Sold,,,https://www.redfin.com/FL/Hallandale-Beach/2101-Atlantic-Shores-Blvd-33009/unit-111/home/41959707,MARMLS,A11429588,N,Y,25.9958382,-80.1277233
PAST SALE,August-30-2023,Condo/Co-op,2761 S Oakland Forest Dr #102,Oakland Park,FL,33309,230000,2,1.0,Lakes Of Oakland For,900,,1985,,256,391,Sold,,,https://www.redfin.com/FL/Oakland-Park/2761-S-Oakland-Forest-Dr-33309/unit-102/home/41662861,Beaches MLS,F10390231,N,Y,26.1687659,-80.1813444
PAST SALE,August-21-2023,Condo/Co-op,4020 W Palm Aire Dr #408,Pompano Beach,FL,33069,250000,2,2.0,NO 103 PALM-AIRE COUNTRY,1225,,1979,,204,553,Sold,,,https://www.redfin.com/FL/Pompano-Beach/4020-W-Palm-Aire-Dr-33069/unit-408/home/41644430,MARMLS,A11418001,N,Y,26.217049,-80.1729025
PAST SALE,October-18-2023,Condo/Co-op,2131 SW 92nd Ter #1602,Davie,FL,33324,378000,2,2.0,The Gardens,1380,,1981,,274,540,Sold,,,https://www.redfin.com/FL/Davie/2131-SW-92nd-Ter-33324/unit-1602/home/41768316,Beaches MLS,F10400322,N,Y,26.0923493,-80.2720238
PAST SALE,October-25-2023,Condo/Co-op,2502 NW 89th Dr #2502,Coral Springs,FL,33065,238000,2,2.0,Beacon Place Condo,850,,1985,,280,480,Sold,,,https://www.redfin.com/FL/Coral-Springs/2502-NW-89th-Dr-33065/unit-2502/home/41430032,Beaches MLS,RX-10919213,N,Y,26.260914,-80.24545
PAST SALE,,Condo/Co-op,250 Jacaranda Dr #406,Plantation,FL,33324,243500,2,2.0,,1015,,1975,,240,,,,,https://www.redfin.com/FL/Plantation/250-Jacaranda-Dr-33324/unit-406/home/41752813,,,N,Y,26.117959,-80.2699008
PAST SALE,October-19-2023,Condo/Co-op,1501 SW 131st Way Unit 211P,Pembroke Pines,FL,33027,235000,2,2.0,CENTURY VILLAGE,1082,,1992,,217,493,Sold,,,https://www.redfin.com/FL/Pembroke-Pines/1501-SW-131st-Way-33027/unit-P211/home/41844743,MARMLS,A11440576,N,Y,25.9944923,-80.3213977
PAST SALE,August-11-2023,Condo/Co-op,650 SW 124th Ter Unit 401P,Pembroke Pines,FL,33027,238000,2,2.0,BUCKINGHAM EAST AT CENTURY,1196,,1988,,199,559,Sold,,,https://www.redfin.com/FL/Pembroke-Pines/650-SW-124th-Ter-33027/unit-401P/home/41845220,MARMLS,A11404343,N,Y,26.0020105,-80.3128404
PAST SALE,October-6-2023,Condo/Co-op,12231 Royal Palm Blvd Unit 4P,Coral Springs,FL,33065,265000,2,2.0,ROYAL GARDENS A-Q CONDO,1100,,1988,,241,433,Sold,,,https://www.redfin.com/FL/Coral-Springs/12231-Royal-Palm-Blvd-33065/unit-4P/home/41421420,MARMLS,A11440288,N,Y,26.2596494,-80.2890497
PAST SALE,August-14-2023,Condo/Co-op,5628 Rock Island Rd #192,Tamarac,FL,33319,195000,2,2.0,Sun Vista Gardens,1140,,1988,,171,602,Sold,,,https://www.redfin.com/FL/Tamarac/5628-Rock-Island-Rd-33319/unit-192/home/42058310,Beaches MLS,F10388642,N,Y,26.194319,-80.2184936
PAST SALE,August-21-2023,Condo/Co-op,450 Commodore Dr #206,Plantation,FL,33325,240000,2,2.0,Lago West Condominium,1130,,1979,,212,311,Sold,,,https://www.redfin.com/FL/Plantation/450-Commodore-Dr-33325/unit-206/home/41724514,Beaches MLS,F10387516,N,Y,26.1248213,-80.32554
PAST SALE,August-25-2023,Condo/Co-op,3010 N Course Dr #305,Pompano Beach,FL,33069,229000,1,1.5,Palm Aire,1130,,1973,,203,403,Sold,,,https://www.redfin.com/FL/Pompano-Beach/3010-N-Course-Dr-33069/unit-305/home/41639606,Beaches MLS,F10386718,N,Y,26.2247482,-80.1653162
PAST SALE,September-14-2023,Condo/Co-op,200 Ashbury Rd #107,Hollywood,FL,33024,77500,0,1.0,ASHBURY HOUSE,490,,1971,,158,436,Sold,,,https://www.redfin.com/FL/Hollywood/200-Ashbury-Rd-33024/unit-107/home/41865319,MARMLS,A11440794,N,Y,26.0446668,-80.2280579
PAST SALE,,Condo/Co-op,4848 N State Road 7 #4202,Coconut Creek,FL,33073,340000,2,2.0,,967,,2002,,352,,,,,https://www.redfin.com/FL/Coconut-Creek/4848-N-State-Road-7-33073/unit-4202/home/42050667,,,N,Y,26.289054,-80.199925
PAST SALE,October-10-2023,Condo/Co-op,1400 NE 54th St #107,Fort Lauderdale,FL,33334,285000,2,2.0,Coral Point Condominium,952,,1976,,299,500,Sold,,,https://www.redfin.com/FL/Fort-Lauderdale/1400-NE-54th-St-33334/unit-107/home/42060626,Beaches MLS,F10399229,N,Y,26.1947013,-80.1307825
PAST SALE,October-30-2023,Condo/Co-op,4955 E Sabal Palm Blvd #306,Tamarac,FL,33319,185000,2,2.0,Lakes Of Carriage Hills,1365,,1984,,136,443,Sold,,,https://www.redfin.com/FL/Tamarac/4955-E-Sabal-Palm-Blvd-33319/unit-306/home/41567904,Beaches MLS,F10401032,N,Y,26.2000795,-80.2158865
PAST SALE,September-15-2023,Condo/Co-op,4141 NW 26th St #326,Lauderhill,FL,33313,120000,2,2.0,GARDENS AT LAUDERHILL CON,927,,1973,,129,446,Sold,,,https://www.redfin.com/FL/Lauderhill/4141-NW-26th-St-33313/unit-326/home/41595918,MARMLS,A11408942,N,Y,26.1604307,-80.2043332
PAST SALE,October-31-2023,Condo/Co-op,3800 S Ocean Dr #917,Hollywood,FL,33019,415000,2,2.0,HALLMARK OF HOLLYWOOD CON,1334,,1973,,311,896,Sold,,,https://www.redfin.com/FL/Hollywood/3800-S-Ocean-Dr-33019/unit-917/home/41971190,MARMLS,A11453284,N,Y,25.9890122,-80.1200201
PAST SALE,October-23-2023,Condo/Co-op,336 Farnham P #336,Deerfield Beach,FL,33442,180000,2,1.5,Century Village,828,,1976,,217,520,Sold,,,https://www.redfin.com/FL/Deerfield-Beach/336-Farnham-Cir-33442/unit-336/home/77714523,Beaches MLS,F10396347,N,Y,26.3054142,-80.1324437
PAST SALE,,Condo/Co-op,7727 Southampton Ter #406,Tamarac,FL,33321,265000,2,2.0,,1647,,1998,,161,,,,,https://www.redfin.com/FL/Tamarac/7727-Southampton-Ter-33321/unit-406/home/41975966,,,N,Y,26.2195972,-80.2892291
PAST SALE,September-1-2023,Condo/Co-op,1446 Hayes St #9,Hollywood,FL,33020,225000,2,2.0,Marlynn,1300,,1963,,173,234,Sold,,,https://www.redfin.com/FL/Hollywood/1446-Hayes-St-33020/unit-9/home/41934242,Beaches MLS,F10394844,N,Y,26.0206276,-80.136791
PAST SALE,October-4-2023,Condo/Co-op,3200 NE 36th St #822,Fort Lauderdale,FL,33308,285000,2,2.0,Coral Ridge Towers North,1120,,1963,,254,758,Sold,,,https://www.redfin.com/FL/Fort-Lauderdale/3200-NE-36th-St-33308/unit-822/home/41715110,Beaches MLS,F10397895,N,Y,26.171847,-80.1027686
PAST SALE,August-8-2023,Condo/Co-op,2866 NE 30th St #4,Fort Lauderdale,FL,33306,295000,2,2.0,Lafayette Arms,931,,1961,,317,450,Sold,,,https://www.redfin.com/FL/Fort-Lauderdale/2866-NE-30th-St-33306/unit-4/home/41670949,Beaches MLS,F10377432,N,Y,26.1658345,-80.1056483
PAST SALE,August-11-2023,Condo/Co-op,250 Jacaranda Dr #109,Plantation,FL,33324,261000,2,2.0,CORONADO AT JACARANDA PHA,1015,,1975,,257,475,Sold,,,https://www.redfin.com/FL/Plantation/250-Jacaranda-Dr-33324/unit-109/home/41755317,MARMLS,A11412310,N,Y,26.117959,-80.2699008
PAST SALE,September-27-2023,Condo/Co-op,3725 S Ocean Dr #1006,Hollywood,FL,33019,639000,2,2.0,SEA AIR TOWERS CONDO,1248,,1971,,512,895,Sold,,,https://www.redfin.com/FL/Hollywood/3725-S-Ocean-Dr-33019/unit-1006/home/41971014,MARMLS,A11446284,N,Y,25.9898475,-80.1183443
PAST SALE,October-2-2023,Condo/Co-op,3100 NE 47th Ct #303,Fort Lauderdale,FL,33308,1250000,3,2.5,Intracoastal 31,2780,,1982,,450,1415,Sold,,,https://www.redfin.com/FL/Fort-Lauderdale/3100-NE-47th-Ct-33308/unit-303/home/41706233,Beaches MLS,F10397769,N,Y,26.1867224,-80.103903
PAST SALE,August-21-2023,Condo/Co-op,11650 SW 2nd St #16101,Pembroke Pines,FL,33025,351000,2,2.0,MARQUESA CONDO SUB ACCOUN,1130,,1999,,311,336,Sold,,,https://www.redfin.com/FL/Pembroke-Pines/11650-SW-2nd-St-33025/unit-16101/home/42049767,MARMLS,A11422218,N,Y,26.0046855,-80.3036825
PAST SALE,August-31-2023,Condo/Co-op,510 NW 84th Ave #303,Plantation,FL,33324,300000,1,1.0,VERANDA CONDO,783,,2007,,383,586,Sold,,,https://www.redfin.com/FL/Plantation/510-NW-84th-Ave-33324/unit-303/home/42077921,MARMLS,A11418039,N,Y,26.1275915,-80.2601774
PAST SALE,October-2-2023,Condo/Co-op,2369 NW 89th Dr #501,Coral Springs,FL,33065,235000,2,2.0,Brittany Court,790,,1983,,297,285,Sold,,,https://www.redfin.com/FL/Coral-Springs/2369-NW-89th-Dr-33065/unit-501/home/41430929,Beaches MLS,F10387235,N,Y,26.2596591,-80.242979
PAST SALE,September-6-2023,Condo/Co-op,4371 SW 131st Ln #3204,Miramar,FL,33027,397000,3,2.0,BANYAN BAY CONDO,1417,,2005,,280,470,Sold,,,https://www.redfin.com/FL/Miramar/4371-SW-131st-Ln-33027/unit-3204/home/42021671,MARMLS,A11428004,N,Y,25.9683061,-80.3223035
PAST SALE,September-28-2023,Condo/Co-op,7300 NW 17th St #109,Plantation,FL,33313,152000,1,1.5,OMEGA CONDO NO 4,960,,1974,,158,471,Sold,,,https://www.redfin.com/FL/Plantation/7300-NW-17th-St-33313/unit-109/home/41622568,MARMLS,A11434756,N,Y,26.1466339,-80.2483114
PAST SALE,August-30-2023,Condo/Co-op,505 S Pine Island Rd Unit B104,Plantation,FL,33324,325000,2,2.0,NEWPORT CONDO,1044,,1972,,311,408,Sold,,,https://www.redfin.com/FL/Plantation/505-S-Pine-Island-Rd-33324/unit-B104/home/42007006,MARMLS,A11423693,N,Y,26.1139878,-80.261273
PAST SALE,September-12-2023,Condo/Co-op,505 E Dania Beach Blvd Unit 4K,Dania,FL,33004,215000,1,1.5,Danians,900,,1974,,239,430,Sold,,,https://www.redfin.com/FL/Dania-Beach/505-E-Dania-Beach-Blvd-33004/unit-4K/home/186499135,Beaches MLS,F10395203,N,Y,26.0540141,-80.1350513
PAST SALE,September-15-2023,Condo/Co-op,2100 S Ocean Dr Unit 3-CD,Fort Lauderdale,FL,33316,380000,3,2.5,Sky Harbour East,1920,,1965,,198,1609,Sold,,,https://www.redfin.com/FL/Fort-Lauderdale/2100-S-Ocean-Dr-33316/unit-3CD/home/41805785,Beaches MLS,F10387489,N,Y,26.095235,-80.108972
PAST SALE,September-6-2023,Condo/Co-op,10982 Royal Palm Blvd Unit 1-2,Coral Springs,FL,33065,190000,2,2.0,Grenadier Gardens,800,,1982,,238,385,Sold,,,https://www.redfin.com/FL/Coral-Springs/10982-Royal-Palm-Blvd-33065/unit-1-2/home/41425783,Beaches MLS,RX-10898758,N,Y,26.2585795,-80.2727227
PAST SALE,September-20-2023,Condo/Co-op,6700 Cypress Rd #507,Plantation,FL,33317,170000,1,1.0,PLANTATION PLACE CONDO,720,,1979,,236,301,Sold,,,https://www.redfin.com/FL/Plantation/6700-Cypress-Rd-33317/unit-507/home/41745946,MARMLS,A11421027,N,Y,26.1231079,-80.2366053
PAST SALE,August-31-2023,Condo/Co-op,455 Grantham E #455,Deerfield Beach,FL,33442,210000,2,1.5,Century Village East,841,,1977,,250,524,Sold,,,https://www.redfin.com/FL/Deerfield-Beach/455-Grantham-E-33442/unit-455/home/186110952,Beaches MLS,F10388234,N,Y,26.309107,-80.1352579
PAST SALE,August-24-2023,Condo/Co-op,2043 SW 15th St #208,Deerfield Beach,FL,33442,299500,2,2.0,Meadowridge East Condo,1150,,1983,,260,550,Sold,,,https://www.redfin.com/FL/Deerfield-Beach/2043-SW-15th-St-33442/unit-208/home/41474150,Beaches MLS,F10389763,N,Y,26.298201,-80.130688
PAST SALE,October-24-2023,Condo/Co-op,3319 NW 47th Ave #3240,Coconut Creek,FL,33063,272500,2,2.0,Karanda Village V-b Condo,955,,1985,,285,375,Sold,,,https://www.redfin.com/FL/Coconut-Creek/3319-NW-47th-Ave-33063/unit-3240/home/41486312,Beaches MLS,RX-10907883,N,Y,26.2671709,-80.188773
PAST SALE,September-29-2023,Condo/Co-op,1300 SW 130th Ave Unit 305F,Pembroke Pines,FL,33027,117250,1,1.0,HAWTHORNE AT CENTURY VILL,575,,1990,,204,519,Sold,,,https://www.redfin.com/FL/Pembroke-Pines/1300-SW-130th-Ave-33027/unit-305F/home/41843497,MARMLS,A11431946,N,Y,25.9971089,-80.3188299
PAST SALE,September-11-2023,Condo/Co-op,1431 S 14th Ave #201,Hollywood,FL,33020,240000,2,2.0,TOWN & COUNTRY APTS CONDO,960,,1980,,250,251,Sold,,,https://www.redfin.com/FL/Hollywood/1431-S-14th-Ave-33020/unit-201/home/41958585,MARMLS,A11433286,N,Y,25.999498,-80.1344406
PAST SALE,,Condo/Co-op,2145 Pierce St #301,Hollywood,FL,33020,160000,2,1.0,,650,,1969,,246,,,,,https://www.redfin.com/FL/Hollywood/2145-Pierce-St-33020/unit-301/home/41945275,,,N,Y,26.0165983,-80.1502373
PAST SALE,August-21-2023,Condo/Co-op,10825 NW 30th Pl #223,Sunrise,FL,33322,235000,2,2.0,North Lake Townhomes Cond,1074,,1979,,219,352,Sold,,,https://www.redfin.com/FL/Sunrise/10825-NW-30th-Pl-33322/unit-223/home/41613035,Beaches MLS,F10387340,N,Y,26.164099,-80.2930822
PAST SALE,October-3-2023,Condo/Co-op,4221 W Mcnab Rd #24,Pompano Beach,FL,33069,164200,1,1.0,PALM AIRE GARDENS CONDO,470,,1989,,349,213,Sold,,,https://www.redfin.com/FL/Pompano-Beach/4221-W-McNab-Rd-33069/unit-24/home/42036453,MARMLS,A11434943,N,Y,26.2096928,-80.1828422
PAST SALE,August-31-2023,Condo/Co-op,202 Prescott K #202,Deerfield Beach,FL,33442,125600,2,1.5,Prescott K,828,,1978,,152,531,Sold,,,https://www.redfin.com/FL/Deerfield-Beach/3313-W-Hillsboro-Blvd-33442/unit-202/home/104340931,Beaches MLS,F10387897,N,Y,26.3182656,-80.1488768
PAST SALE,October-3-2023,Condo/Co-op,900 SW 125th Way Unit R101,Pembroke Pines,FL,33027,350000,2,2.0,Century Village,1507,,1987,,232,657,Sold,,,https://www.redfin.com/FL/Pembroke-Pines/900-SW-125th-Way-33027/unit-R101/home/187218293,Beaches MLS,F10396739,N,Y,26.0009667,-80.3131899
PAST SALE,,Condo/Co-op,900 SW 125th Way Unit 101R,Pembroke Pines,FL,33027,350000,2,2.0,,1533,,1987,,228,,,,,https://www.redfin.com/FL/Pembroke-Pines/900-SW-125th-Way-33027/unit-101R/home/41844408,,,N,Y,26.0009667,-80.3131899
PAST SALE,October-13-2023,Condo/Co-op,1800 NW 55th Ave Unit 4U,Lauderhill,FL,33313,150000,3,2.0,Windermere/tree Gardens S,1350,,1973,,111,338,Sold,,,https://www.redfin.com/FL/Lauderhill/1800-NW-55th-Ave-33313/unit-4U/home/41624533,Beaches MLS,F10394687,N,Y,26.1480378,-80.2231124
PAST SALE,October-12-2023,Condo/Co-op,1733 Mayo St #2,Hollywood,FL,33020,165000,1,1.0,MAYO APARTMENTS ASSOC INC,540,,1965,,306,280,Sold,,,https://www.redfin.com/FL/Hollywood/1733-Mayo-St-33020/unit-2/home/41951559,MARMLS,A11450556,N,Y,25.9989053,-80.1416537
PAST SALE,August-28-2023,Condo/Co-op,6555 W Broward Blvd #207,Plantation,FL,33317,195000,2,2.0,Plantation Club,1152,,1976,,169,620,Sold,,,https://www.redfin.com/FL/Plantation/6555-W-Broward-Blvd-33317/unit-207/home/41746043,Beaches MLS,F10390076,N,Y,26.1215697,-80.2356602
PAST SALE,September-20-2023,Condo/Co-op,10765 Cleary Blvd #308,Plantation,FL,33324,224000,1,1.0,LAKES OF JACARANDA CONDO,734,,1990,,305,276,Sold,,,https://www.redfin.com/FL/Plantation/10765-Cleary-Blvd-33324/unit-308/home/42038131,MARMLS,A11431547,N,Y,26.1342015,-80.2925379
PAST SALE,August-22-2023,Condo/Co-op,2826 Van Buren St #14,Hollywood,FL,33020,158770,1,1.0,LARGUS CONDO,562,,1965,,283,320,Sold,,,https://www.redfin.com/FL/Hollywood/2826-Van-Buren-St-33020/unit-14/home/41944691,MARMLS,A11426157,N,Y,26.0092902,-80.1644152
PAST SALE,October-26-2023,Condo/Co-op,950 Hillcrest Dr #401,Hollywood,FL,33021,210000,2,2.0,HILLCREST COUNTRY CLUB NO,992,,1967,,212,580,Sold,,,https://www.redfin.com/FL/Hollywood/950-Hillcrest-Dr-33021/unit-401/home/41939534,MARMLS,A11451857,N,Y,26.0014832,-80.1899783
PAST SALE,October-11-2023,Condo/Co-op,2170 NW 78th Ave #205,Pembroke Pines,FL,33024,265000,2,2.0,PRESERVE AT WALNUT CREEK,822,,2001,,322,373,Sold,,,https://www.redfin.com/FL/Pembroke-Pines/2170-NW-78th-Ave-33024/unit-205/home/42009616,MARMLS,A11447767,N,Y,26.0290526,-80.2441567
PAST SALE,September-13-2023,Condo/Co-op,1637 NW 81st Way #1637,Plantation,FL,33322,310000,2,2.0,Parc Village,1034,,1983,,300,357,Sold,,,https://www.redfin.com/FL/Plantation/1637-NW-81st-Way-33322/unit-1637/home/104332672,Beaches MLS,F10394057,N,Y,26.145025,-80.260291
PAST SALE,August-21-2023,Condo/Co-op,2301 S Ocean Dr #1406,Hollywood,FL,33019,310000,1,1.5,CATANIA CONDO,1000,,1978,,310,728,Sold,,,https://www.redfin.com/FL/Hollywood/2301-S-Ocean-Dr-33019/unit-1406/home/41960703,MARMLS,A11416926,N,Y,25.9982379,-80.1168524
PAST SALE,September-8-2023,Condo/Co-op,1850 S Ocean Blvd #509,Lauderdale By The Sea,FL,33062,310000,2,2.0,Crane Crest,1002,,1965,,309,1513,Sold,,,https://www.redfin.com/FL/Pompano-Beach/1850-S-Ocean-Blvd-33062/unit-509/home/42041028,Beaches MLS,F10389289,N,Y,26.2069479,-80.093895
PAST SALE,August-18-2023,Condo/Co-op,3900 NE 18th Ave Unit 13C,Oakland Park,FL,33334,437000,2,2.5,Cobble East,1340,,1986,,326,612,Sold,,,https://www.redfin.com/FL/Oakland-Park/3900-NE-18th-Ave-33334/unit-13C/home/41671059,Beaches MLS,F10387076,N,Y,26.1761076,-80.122003
PAST SALE,September-15-2023,Condo/Co-op,4205 N University Dr #101,Sunrise,FL,33351,200000,2,2.0,SPRINGCREST CONDO,944,,1981,,212,535,Sold,,,https://www.redfin.com/FL/Sunrise/4205-N-University-Dr-33351/unit-101/home/41586694,MARMLS,A11405577,N,Y,26.1757255,-80.2536727
PAST SALE,October-11-2023,Condo/Co-op,3550 NW 104th Ave #33,Coral Springs,FL,33065,145000,2,2.0,Coral Springs Gardens,975,,1975,,149,588,Sold,,,https://www.redfin.com/FL/Coral-Springs/3550-NW-104th-Ave-33065/unit-33/home/41418181,Beaches MLS,F10396535,N,Y,26.2742285,-80.2651055
PAST SALE,September-11-2023,Condo/Co-op,620 Tennis Club Dr #302,Fort Lauderdale,FL,33311,346000,3,2.5,Tennis Club,1496,,1972,,231,692,Sold,,,https://www.redfin.com/FL/Fort-Lauderdale/620-Tennis-Club-Dr-33311/unit-302/home/41676651,Beaches MLS,F10395177,N,Y,26.1523653,-80.1488331
PAST SALE,October-12-2023,Condo/Co-op,3199 Foxcroft Rd #103,Miramar,FL,33025,235000,2,2.0,MIRAMAR CLUB CONDOMINIUM,820,,1984,,287,375,Sold,,,https://www.redfin.com/FL/Miramar/3199-Foxcroft-Rd-33025/unit-103/home/41914104,MARMLS,A11446784,N,Y,25.9803484,-80.2673257
PAST SALE,August-22-2023,Condo/Co-op,10145 Sunrise Lakes Blvd #304,Sunrise,FL,33322,125000,2,2.0,Sunrise Lakes Iv,1025,,1980,,122,604,Sold,,,https://www.redfin.com/FL/Sunrise/10145-Sunrise-Lakes-Blvd-33322/unit-304/home/41614863,Beaches MLS,F10388471,N,Y,26.162499,-80.2853106
PAST SALE,August-23-2023,Condo/Co-op,1000 Colony Point Cir #408,Pembroke Pines,FL,33026,145000,2,2.0,COLONY POINT 2 CONDO,852,,1980,,170,498,Sold,,,https://www.redfin.com/FL/Pembroke-Pines/1000-Colony-Point-Cir-33026/unit-408/home/41839596,MARMLS,A11408260,N,Y,26.0146147,-80.3017672
PAST SALE,October-7-2023,Condo/Co-op,1701 NW 75th Ave #209,Plantation,FL,33313,210000,2,2.0,OMEGA CONDO NO 9,952,,1979,,221,495,Sold,,,https://www.redfin.com/FL/Plantation/1701-NW-75th-Ave-33313/unit-209/home/41624778,MARMLS,A11437489,N,Y,26.1470623,-80.250452
PAST SALE,August-30-2023,Condo/Co-op,3361 NW 47th Ter #421,Lauderdale Lakes,FL,33319,175000,2,2.0,CYPRESS CHASE NORTH NO 1,1002,,1981,,175,506,Sold,,,https://www.redfin.com/FL/Lauderdale-Lakes/3361-NW-47th-Ter-33319/unit-421/home/41593443,MARMLS,A11422316,N,Y,26.16713,-80.215191
PAST SALE,,Condo/Co-op,2400 E Preserve Way #102,Miramar,FL,33025,,3,2.0,,1132,,2005,,,,Sold,,,https://www.redfin.com/FL/Miramar/2400-E-Preserve-Way-33025/unit-102/home/42046334,Beaches MLS,,N,Y,25.987604,-80.2929531
PAST SALE,September-18-2023,Condo/Co-op,3430 NW 52nd Ave #105,Lauderdale Lakes,FL,33319,72000,1,1.0,Hawaiian Gardens,684,,1972,,105,335,Sold,,,https://www.redfin.com/FL/Lauderdale-Lakes/3430-NW-52nd-Ave-33319/unit-105/home/41594111,Beaches MLS,F10394692,N,Y,26.1694072,-80.2189294
PAST SALE,,Condo/Co-op,800 SW 137th Ave Unit 203G,Pembroke Pines,FL,33027,200000,2,2.0,,1364,,1994,,147,,,,,https://www.redfin.com/FL/Pembroke-Pines/800-SW-137th-Ave-33027/unit-203G/home/41846163,,,N,Y,26.0007309,-80.3291877
PAST SALE,October-27-2023,Condo/Co-op,550 NW 78th Ter #202,Margate,FL,33063,145000,2,2.0,Oriole Gardens Two,990,,1974,,146,348,Sold,,,https://www.redfin.com/FL/Margate/550-NW-78th-Ter-33063/unit-202/home/41458611,Beaches MLS,F10399249,N,Y,26.2364828,-80.2308643
PAST SALE,October-2-2023,Condo/Co-op,4812 NE 23rd Ave #4,Fort Lauderdale,FL,33308,284900,1,1.0,The Colonial Condo,749,,1965,,380,418,Sold,,,https://www.redfin.com/FL/Fort-Lauderdale/4812-NE-23rd-Ave-33308/unit-4/home/42065605,Beaches MLS,F10389721,N,Y,26.1867102,-80.1146741
PAST SALE,October-12-2023,Condo/Co-op,1733 Mayo St #1,Hollywood,FL,33020,166000,1,1.0,MAYO APARTMENTS ASSOC INC,540,,1965,,307,280,Sold,,,https://www.redfin.com/FL/Hollywood/1733-Mayo-St-33020/unit-1/home/41946535,MARMLS,A11450536,N,Y,25.9989053,-80.1416537
PAST SALE,August-7-2023,Condo/Co-op,610 W Las Olas Blvd Unit 1520N,Fort Lauderdale,FL,33312,405000,1,1.0,Symphony North Condo,823,,2005,,492,758,Sold,,,https://www.redfin.com/FL/Fort-Lauderdale/610-W-Las-Olas-Blvd-33312/unit-1520N/home/42046083,Beaches MLS,F10384696,N,Y,26.1184508,-80.1488986
PAST SALE,October-27-2023,Condo/Co-op,1428 SE 4th Ave #272,Deerfield Beach,FL,33441,176000,1,1.5,Deerfield Pines Condo,800,,1973,,220,400,Sold,,,https://www.redfin.com/FL/Deerfield-Beach/1428-SE-4th-Ave-33441/unit-272/home/41513141,Beaches MLS,RX-10920387,N,Y,26.2991672,-80.0965178
PAST SALE,September-29-2023,Condo/Co-op,1100 NE 1st Ct #103,Hallandale Beach,FL,33009,175000,1,1.0,LSOLEI AT HALLANDALE BEAC,645,,1970,,271,405,Sold,,,https://www.redfin.com/FL/Hallandale-Beach/1100-NE-1st-Ct-33009/unit-103/home/42042807,MARMLS,A11420501,N,Y,25.9868579,-80.1372684
PAST SALE,August-31-2023,Condo/Co-op,701 SW 142nd Ave Unit 108S,Pembroke Pines,FL,33027,325000,2,2.0,PLYMOUTH AT CENTURY VILLA,1207,,1997,,269,1196,Sold,,,https://www.redfin.com/FL/Pembroke-Pines/701-SW-142nd-Ave-33027/unit-108S/home/41849639,MARMLS,A11426910,N,Y,26.0011534,-80.332756
PAST SALE,September-14-2023,Condo/Co-op,550 SE 2nd Ave Unit G6,Deerfield Beach,FL,33441,209000,2,1.0,SEQUOIA GARDENS I CONDO,840,,1981,,249,365,Sold,,,https://www.redfin.com/FL/Deerfield-Beach/550-SE-2nd-Ave-33441/unit-G6/home/41511717,MARMLS,A11412649,N,Y,26.3105535,-80.0994475
