SALE TYPE,SOLD DATE,PROPERTY TYPE,ADDRESS,CITY,STATE OR PROVINCE,ZIP OR POSTAL CODE,PRICE,BEDS,BATHS,LOCATION,SQUARE FEET,LOT SIZE,YEAR BUILT,DAYS ON MARKET,$/SQUARE FEET,HOA/MONTH,STATUS,NEXT OPEN HOUSE START TIME,NEXT OPEN HOUSE END TIME,URL (SEE https://www.redfin.com/buy-a-home/comparative-market-analysis FOR INFO ON PRICING),SOURCE,MLS#,FAVORITE,INTERESTED,LATITUDE,LONGITUDE
PAST SALE,February-9-2023,Condo/Co-op,19316 NE 26th Ave Unit 184C,Miami,FL,33180,385000,2,2.0,Riverwood Sec 3,1579,,1973,,244,714,Sold,,,https://www.redfin.com/FL/Miami/19316-Ne-26th-Ave-33180/unit-184C/home/43007516,Beaches MLS,F10356567,N,Y,25.954511,-80.151217
PAST SALE,February-9-2023,Condo/Co-op,1000 Quayside Ter #912,Miami,FL,33138,382000,2,2.0,TOWERS OF QUAYSIDE CONDO,1538,,1981,,248,1851,Sold,,,https://www.redfin.com/FL/Miami/1000-Quayside-Ter-33138/unit-912/home/43018175,MARMLS,A11231127,N,Y,25.8737145,-80.1683801
PAST SALE,February-9-2023,Condo/Co-op,465 Brickell Ave #3104,Miami,FL,33131,460000,1,1.0,ICONBRICKELL CONDO NO 1,597,,2008,,771,756,Sold,,,https://www.redfin.com/FL/Miami/465-Brickell-Ave-33131/unit-3104/home/43449538,MARMLS,A11311107,N,Y,25.7688518,-80.1885381
PAST SALE,February-8-2023,Condo/Co-op,10790 N Kendall Dr Unit C16,Miami,FL,33176,200000,1,1.0,SPANISH TRACE CONDO,630,,1968,,317,238,Sold,,,https://www.redfin.com/FL/Miami/10790-N-Kendall-Dr-33176/unit-C16/home/43145131,MARMLS,A11308504,N,Y,25.6852539,-80.3675678
PAST SALE,February-8-2023,Condo/Co-op,888 S Douglas Rd #1101,Coral Gables,FL,33134,545000,2,2.0,PUERTA DE PALMAS CONDO,1072,,2007,,508,1032,Sold,,,https://www.redfin.com/FL/Coral-Gables/888-S-Douglas-Rd-33134/unit-1101/home/43378704,MARMLS,A11302343,N,Y,25.7632573,-80.2557039
PAST SALE,February-8-2023,Condo/Co-op,155 Ocean Lane Dr #415,Key Biscayne,FL,33149,960000,2,2.0,COMMODORE CLUB WEST CONDO,1350,,1973,,711,1271,Sold,,,https://www.redfin.com/FL/Key-Biscayne/155-Ocean-Lane-Dr-33149/unit-415/home/42918435,MARMLS,A11283616,N,Y,25.7000999,-80.1586448
PAST SALE,February-8-2023,Condo/Co-op,20379 W Country Club Dr #836,Aventura,FL,33180,377000,2,2.0,CORONADO CONDO - TOWER II,1313,,1975,,287,843,Sold,,,https://www.redfin.com/FL/Aventura/20379-W-Country-Club-Dr-33180/unit-836/home/42935314,MARMLS,A11296045,N,Y,25.964125,-80.1379516
PAST SALE,February-8-2023,Condo/Co-op,1270 SE 26th St #105,Homestead,FL,33035,236500,2,2.0,VENETIA GARDENS CONDO,822,,2003,,288,229,Sold,,,https://www.redfin.com/FL/Homestead/1270-SE-26th-St-33035/unit-105/home/43288852,MARMLS,A11301101,N,Y,25.4454444,-80.4586751
PAST SALE,February-8-2023,Condo/Co-op,4705 NW 7th St Unit 203-7,Miami,FL,33126,218000,2,1.0,SUNSET VILLAS NO 3 CONDO-,728,,1974,,299,305,Sold,,,https://www.redfin.com/FL/Miami/4705-NW-7th-St-33126/unit-203-7/home/42706819,MARMLS,A11320547,N,Y,25.7795321,-80.2718506
PAST SALE,February-7-2023,Condo/Co-op,5255 Collins Ave Unit 6F,Miami Beach,FL,33140,909000,2,2.5,IMPERIAL HOUSE CONDO,1475,,1963,,616,1789,Sold,,,https://www.redfin.com/FL/Miami-Beach/5255-Collins-Ave-33140/unit-6F/home/43450418,MARMLS,A11302716,N,Y,25.8305155,-80.1210179
PAST SALE,February-7-2023,Condo/Co-op,6580 Indian Creek Dr #502,Miami Beach,FL,33141,310000,0,1.0,REGATTA AT INDIAN CREEK C,541,,2006,,573,390,Sold,,,https://www.redfin.com/FL/Miami-Beach/6580-Indian-Creek-Dr-33141/unit-502/home/43355924,MARMLS,A11316004,N,Y,25.8494701,-80.1218215
PAST SALE,February-7-2023,Condo/Co-op,1900 W 54th St #406,Hialeah,FL,33012,262500,2,2.0,WESTLAND EDEN CONDO II,1006,,1975,,261,285,Sold,,,https://www.redfin.com/FL/Hialeah/1900-W-54th-St-33012/unit-406/home/42826208,MARMLS,A11290552,N,Y,25.8708236,-80.3206578
PAST SALE,February-7-2023,Condo/Co-op,1611 Meridian Ave #204,Miami Beach,FL,33139,310000,2,2.0,EMILY CONDO,667,,1925,,465,1174,Sold,,,https://www.redfin.com/FL/Miami-Beach/1611-Meridian-Ave-33139/unit-204/home/110133023,MARMLS,A11294882,N,Y,25.7894763,-80.1361853
PAST SALE,February-7-2023,Condo/Co-op,90 Alton Rd #1011,Miami Beach,FL,33139,1067500,2,2.0,YACHT CLUB AT PORTOFINO C,1130,,1999,,945,2532,Sold,,,https://www.redfin.com/FL/Miami-Beach/90-Alton-Rd-33139/unit-1011/home/43248095,MARMLS,A11292944,N,Y,25.769951,-80.1382778
PAST SALE,February-7-2023,Condo/Co-op,3802 NE 207th St #2601,Aventura,FL,33180,1050000,3,2.5,ONE ISLAND PLACE CONDO II,2370,,1991,,443,4580,Sold,,,https://www.redfin.com/FL/Aventura/3802-NE-207th-St-33180/unit-2601/home/42940936,MARMLS,A11301496,N,Y,25.9681681,-80.1248006
PAST SALE,February-7-2023,Condo/Co-op,2924 Collins Ave #401,Miami Beach,FL,33140,390000,2,2.0,OCEAN VIEW PLAZA CONDO,982,,1980,,397,428,Sold,,,https://www.redfin.com/FL/Miami-Beach/2924-Collins-Ave-33140/unit-401/home/42785189,MARMLS,A11306166,N,Y,25.8055468,-80.1250188
PAST SALE,February-7-2023,Condo/Co-op,8950 NE 8th Ave #303,Miami,FL,33138,166000,1,1.0,SOUTH SHORE CONDO,653,,1974,,254,217,Sold,,,https://www.redfin.com/FL/Miami/8950-NE-8th-Ave-33138/unit-303/home/43044893,MARMLS,A11293419,N,Y,25.8575052,-80.1814202
PAST SALE,February-7-2023,Condo/Co-op,2642 Collins Ave #410,Miami Beach,FL,33140,440000,2,2.0,CAPOMAR CONDO,940,,1998,,468,362,Sold,,,https://www.redfin.com/FL/Miami-Beach/2642-Collins-Ave-33140/unit-410/home/42790316,MARMLS,A11308397,N,Y,25.8032626,-80.1263293
PAST SALE,February-7-2023,Condo/Co-op,8100 Geneva Ct #446,Doral,FL,33166,258000,1,1.0,LAS VISTAS AT DORAL CONDO,710,,1984,,363,300,Sold,,,https://www.redfin.com/FL/Doral/8100-Geneva-Ct-33166/unit-446/home/43326382,MARMLS,A11244080,N,Y,25.8174869,-80.3283456
PAST SALE,February-7-2023,Condo/Co-op,8075 NW 7th St #512,Miami,FL,33126,242500,2,2.0,FONTAINEBLEAU GARDENS CON,870,,1988,,279,300,Sold,,,https://www.redfin.com/FL/Miami/8075-NW-7th-St-33126/unit-512/home/43300883,MARMLS,A11318396,N,Y,25.7772573,-80.3260979
PAST SALE,February-7-2023,Condo/Co-op,7235 NW 179th St #104,Hialeah,FL,33015,230000,2,2.0,VILLA BELLINI CONDO,976,,1988,,236,295,Sold,,,https://www.redfin.com/FL/Hialeah/7235-NW-179th-St-33015/unit-104/home/43353448,MARMLS,A11293696,N,Y,25.9376162,-80.3195255
PAST SALE,February-7-2023,Condo/Co-op,100 Bayview Dr #805,Sunny Isles Beach,FL,33160,660000,2,2.0,ARLEN HOUSE EAST CONDO,1603,,1975,,412,938,Sold,,,https://www.redfin.com/FL/Sunny-Isles-Beach/100-Bayview-Dr-33160/unit-805/home/43243269,MARMLS,A11298440,N,Y,25.9227502,-80.1230994
PAST SALE,February-7-2023,Condo/Co-op,2910 SE 13th Rd Unit 203-44,Homestead,FL,33035,217400,2,2.0,VENETIA GARDENS SOUTH CON,815,,2005,,267,244,Sold,,,https://www.redfin.com/FL/Homestead/2910-SE-13th-Rd-33035/unit-203-44/home/43325184,MARMLS,A11299832,N,Y,25.4421523,-80.4574662
PAST SALE,February-7-2023,Condo/Co-op,501 NE 31st St #2408,Miami,FL,33137,660000,2,2.0,PARAISO BAYVIEWS CONDO,1084,,2018,,609,2176,Sold,,,https://www.redfin.com/FL/Miami/501-NE-31st-St-33137/unit-2408/home/79134081,MARMLS,A11297411,N,Y,25.8068816,-80.1873138
PAST SALE,February-7-2023,Condo/Co-op,5055 Collins Ave Unit 14H,Miami Beach,FL,33140,520000,1,2.0,CRYSTAL HOUSE CONDO,1260,,1961,,413,1100,Sold,,,https://www.redfin.com/FL/Miami-Beach/5055-Collins-Ave-33140/unit-14H/home/42774574,MARMLS,A11301474,N,Y,25.8275854,-80.1209182
PAST SALE,February-7-2023,Condo/Co-op,5825 Collins Ave Unit 9J,Miami Beach,FL,33140,535000,2,2.0,CORINTHIAN CONDO,1295,,1967,,413,1133,Sold,,,https://www.redfin.com/FL/Miami-Beach/5825-Collins-Ave-33140/unit-9J/home/42774494,MARMLS,A11291261,N,Y,25.84008,-80.1203947
PAST SALE,February-6-2023,Condo/Co-op,17255 SW 95th Ave #227,Palmetto Bay,FL,33157,185000,2,1.0,VILLAGE HOMES & CONDOS AT,801,,1971,,231,439,Sold,,,https://www.redfin.com/FL/Palmetto-Bay/17255-SW-95th-Ave-33157/unit-227/home/43362844,MARMLS,A11321202,N,Y,25.6094583,-80.3462448
PAST SALE,February-6-2023,Condo/Co-op,4702 SW 67th Ave Unit O-9,Miami,FL,33155,375000,2,1.5,OASIS NO FOUR CONDO,1065,,1979,,352,426,Sold,,,https://www.redfin.com/FL/Miami/4702-SW-67th-Ave-33155/unit-O9/home/45487624,MARMLS,A11313134,N,Y,25.726544,-80.303685
PAST SALE,February-6-2023,Condo/Co-op,2522 SE 19th Pl Unit 203-B,Homestead,FL,33035,235000,2,2.0,KEYS GATE CONDO NO TWO,1040,,1989,,226,546,Sold,,,https://www.redfin.com/FL/Homestead/2522-SE-19th-Pl-33035/unit-203-B/home/42898261,MARMLS,A11273486,N,Y,25.45373,-80.438384
PAST SALE,February-6-2023,Condo/Co-op,6001 NW 114th Ct #130,Doral,FL,33178,380000,2,2.5,THE GATES AT DORAL ISLES,1050,,2001,,362,360,Sold,,,https://www.redfin.com/FL/Doral/6001-NW-114th-Ct-33178/unit-130/home/43262162,MARMLS,A11327284,N,Y,25.829661,-80.384293
PAST SALE,February-6-2023,Condo/Co-op,1000 West Ave #1011,Miami Beach,FL,33139,800000,2,2.0,MIRADOR 1000 CONDO,1197,,1968,,668,1324,Sold,,,https://www.redfin.com/FL/Miami-Beach/1000-West-Ave-33139/unit-1011/home/43310422,MARMLS,A11322529,N,Y,25.7808649,-80.1427275
PAST SALE,February-6-2023,Condo/Co-op,1111 SW 1 Ave Unit 2220-N,Miami,FL,33131,600000,2,2.0,THE AXIS ON BRICKELL II CO,1104,,2008,,543,782,Sold,,,https://www.redfin.com/FL/Miami/1111-SW-1st-Ave-33130/unit-2220-N/home/43409522,MARMLS,A11222447,N,Y,25.7628418,-80.194655
PAST SALE,February-6-2023,Condo/Co-op,6296 NW 186th St #214,Hialeah,FL,33015,230000,2,2.0,MEDITERRANEAN VILLAS COND,950,,1988,,242,370,Sold,,,https://www.redfin.com/FL/Hialeah/6296-NW-186th-St-33015/unit-214/home/43366149,MARMLS,A11320279,N,Y,25.9416876,-80.3038567
PAST SALE,February-6-2023,Condo/Co-op,1311 SE 31st Ct Unit 205-46,Homestead,FL,33035,229000,2,2.0,VENETIA GARDENS SOUTH CON,815,,2004,,281,269,Sold,,,https://www.redfin.com/FL/Homestead/1311-SE-31st-Ct-33035/unit-205-46/home/43317242,MARMLS,A11287748,N,Y,25.441759,-80.457713
PAST SALE,February-6-2023,Condo/Co-op,3703 NE 166th St #610,North Miami Beach,FL,33160,361000,2,2.0,CORAL ISLE EAST CONDO,1450,,1972,,249,386,Sold,,,https://www.redfin.com/FL/Miami/3703-NE-166th-St-33160/unit-610/home/43430334,MARMLS,A11311417,N,Y,25.9329824,-80.1348802
PAST SALE,February-6-2023,Condo/Co-op,380 E 35th St #2109,Hialeah,FL,33013,172000,1,1.0,GARSAN APTS INC CONDO,600,,1971,,287,170,Sold,,,https://www.redfin.com/FL/Hialeah/380-E-35th-St-33013/unit-2109/home/42851286,MARMLS,A11288972,N,Y,25.8539761,-80.2753889
PAST SALE,February-6-2023,Condo/Co-op,2333 Brickell Ave #2006,Miami,FL,33129,625000,2,2.0,BRICKELL BAY CLUB CONDO,1760,,1974,,355,2215,Sold,,,https://www.redfin.com/FL/Miami/2333-Brickell-Ave-33129/unit-2006/home/42763642,MARMLS,A11182332,N,Y,25.7506906,-80.1996674
PAST SALE,February-6-2023,Condo/Co-op,3025 Indian Creek Dr #321,Miami Beach,FL,33140,215000,1,1.0,SOUTH BEACH BAYSIDE CONDO,240,,1935,,896,1112,Sold,,,https://www.redfin.com/FL/Miami-Beach/3025-Indian-Creek-Dr-33140/unit-321/home/42791341,MARMLS,A11284958,N,Y,25.8066956,-80.1254332
PAST SALE,February-6-2023,Condo/Co-op,100 Lincoln Rd #415,Miami Beach,FL,33139,300000,1,1.0,THE DECOPLAGE CONDO,570,,1965,,526,1150,Sold,,,https://www.redfin.com/FL/Miami-Beach/100-Lincoln-Rd-33139/unit-415/home/43449745,MARMLS,A11277074,N,Y,25.7904391,-80.1296945
PAST SALE,February-6-2023,Condo/Co-op,7911 Carlyle Ave #2,Miami Beach,FL,33141,173000,0,1.0,7911 CARLYLE CONDO,410,,1951,,422,180,Sold,,,https://www.redfin.com/FL/Miami-Beach/7911-Carlyle-Ave-33141/unit-2/home/43275395,MARMLS,A11334360,N,Y,25.8643028,-80.1244596
PAST SALE,February-6-2023,Condo/Co-op,311 NW 82nd Ave #1218,Miami,FL,33126,365000,4,2.0,CHATEAUBLEU VILLAS AT MID,1330,,1997,,274,232,Sold,,,https://www.redfin.com/FL/Miami/311-NW-82nd-Ave-33126/unit-1218/home/43050155,MARMLS,A11303193,N,Y,25.7739381,-80.3281282
PAST SALE,February-6-2023,Condo/Co-op,3603 SW 17th St #3603,Miami,FL,33145,350000,2,2.0,ALHAMBRA MANORS CONDO,1169,,1986,,299,403,Sold,,,https://www.redfin.com/FL/Miami/3603-SW-17th-St-33145/unit-3603/home/42747410,MARMLS,A11315543,N,Y,25.7555238,-80.2531125
PAST SALE,February-6-2023,Condo/Co-op,22641 SW 88th Pl #303,Cutler Bay,FL,33190,245000,2,2.0,THE COURTS AT BAYSHORE II,817,,2007,,300,225,Sold,,,https://www.redfin.com/FL/Cutler-Bay/22641-SW-88th-Pl-33190/unit-303/home/43439921,MARMLS,A11299711,N,Y,25.5575066,-80.3348076
PAST SALE,February-6-2023,Condo/Co-op,10 SW River Dr #815,Miami,FL,33130,400000,2,1.0,Neo Loft,925,,2003,,432,714,Sold,,,https://www.redfin.com/FL/Miami/10-SW-South-River-Dr-33130/unit-815/home/43303502,Beaches MLS,F10355949,N,Y,25.7732618,-80.2019337
PAST SALE,February-6-2023,Condo/Co-op,815 Euclid Ave #1,Miami Beach,FL,33139,258000,1,1.0,WHISPER CONDO,604,,1936,,427,870,Sold,,,https://www.redfin.com/FL/Miami-Beach/815-Euclid-Ave-33139/unit-1/home/43318084,MARMLS,A11288503,N,Y,25.7786146,-80.1347136
PAST SALE,February-6-2023,Condo/Co-op,133 NE 2nd Ave #2001,Miami,FL,33132,500000,2,2.0,THE LOFT DOWNTOWN II COND,1041,,2007,,480,686,Sold,,,https://www.redfin.com/FL/Miami/133-NE-2nd-Ave-33132/unit-2001/home/43374327,MARMLS,A11284385,N,Y,25.7759537,-80.1901927
PAST SALE,February-6-2023,Condo/Co-op,540 Brickell Key Dr Ph -1803,Miami,FL,33131,615000,2,2.0,BRICKELL KEY II CONDO,1020,,1991,,603,1027,Sold,,,https://www.redfin.com/FL/Miami/540-Brickell-Key-Dr-33131/unit-1803/home/43375965,MARMLS,A11215481,N,Y,25.7680028,-80.1837141
PAST SALE,February-6-2023,Condo/Co-op,1500 NE 127th St #115,North Miami,FL,33161,182000,2,1.5,1500 CORAL TOWERS CONDO,1030,,1964,,177,400,Sold,,,https://www.redfin.com/FL/North-Miami/1500-NE-127th-St-33161/unit-115/home/42873986,MARMLS,A11315933,N,Y,25.8924829,-80.1681183
PAST SALE,February-6-2023,Condo/Co-op,1437 Collins Ave #301,Miami Beach,FL,33139,315000,0,1.5,Z Ocean,500,,2006,,630,2296,Sold,,,https://www.redfin.com/FL/Miami-Beach/1437-Collins-Ave-33139/unit-301/home/43376748,MARMLS,A11201075,N,Y,25.7870966,-80.130042
PAST SALE,February-6-2023,Condo/Co-op,1805 Ponce De Leon Blvd #824,Coral Gables,FL,33134,581000,2,2.0,THE PONCE TOWER CONDO,1014,,2008,,573,877,Sold,,,https://www.redfin.com/FL/Coral-Gables/1805-Ponce-de-Leon-Blvd-33134/unit-824/home/43458606,MARMLS,A11274796,N,Y,25.7557291,-80.2581372
PAST SALE,February-6-2023,Condo/Co-op,15689 SW 73rd Circle Ter Unit 2-2,Miami,FL,33193,200000,2,1.0,LAKESIDE XI CONDO PH III,825,,1982,,242,245,Sold,,,https://www.redfin.com/FL/Miami/15689-SW-73rd-Circle-Ter-33193/unit-22/home/43140203,MARMLS,A11306570,N,Y,25.6971226,-80.4457263
PAST SALE,February-6-2023,Condo/Co-op,10832 N Kendall Dr Unit U16,Miami,FL,33176,200000,1,1.0,SPANISH TRACE CONDO,555,,1968,,360,238,Sold,,,https://www.redfin.com/FL/Miami/10832-SW-88th-St-33176/unit-U16/home/43143407,MARMLS,A11317340,N,Y,25.6852539,-80.3675678
PAST SALE,February-6-2023,Condo/Co-op,6575 W 4th Ave #510,Hialeah,FL,33012,180000,2,2.0,KINGS CASTLE CONDO,852,,1975,,211,257,Sold,,,https://www.redfin.com/FL/Hialeah/6575-W-4th-Ave-33012/unit-510/home/43411437,MARMLS,A11323555,N,Y,25.8821559,-80.290923
PAST SALE,February-3-2023,Condo/Co-op,1060 Brickell Ave #3203,Miami,FL,33131,460000,1,1.5,1060 Brickell,963,,2008,,478,772,Sold,,,https://www.redfin.com/FL/Miami/1060-Brickell-Ave-33131/unit-3203/home/43398004,Beaches MLS,F10360964,N,Y,25.763143,-80.191638
PAST SALE,February-3-2023,Condo/Co-op,151 SE 1st St #3505,Miami,FL,33131,350000,1,1.0,CENTRO CONDO,526,,2016,,665,495,Sold,,,https://www.redfin.com/FL/Miami/151-SE-1st-St-33131/unit-3505/home/56742030,MARMLS,A11272263,N,Y,25.7735999,-80.1906033
PAST SALE,February-3-2023,Condo/Co-op,1925 Washington Ave #12,Miami Beach,FL,33139,240000,1,1.0,MANSFIELD PARK CONDO,650,,1949,,369,353,Sold,,,https://www.redfin.com/FL/Miami-Beach/1925-Washington-Ave-33139/unit-12/home/43451025,MARMLS,A11206692,N,Y,25.7953813,-80.131889
PAST SALE,February-3-2023,Condo/Co-op,4805 NW 7th St Unit 308-15,Miami,FL,33126,250000,2,2.0,SUNSET VILLAS NO 3 CONDO,798,,1974,,313,395,Sold,,,https://www.redfin.com/FL/Miami/4805-NW-7th-St-33126/unit-308-15/home/42715465,MARMLS,A11316268,N,Y,25.7800438,-80.2740765
PAST SALE,February-3-2023,Condo/Co-op,1150 NE 191st St #41,Miami,FL,33179,145000,1,1.0,RIVIERA CONDOMINIUM APTS,830,,1966,,175,358,Sold,,,https://www.redfin.com/FL/Miami/1150-NE-191st-St-33179/unit-41/home/43009516,MARMLS,A11226844,N,Y,25.9508513,-80.1782132
PAST SALE,February-3-2023,Condo/Co-op,1470 NE 123rd St Unit 11th Floor,North Miami,FL,33161,220000,1,1.0,GREENWICH PH I CONDO,782,,1981,,281,415,Sold,,,https://www.redfin.com/FL/North-Miami/1470-NE-123rd-St-33161/unit-11th-Floor/home/182975808,MARMLS,A11305704,N,Y,25.888892,-80.168702
PAST SALE,February-3-2023,Condo/Co-op,6301 Collins Ave #1403,Miami Beach,FL,33141,1200000,3,2.5,LA GORCE PALACE CONDO,1700,,1995,,706,1705,Sold,,,https://www.redfin.com/FL/Miami/6301-Collins-Ave-33141/unit-1403/home/43374269,MARMLS,A11293688,N,Y,25.8445198,-80.1197839
PAST SALE,February-3-2023,Condo/Co-op,6039 Collins Ave #1416,Miami Beach,FL,33140,497250,2,2.0,MAISON GRANDE CONDO,1206,,1971,,412,748,Sold,,,https://www.redfin.com/FL/Miami-Beach/6039-Collins-Ave-33140/unit-1416/home/42779501,MARMLS,A11293416,N,Y,25.8431837,-80.1203074
PAST SALE,February-3-2023,Condo/Co-op,17001 Collins Ave Ph 4904,Sunny Isles Beach,FL,33160,6650000,5,6.5,JADE BEACH CONDO,8210,,2008,,810,18968,Sold,,,https://www.redfin.com/FL/Sunny-Isles-Beach/17001-Collins-Ave-33160/unit-4904/home/43473543,MARMLS,A11308153,N,Y,25.9335319,-80.1209531
PAST SALE,February-3-2023,Condo/Co-op,1192 NW 124th Pl #110,Miami,FL,33182,320000,3,2.0,VILLA REAL CONDO NO 2,1090,,1996,,294,210,Sold,,,https://www.redfin.com/FL/Miami/1192-NW-124th-Pl-33182/unit-110/home/43043641,MARMLS,A11320206,N,Y,25.7816184,-80.395996
PAST SALE,February-3-2023,Condo/Co-op,290 174th St #2110,Sunny Isles Beach,FL,33160,455000,2,2.0,WINSTON TOWERS 700 CONDO,1396,,1980,,326,700,Sold,,,https://www.redfin.com/FL/Sunny-Isles-Beach/290-174th-St-33160/unit-2110/home/43251864,MARMLS,A11224200,N,Y,25.9360452,-80.130062
PAST SALE,February-3-2023,Condo/Co-op,2801 NE 183 St Unit 712W,Aventura,FL,33160,290000,2,2.0,ADMIRALS PORT CONDO,1220,,1974,,238,1530,Sold,,,https://www.redfin.com/FL/Aventura/2801-NE-183rd-St-33160/unit-712W/home/42944871,MARMLS,A11255065,N,Y,25.9450927,-80.1426199
PAST SALE,February-3-2023,Condo/Co-op,17125 N Bay Rd #3402,Sunny Isles Beach,FL,33160,330000,1,1.0,PORTO BELLAGIO CONDO,673,,2003,,490,353,Sold,,,https://www.redfin.com/FL/Sunny-Isles-Beach/17125-N-Bay-Rd-33160/unit-3402/home/43317627,MARMLS,A11313916,N,Y,25.9343734,-80.1259157
PAST SALE,February-3-2023,Condo/Co-op,19380 Collins Ave #1401,Sunny Isles Beach,FL,33160,435000,2,2.0,OCEANVIEW BUILDING B CONDO,1505,,1972,,289,,Sold,,,https://www.redfin.com/FL/Sunny-Isles-Beach/19380-Collins-Ave-33160/unit-1401/home/43362026,MARMLS,A11320231,N,Y,25.9548595,-80.1232898
PAST SALE,February-3-2023,Condo/Co-op,7330 Ocean Ter Unit 21-B,Miami Beach,FL,33141,1400000,2,2.0,ST TROPEZ OCEAN CONDO,1680,,1999,,833,2192,Sold,,,https://www.redfin.com/FL/Miami-Beach/7330-Ocean-Ter-33141/unit-21-B/home/42772357,MARMLS,A11286201,N,Y,25.8589994,-80.1201447
PAST SALE,February-3-2023,Condo/Co-op,17121 Collins Ave #1108,Sunny Isles Beach,FL,33160,2350000,3,3.5,JADE OCEAN CONDO,1956,,2009,,1201,2333,Sold,,,https://www.redfin.com/FL/Sunny-Isles-Beach/17121-Collins-Ave-33160/unit-1108/home/43416567,MARMLS,A11158434,N,Y,25.9344014,-80.1210054
PAST SALE,February-3-2023,Condo/Co-op,11800 SW 18th St Unit 108-4,Miami,FL,33175,235000,2,2.0,INTERNATIONAL PARK CONDO,898,,1984,,262,249,Sold,,,https://www.redfin.com/FL/Miami/11800-SW-18th-St-33175/unit-108-4/home/43109617,MARMLS,A11317362,N,Y,25.749059,-80.3874276
PAST SALE,February-3-2023,Condo/Co-op,235 Antilla Ave #5,Coral Gables,FL,33134,330000,2,1.5,235 ANTILLA CONDO,1048,,1980,,315,460,Sold,,,https://www.redfin.com/FL/Coral-Gables/235-Antilla-Ave-33134/unit-5/home/43357398,MARMLS,A11313704,N,Y,25.760722,-80.2604346
PAST SALE,February-3-2023,Condo/Co-op,10201 Collins Ave #2403,Bal Harbour,FL,33154,8500000,3,4.5,OCEANA BAL HARBOUR CONDO,3264,,2016,,2604,9178,Sold,,,https://www.redfin.com/FL/Bal-Harbour/10201-Collins-Ave-33154/unit-2403/home/56744291,MARMLS,A11289639,N,Y,25.8951677,-80.12315
PAST SALE,February-3-2023,Condo/Co-op,1615 West Ave #205,Miami Beach,FL,33139,300000,1,1.5,WEST COURT CONDO,700,,1970,,429,483,Sold,,,https://www.redfin.com/FL/Miami-Beach/1615-West-Ave-33139/unit-205/home/42788059,MARMLS,A11282130,N,Y,25.7894961,-80.1420799
PAST SALE,February-3-2023,Condo/Co-op,8287 SW 128th St #207,Pinecrest,FL,33156,360000,3,2.0,SUNRISE POINT CONDO BLDG,1086,,1974,,331,381,Sold,,,https://www.redfin.com/FL/Pinecrest/8287-SW-128th-St-33156/unit-207/home/42918919,MARMLS,A11300671,N,Y,25.6530301,-80.3281223
PAST SALE,February-3-2023,Condo/Co-op,1000 S Pointe Dr #801,Miami Beach,FL,33139,8250000,3,4.5,MURANO AT PORTOFINO CONDO,3365,,2002,,2452,3588,Sold,,,https://www.redfin.com/FL/Miami-Beach/1000-S-Pointe-Dr-33139/unit-801/home/43275740,MARMLS,A11273829,N,Y,25.768712,-80.13767
PAST SALE,February-3-2023,Condo/Co-op,4718 SW 67th Ave Unit B10,Miami,FL,33155,465000,2,1.5,OASIS NO 1 CONDO,1065,,1975,,437,390,Sold,,,https://www.redfin.com/FL/Miami/4718-SW-67th-Ave-33155/unit-B10/home/43083270,MARMLS,A11312524,N,Y,25.7268881,-80.3067875
PAST SALE,February-3-2023,Condo/Co-op,7725 Carlyle Ave #12,Miami Beach,FL,33141,195000,1,1.0,ROSE CONDO,600,,1959,,325,431,Sold,,,https://www.redfin.com/FL/Miami-Beach/7725-Carlyle-Ave-33141/unit-12/home/42770502,MARMLS,A11298333,N,Y,25.8625183,-80.1244453
PAST SALE,February-3-2023,Condo/Co-op,4501 Prairie Ave #5,Miami Beach,FL,33140,684999,2,1.5,THE EWING CONDO,1420,,1925,,482,1268,Sold,,,https://www.redfin.com/FL/Miami-Beach/4501-Prairie-Ave-33140/unit-5/home/42787902,MARMLS,A11292935,N,Y,25.8192826,-80.129494
PAST SALE,February-3-2023,Condo/Co-op,851 NE 1st Ave Unit CAB 21,Miami,FL,33132,206000,0,1.0,PARAMOUNT MIAMI WORLDCENT,,,2019,,,,Sold,,,https://www.redfin.com/FL/Miami/851-NE-1st-Ave-33132/unit-CAB-21/home/172813797,MARMLS,A11269970,N,Y,25.782439,-80.1919795
PAST SALE,February-3-2023,Condo/Co-op,601 NE 36th St #1303,Miami,FL,33137,700000,2,2.5,BLUE CONDO,1174,,2005,,596,1075,Sold,,,https://www.redfin.com/FL/Miami/601-NE-36th-St-33137/unit-1303/home/43338211,MARMLS,A11289048,N,Y,25.8109099,-80.1865808
PAST SALE,February-3-2023,Condo/Co-op,851 NE 1st Ave #4507,Miami,FL,33132,1125000,2,3.0,PARAMOUNT MIAMI WORLDCENT,1547,,2019,,727,1470,Sold,,,https://www.redfin.com/FL/Miami/851-NE-1st-Ave-33132/unit-4507/home/171960465,MARMLS,A11013947,N,Y,25.782502,-80.1917783
PAST SALE,February-3-2023,Condo/Co-op,8650 SW 149th Ave #307,Miami,FL,33193,270000,2,2.0,LAGO DEL REY CONDO #1,1055,,1979,,256,260,Sold,,,https://www.redfin.com/FL/Miami/8650-SW-149th-Ave-33193/unit-307/home/43142357,MARMLS,A11320712,N,Y,25.6863211,-80.4339456
PAST SALE,February-3-2023,Condo/Co-op,7501 E Treasure Dr Unit 1D,North Bay Village,FL,33141,270000,1,1.0,TREASURES ON THE BAY II C,885,,1965,,305,658,Sold,,,https://www.redfin.com/FL/North-Bay-Village/7501-E-Treasure-Dr-33141/unit-1D/home/43446343,MARMLS,A11314373,N,Y,25.8450826,-80.1456413
PAST SALE,February-3-2023,Condo/Co-op,3339 Virginia St #202,Miami,FL,33133,600000,2,2.0,LOFTS AT MAYFAIR CONDO,,,2007,,,606,Sold,,,https://www.redfin.com/FL/Miami/3339-Virginia-St-33133/unit-202/home/43382669,MARMLS,A11318823,N,Y,25.7292912,-80.24128
PAST SALE,February-3-2023,Condo/Co-op,2385 NW 11th St Unit B21,Miami,FL,33125,160000,2,1.0,SANDERLING APTS CONDO,716,,1972,,223,264,Sold,,,https://www.redfin.com/FL/Miami/2385-NW-11th-St-33125/unit-B21/home/42721550,MARMLS,A11322485,N,Y,25.7835555,-80.2351374
PAST SALE,February-3-2023,Condo/Co-op,495 Brickell Ave #5301,Miami,FL,33131,1690000,3,2.0,ICON BRICKELL NO TWO,1870,,2009,,904,1469,Sold,,,https://www.redfin.com/FL/Miami/495-Brickell-Ave-33131/unit-5301/home/42677946,MARMLS,A11293962,N,Y,25.7683135,-80.1884553
PAST SALE,February-3-2023,Condo/Co-op,900 Biscayne Blvd #5306,Miami,FL,33132,1900000,3,3.5,900 BISCAYNE BAY CONDO,2145,,2008,,886,1680,Sold,,,https://www.redfin.com/FL/Miami/900-Biscayne-Blvd-33132/unit-5306/home/43410509,MARMLS,A11204792,N,Y,25.7834936,-80.1902091
PAST SALE,February-3-2023,Condo/Co-op,100 S Pointe Dr #1206,Miami Beach,FL,33139,10250000,3,3.5,CONTINUUM ON SOUTH BEACH,2508,,2002,,4087,3963,Sold,,,https://www.redfin.com/FL/Miami-Beach/100-S-Pointe-Dr-33139/unit-1206/home/43276563,MARMLS,A11288042,N,Y,25.7671567,-80.1327543
PAST SALE,February-3-2023,Condo/Co-op,92 SW 3rd St Ph 5209,Miami,FL,33130,1520000,3,2.0,MINT CONDO,1697,,2010,,896,1715,Sold,,,https://www.redfin.com/FL/Miami/92-SW-3rd-St-33130/unit-5209/home/43452385,MARMLS,A11310355,N,Y,25.7700997,-80.1950909
PAST SALE,February-3-2023,Condo/Co-op,11111 Biscayne Blvd Unit 9E / 910,Miami,FL,33181,410000,2,2.0,JOCKEY CLUB CONDO,1377,,1968,,298,945,Sold,,,https://www.redfin.com/FL/Miami/11111-Biscayne-Blvd-33181/unit-9E-910/home/182855350,MARMLS,A11303384,N,Y,25.8792703,-80.1649891
PAST SALE,February-3-2023,Condo/Co-op,18000 N Bay Rd #701,Sunny Isles Beach,FL,33160,465000,2,2.0,Le Montcalm Condo,1090,,1993,,427,755,Sold,,,https://www.redfin.com/FL/Sunny-Isles-Beach/18000-N-Bay-Rd-33160/unit-701/home/43239888,Beaches MLS,F10357873,N,Y,25.9435767,-80.1247062
PAST SALE,February-2-2023,Condo/Co-op,1200 Brickell Bay Dr #3117,Miami,FL,33131,595000,1,1.0,THE CLUB AT BRICKELL BAY,836,,2005,,712,592,Sold,,,https://www.redfin.com/FL/Miami/1200-Brickell-Bay-Dr-33131/unit-3117/home/43310907,MARMLS,A11311731,N,Y,25.7616894,-80.1899397
PAST SALE,February-2-2023,Condo/Co-op,1000 Brickell Plz #2014,Miami,FL,33131,735000,1,1.5,BRICKELL FLATIRON CONDO,870,,2019,,845,955,Sold,,,https://www.redfin.com/FL/Miami/1000-Brickell-Plz-33131/unit-2014/home/79135717,MARMLS,A11240445,N,Y,25.7642644,-80.192725
PAST SALE,February-2-2023,Condo/Co-op,88 SW 7th St Ph 4204,Miami,FL,33130,6400000,4,4.5,RISE CONDO,3606,,2016,,1775,4334,Sold,,,https://www.redfin.com/FL/Miami/88-SW-7th-St-33130/unit-4204/home/110142699,MARMLS,A11321829,N,Y,25.7672401,-80.1947266
PAST SALE,February-2-2023,Condo/Co-op,900 Biscayne Blvd #3909,Miami,FL,33132,1115000,3,3.0,900 BISCAYNE BAY CONDO,1579,,2008,,706,1346,Sold,,,https://www.redfin.com/FL/Miami/900-Biscayne-Blvd-33132/unit-3909/home/43410567,MARMLS,A11306742,N,Y,25.7834936,-80.1902091
PAST SALE,February-2-2023,Condo/Co-op,20201 E Country Club Dr #603,Aventura,FL,33180,1900000,3,4.0,Hamptons South Condo,3264,,2004,,582,552,Sold,,,https://www.redfin.com/FL/Miami/20201-E-Country-Club-Dr-33180/unit-603/home/43321186,Beaches MLS,F10257338,N,Y,25.9650428,-80.1262184
PAST SALE,February-2-2023,Condo/Co-op,5025 Collins Ave #1202,Miami Beach,FL,33140,1165000,2,2.0,CAPOBELLA CONDO,1350,,1995,,863,1289,Sold,,,https://www.redfin.com/FL/Miami-Beach/5025-Collins-Ave-33140/unit-1202/home/42781801,MARMLS,A11297359,N,Y,25.8269511,-80.1210054
PAST SALE,February-2-2023,Condo/Co-op,645 NE 77th St #2,Miami,FL,33138,235000,1,1.0,BELLE MEADE PLACE CONDO,570,,1953,,412,395,Sold,,,https://www.redfin.com/FL/Miami/645-NE-77th-St-33138/unit-2/home/43249648,MARMLS,A11266355,N,Y,25.8462951,-80.183623
PAST SALE,February-2-2023,Condo/Co-op,19355 Turnberry Way Unit 22A,Aventura,FL,33180,550000,2,2.0,TURNBERRY TOWERS CONDO,1512,,1981,,364,1044,Sold,,,https://www.redfin.com/FL/Aventura/19355-Turnberry-Way-33180/unit-22A/home/42936186,MARMLS,A11313365,N,Y,25.955306,-80.1265455
PAST SALE,February-2-2023,Condo/Co-op,7400 W 20th Ave #416,Hialeah,FL,33016,190000,2,2.0,ROYAL PALMS CONDO,840,,1987,,226,212,Sold,,,https://www.redfin.com/FL/Hialeah/7400-W-20th-Ave-33016/unit-416/home/42825568,MARMLS,A11268030,N,Y,25.890281,-80.3256211
PAST SALE,February-2-2023,Condo/Co-op,3400 NE 192 St Unit LPH7,Aventura,FL,33180,420000,2,2.0,MYSTIC POINTE TOWER 600 C,1181,,1991,,356,807,Sold,,,https://www.redfin.com/FL/Aventura/3400-NE-192nd-St-33180/unit-LPH7/home/42943603,MARMLS,A11213270,N,Y,25.9542186,-80.1326959
PAST SALE,February-2-2023,Condo/Co-op,2160 SW 16th Ave #318,Miami,FL,33145,250000,2,1.0,CORAL WAY GARDENS CONDO,919,,1972,,272,458,Sold,,,https://www.redfin.com/FL/Miami/2160-SW-16th-Ave-33145/unit-318/home/43330429,MARMLS,A11303478,N,Y,25.7517159,-80.220952
PAST SALE,February-1-2023,Condo/Co-op,1170 W 41st St #90,Hialeah,FL,33012,250000,2,1.5,OASIS EN MANGO HILL CONDO,818,,1982,,306,145,Sold,,,https://www.redfin.com/FL/Hialeah/1170-W-41st-St-33012/unit-90/home/42846710,MARMLS,A11311917,N,Y,25.8586729,-80.3060661
PAST SALE,February-1-2023,Condo/Co-op,17315 Collins Ave #1105,Sunny Isles Beach,FL,33160,500000,2,2.0,SOLE CONDO,908,,2007,,551,1850,Sold,,,https://www.redfin.com/FL/Sunny-Isles-Beach/17315-Collins-Ave-33160/unit-1105/home/43387443,MARMLS,A11174854,N,Y,25.9365553,-80.1208897
PAST SALE,February-1-2023,Condo/Co-op,17749 Collins Ave #2102,Sunny Isles Beach,FL,33160,6250000,3,6.5,MANSIONS AT ACQUALINA,4609,,2016,,1356,13432,Sold,,,https://www.redfin.com/FL/Sunny-Isles-Beach/17749-Collins-Ave-33160/unit-2102/home/110130577,MARMLS,A11153136,N,Y,25.9400648,-80.1202638
PAST SALE,February-1-2023,Condo/Co-op,1155 Brickell Bay Dr #2011,Miami,FL,33131,890000,2,2.0,THE MARK ON BRICKELL COND,1200,,2001,,742,1352,Sold,,,https://www.redfin.com/FL/Miami/1155-Brickell-Bay-Dr-33131/unit-2011/home/43259160,MARMLS,A11315247,N,Y,25.7621838,-80.1889886
PAST SALE,February-1-2023,Condo/Co-op,17150 N Bay Rd #2111,Sunny Isles Beach,FL,33160,490000,2,2.0,PORTO BELLAGIO CONDO,1116,,2003,,439,1170,Sold,,,https://www.redfin.com/FL/Sunny-Isles-Beach/17150-N-Bay-Rd-33160/unit-2111/home/43332454,MARMLS,A11238596,N,Y,25.9356612,-80.126319
PAST SALE,February-1-2023,Condo/Co-op,1200 Brickell Bay Dr #2318,Miami,FL,33131,480000,1,1.0,THE CLUB AT BRICKELL BAY,825,,2004,,582,580,Sold,,,https://www.redfin.com/FL/Miami/1200-Brickell-Bay-Dr-33131/unit-2318/home/43320956,MARMLS,A11249857,N,Y,25.7616894,-80.1899397
PAST SALE,February-1-2023,Condo/Co-op,151 Crandon Blvd #235,Key Biscayne,FL,33149,1050000,3,2.0,THE EMERALD BAY,1547,,1980,,679,1259,Sold,,,https://www.redfin.com/FL/Key-Biscayne/151-Crandon-Blvd-33149/unit-235/home/42924884,MARMLS,A11193267,N,Y,25.6964727,-80.1615009
PAST SALE,February-1-2023,Condo/Co-op,7531 NW 176th Ter #7531,Hialeah,FL,33015,342000,3,2.0,LILANDIA ESTATES CONDO,1330,,2002,,257,170,Sold,,,https://www.redfin.com/FL/Hialeah/7531-NW-176th-Ter-33015/unit-7531/home/43474047,MARMLS,A11222111,N,Y,25.9332509,-80.32418
PAST SALE,February-1-2023,Condo/Co-op,600 NE 36th St #1123,Miami,FL,33137,445000,1,2.0,CHARTER CLUB CONDO,1096,,1973,,406,923,Sold,,,https://www.redfin.com/FL/Miami/600-NE-36th-St-33137/unit-1123/home/42720955,MARMLS,A11313198,N,Y,25.8097771,-80.1865475
PAST SALE,February-1-2023,Condo/Co-op,186 SE 12th Ter #1007,Miami,FL,33131,430000,1,1.0,SOLARIS AT BRICKELL BAY C,730,,2006,,589,1190,Sold,,,https://www.redfin.com/FL/Miami/186-SE-12th-Ter-33131/unit-1007/home/43366716,MARMLS,A11313612,N,Y,25.7613332,-80.1906131
PAST SALE,February-1-2023,Condo/Co-op,10850 N Kendall Dr #303,Miami,FL,33176,305000,2,2.0,KENDALL GATE CONDO,1242,,1974,,246,452,Sold,,,https://www.redfin.com/FL/Miami/10850-SW-88th-St-33176/unit-303/home/43153366,MARMLS,A11308160,N,Y,25.6852687,-80.3696602
PAST SALE,February-1-2023,Condo/Co-op,1330 West Ave Ph 02,Miami Beach,FL,33139,889000,2,2.0,THE WAVERLY AT SOUTH BEAC,1085,,2001,,819,2052,Sold,,,https://www.redfin.com/FL/Miami-Beach/1330-West-Ave-33139/unit-02/home/179308840,MARMLS,A11290100,N,Y,25.7847252,-80.1432418
PAST SALE,February-1-2023,Condo/Co-op,200 SE 15th Rd Unit 14J,Miami,FL,33129,550000,2,2.0,BRICKELL HARBOUR CONDO,914,,1974,,602,874,Sold,,,https://www.redfin.com/FL/Miami/200-SE-15th-Rd-33129/unit-14J/home/42758956,MARMLS,A11304797,N,Y,25.756524,-80.1912116
PAST SALE,February-1-2023,Condo/Co-op,345 Ocean Dr #903,Miami Beach,FL,33139,397000,1,1.0,OCEAN POINT CONDO,659,,1970,,602,1130,Sold,,,https://www.redfin.com/FL/Miami-Beach/345-Ocean-Dr-33139/unit-903/home/42799616,MARMLS,A11229496,N,Y,25.7728834,-80.1316491
PAST SALE,February-1-2023,Condo/Co-op,186 SE 12th Ter #2204,Miami,FL,33131,583600,2,2.0,SOLARIS AT BRICKELL BAY C,1145,,2006,,510,1096,Sold,,,https://www.redfin.com/FL/Miami/186-SE-12th-Ter-33131/unit-2204/home/43369598,MARMLS,A11326061,N,Y,25.7613332,-80.1906131
PAST SALE,February-1-2023,Condo/Co-op,5 Island Ave Unit LF,Miami Beach,FL,33139,540000,1,1.5,Island Terrace,1100,,1967,,491,820,Sold,,,https://www.redfin.com/FL/Miami-Beach/5-Island-Ave-33139/unit-LF/home/42784484,MARMLS,A11309477,N,Y,25.7905617,-80.1494437
PAST SALE,February-1-2023,Condo/Co-op,2465 SW 18th Ave #3106,Miami,FL,33145,265000,2,1.0,GROVE GARDENS CONDO,900,,1971,,294,360,Sold,,,https://www.redfin.com/FL/Miami/2465-SW-18th-Ave-33145/unit-3106/home/42752211,MARMLS,A11229103,N,Y,25.7458856,-80.2234794
PAST SALE,February-1-2023,Condo/Co-op,17121 Collins Ave #4803,Sunny Isles Beach,FL,33160,8100000,5,6.5,JADE OCEAN CONDO,8332,,2009,,972,19340,Sold,,,https://www.redfin.com/FL/Sunny-Isles-Beach/17121-Collins-Ave-33160/unit-4803/home/42697140,MARMLS,A11300299,N,Y,25.9344014,-80.1210054
PAST SALE,February-1-2023,Condo/Co-op,3370 Hidden Bay Dr #610,Aventura,FL,33180,325000,1,1.0,100 HIDDEN BAY CONDO,800,,2000,,406,620,Sold,,,https://www.redfin.com/FL/Aventura/3370-NE-190th-St-33180/unit-610/home/43256440,MARMLS,A11313274,N,Y,25.9513954,-80.1335247
PAST SALE,January-31-2023,Condo/Co-op,450 Alton Rd #2706,Miami Beach,FL,33139,1780000,2,2.0,ICON CONDO,1452,,2005,,1226,1740,Sold,,,https://www.redfin.com/FL/Miami-Beach/450-Alton-Rd-33139/unit-2706/home/43305374,MARMLS,A11317393,N,Y,25.773308,-80.1404051
PAST SALE,January-31-2023,Condo/Co-op,461 Ives Dairy Rd Unit 203-2,Miami,FL,33179,205000,2,2.0,SUMMERTREE VILG CALIF CL,1287,,1981,,159,595,Sold,,,https://www.redfin.com/FL/Miami/461-Ives-Dairy-Rd-33179/unit-203-2/home/42953370,MARMLS,A11291343,N,Y,25.959331,-80.1920903
PAST SALE,January-31-2023,Condo/Co-op,17315 Collins Ave #805,Sunny Isles Beach,FL,33160,590000,1,1.0,SOLE CONDO,672,,2007,,878,1003,Sold,,,https://www.redfin.com/FL/Sunny-Isles-Beach/17315-Collins-Ave-33160/unit-805/home/43396989,MARMLS,A11273119,N,Y,25.9365553,-80.1208897
PAST SALE,January-31-2023,Condo/Co-op,15701 Collins Ave #2903,Sunny Isles Beach,FL,33160,2800000,2,2.5,15701 COLLINS CONDO,1447,,2020,,1935,2188,Sold,,,https://www.redfin.com/FL/Sunny-Isles-Beach/15701-Collins-Ave-33160/unit-2903/home/171036193,MARMLS,A11201177,N,Y,25.9219791,-80.1217032
PAST SALE,January-31-2023,Condo/Co-op,10 Aragon Ave #806,Coral Gables,FL,33134,720000,2,2.0,TEN ARAGON CONDO,1394,,2004,,516,1060,Sold,,,https://www.redfin.com/FL/Coral-Gables/10-Aragon-Ave-33134/unit-806/home/43331698,MARMLS,A11307675,N,Y,25.7503056,-80.2560312
PAST SALE,January-31-2023,Condo/Co-op,888 Biscayne Blvd #811,Miami,FL,33132,455000,1,1.5,MARINABLUE CONDO,845,,2008,,538,193,Sold,,,https://www.redfin.com/FL/Miami/888-Biscayne-Blvd-33132/unit-811/home/43407217,MARMLS,A11199949,N,Y,25.7821519,-80.1901732
PAST SALE,January-31-2023,Condo/Co-op,1100 Biscayne Blvd #5106,Miami,FL,33132,3100000,4,4.5,MARQUIS CONDO,3800,,2009,,816,7662,Sold,,,https://www.redfin.com/FL/Miami/1100-Biscayne-Blvd-33132/unit-5106/home/43474285,MARMLS,A11289934,N,Y,25.7851774,-80.1900783
PAST SALE,January-31-2023,Condo/Co-op,7201 Miami Lakes Dr Unit B14,Miami Lakes,FL,33014,230000,2,2.0,CYPRESS VILLAGE CONDO,918,,1972,,251,385,Sold,,,https://www.redfin.com/FL/Miami-Lakes/7201-Miami-Lakes-Dr-33014/unit-B14/home/42971505,MARMLS,A11318093,N,Y,25.911421,-80.316924
PAST SALE,January-31-2023,Condo/Co-op,1750 N Bayshore Dr #2903,Miami,FL,33132,360000,1,1.0,OPERA TOWER CONDO,791,,2007,,455,685,Sold,,,https://www.redfin.com/FL/Miami/1750-N-Bayshore-Dr-33132/unit-2903/home/43437113,MARMLS,A11299727,N,Y,25.7927533,-80.1871142
PAST SALE,January-31-2023,Condo/Co-op,185 SE 14th Ter #1108,Miami,FL,33131,405000,2,2.0,FORTUNE HOUSE CONDO,930,,1998,,435,1920,Sold,,,https://www.redfin.com/FL/Miami/185-SE-14th-Ter-33131/unit-1108/home/42764679,MARMLS,A11302524,N,Y,25.7593856,-80.1909065
PAST SALE,January-31-2023,Condo/Co-op,1717 N Bayshore Dr Unit A-3234,Miami,FL,33132,750000,2,2.0,VENETIA CONDO,1717,,1986,,437,2100,Sold,,,https://www.redfin.com/FL/Miami/1717-N-Bayshore-Dr-33132/unit-A-3234/home/42719017,MARMLS,A11292746,N,Y,25.791316,-80.1861552
PAST SALE,January-31-2023,Condo/Co-op,20311 NE 2nd Ave #33,Miami,FL,33179,137000,2,2.0,RO-MONT SOUTH CONDO J,966,,1971,,142,363,Sold,,,https://www.redfin.com/FL/Miami/20311-NE-2nd-Ave-33179/unit-33/home/42952790,MARMLS,A11321293,N,Y,25.9607656,-80.1978368
PAST SALE,January-31-2023,Condo/Co-op,635 Euclid Ave #230,Miami Beach,FL,33139,570000,2,2.5,VILLAS AT SOUTH BEACH CON,1270,,1996,,449,522,Sold,,,https://www.redfin.com/FL/Miami-Beach/635-Euclid-Ave-33139/unit-230/home/42803618,MARMLS,A11150893,N,Y,25.7767519,-80.134669
PAST SALE,January-31-2023,Condo/Co-op,1621 Bay Rd #404,Miami Beach,FL,33139,500000,2,2.0,BAYVIEW PLAZA CONDO,880,,1997,,568,1350,Sold,,,https://www.redfin.com/FL/Miami-Beach/1621-Bay-Rd-33139/unit-404/home/42795317,MARMLS,A11308805,N,Y,25.789683,-80.1432509
PAST SALE,January-31-2023,Condo/Co-op,480 NE 30 St #901,Miami,FL,33137,635000,2,2.0,PLATINUM CONDO,1363,,2006,,466,1071,Sold,,,https://www.redfin.com/FL/Miami/480-NE-30th-St-33137/unit-901/home/43369731,MARMLS,A11322255,N,Y,25.8051933,-80.1869382
PAST SALE,January-31-2023,Condo/Co-op,8095 NW 8th St #411,Miami,FL,33126,230000,2,2.0,TOWERS NORTH CONDO,837,,1983,,275,230,Sold,,,https://www.redfin.com/FL/Miami/8095-NW-8th-St-33126/unit-411/home/43027501,MARMLS,A11321506,N,Y,25.7767106,-80.3476907
PAST SALE,January-31-2023,Condo/Co-op,801 S Miami Ave #5003,Miami,FL,33130,695000,1,2.0,801 SMA RESIDENCES CONDO,838,,2018,,829,,Sold,,,https://www.redfin.com/FL/Miami/801-S-Miami-Ave-33130/unit-5003/home/79132903,MARMLS,A11322008,N,Y,25.765952,-80.1930337
PAST SALE,January-31-2023,Condo/Co-op,7765 SW 86th St Unit F2-310,Miami,FL,33143,300000,2,2.0,KINGS CREEK SO CONDO,1075,,1969,,279,476,Sold,,,https://www.redfin.com/FL/Miami/7765-SW-86th-St-33143/unit-F2-310/home/43097938,MARMLS,A11306640,N,Y,25.6910924,-80.319333
PAST SALE,January-31-2023,Condo/Co-op,7355 SW 89th St Unit 521N,Miami,FL,33156,372000,1,1.5,TOSCANO CONDO,920,,2007,,404,650,Sold,,,https://www.redfin.com/FL/Miami/7355-SW-89th-St-33156/unit-521N/home/43382924,MARMLS,A11277548,N,Y,25.6879265,-80.3145399
PAST SALE,January-31-2023,Condo/Co-op,68 SE 6th St #1110,Miami,FL,33131,840000,2,2.0,REACH CONDO,1193,,2016,,704,2162,Sold,,,https://www.redfin.com/FL/Miami/68-SE-6th-St-33131/unit-1110/home/110142161,MARMLS,A11242732,N,Y,25.767898,-80.1923013
PAST SALE,January-31-2023,Condo/Co-op,3540 Main Hwy #202,Miami,FL,33133,1050000,2,2.5,GROVE GARDEN RESIDENCES C,1877,,2006,,559,1899,Sold,,,https://www.redfin.com/FL/Miami/3540-Main-Hwy-33133/unit-202/home/43359536,MARMLS,A11324818,N,Y,25.7252323,-80.245059
PAST SALE,January-31-2023,Condo/Co-op,253 NE 2nd St #3102,Miami,FL,33132,575000,2,2.0,VIZCAYNE SOUTH CONDO,1203,,2008,,478,1080,Sold,,,https://www.redfin.com/FL/Miami/253-NE-2nd-St-33132/unit-3102/home/43407927,MARMLS,A11323589,N,Y,25.7766738,-80.1885525
PAST SALE,January-31-2023,Condo/Co-op,8701 SW 141st St Unit F8,Palmetto Bay,FL,33176,221000,2,2.0,CASA GRANADA CONDO,777,,1968,,284,408,Sold,,,https://www.redfin.com/FL/Palmetto-Bay/8701-SW-141st-St-33176/unit-F8/home/43166877,MARMLS,A11317113,N,Y,25.639787,-80.3347774
PAST SALE,January-31-2023,Condo/Co-op,7350 SW 89th St Unit 815S,Miami,FL,33156,360000,1,1.5,TOSCANO CONDO,1143,,2007,,315,808,Sold,,,https://www.redfin.com/FL/Miami/7350-SW-89th-St-33156/unit-815S/home/43374454,MARMLS,A11282376,N,Y,25.687519,-80.314608
PAST SALE,January-31-2023,Condo/Co-op,7522 SW 102nd St #205,Pinecrest,FL,33156,780000,3,2.5,THE RESERVE OF PINECREST,1842,,2003,,423,1009,Sold,,,https://www.redfin.com/FL/Pinecrest/7522-SW-102nd-St-33156/unit-205/home/43306552,MARMLS,A11270804,N,Y,25.675274,-80.317897
PAST SALE,January-31-2023,Condo/Co-op,1000 West Ave #720,Miami Beach,FL,33139,325000,0,1.0,MIRADOR 1000 CONDO,543,,1968,,599,488,Sold,,,https://www.redfin.com/FL/Miami-Beach/1000-West-Ave-33139/unit-720/home/43320891,MARMLS,A11272248,N,Y,25.7808649,-80.1427275
PAST SALE,January-31-2023,Condo/Co-op,1100 West Ave #1527,Miami Beach,FL,33139,455000,1,1.0,1100 WEST CONDO,610,,2008,,746,1700,Sold,,,https://www.redfin.com/FL/Miami-Beach/1100-West-Ave-33139/unit-1527/home/43377314,MARMLS,A11297508,N,Y,25.7817857,-80.1428147
PAST SALE,January-31-2023,Condo/Co-op,1250 S Miami Ave #1201,Miami,FL,33130,555000,2,2.0,VUE AT BRICKELL CONDO,1255,,2004,,442,1157,Sold,,,https://www.redfin.com/FL/Miami/1250-S-Miami-Ave-33130/unit-1201/home/43321251,MARMLS,A11300213,N,Y,25.7622648,-80.1935654
PAST SALE,January-31-2023,Condo/Co-op,1300 S Miami Ave #3507,Miami,FL,33130,475000,1,1.0,1300 S MIAMI AVENUE CONDO,570,,2016,,833,563,Sold,,,https://www.redfin.com/FL/Miami/1300-S-Miami-Ave-33130/unit-3507/home/56742835,MARMLS,A11304717,N,Y,25.7612047,-80.1935966
PAST SALE,January-31-2023,Condo/Co-op,20327 NE 2nd Ave #33,North Miami Beach,FL,33179,140000,2,2.0,Ro-mont South Condo H,902,,1970,,155,350,Sold,,,https://www.redfin.com/FL/North-Miami-Beach/20327-NE-2nd-Ave-33179/unit-33/home/42953614,Beaches MLS,F10355405,N,Y,25.9614484,-80.1979821
PAST SALE,January-31-2023,Condo/Co-op,7290 NW 114th Ave Unit 204-7,Doral,FL,33178,335000,2,2.0,PALM GARDENS AT DORAL CON,910,,2003,,368,248,Sold,,,https://www.redfin.com/FL/Doral/7290-NW-114th-Ave-33178/unit-204-7/home/43390557,MARMLS,A11313005,N,Y,25.8391592,-80.3850456
PAST SALE,January-31-2023,Condo/Co-op,7430 Miami Lakes Dr Unit E107,Miami Lakes,FL,33014,270000,2,2.0,VILLAS OF MIAMI LAKES CON,1030,,1967,,262,293,Sold,,,https://www.redfin.com/FL/Miami-Lakes/7430-Miami-Lakes-Dr-33014/unit-E107/home/43250945,MARMLS,A11300764,N,Y,25.9105969,-80.3217023
PAST SALE,January-31-2023,Condo/Co-op,1615 West Ave #505,Miami Beach,FL,33139,208525,1,1.5,WEST COURT CONDO,700,,1970,,298,417,Sold,,,https://www.redfin.com/FL/Miami-Beach/1615-West-Ave-33139/unit-505/home/42781541,MARMLS,A11083596,N,Y,25.7894961,-80.1420799
PAST SALE,January-31-2023,Condo/Co-op,490 W Park Dr Unit 104-5,Miami,FL,33172,285000,2,1.0,WEST LAKE VILLAGE II COND,1017,,1979,,280,200,Sold,,,https://www.redfin.com/FL/Miami/490-W-Park-Dr-33172/unit-104-5/home/43049845,MARMLS,A11292316,N,Y,25.7730016,-80.3671359
PAST SALE,January-31-2023,Condo/Co-op,5300 NW 87th Ave #311,Doral,FL,33178,152500,1,1.0,The Blue,705,,2007,,216,719,Sold,,,https://www.redfin.com/FL/Doral/5300-NW-87th-Ave-33178/unit-311/home/43404368,MARMLS,A11223027,N,Y,25.820668,-80.3382388
PAST SALE,January-31-2023,Condo/Co-op,14951 Royal Oaks Ln #2205,North Miami,FL,33181,380000,2,2.5,THE OAKS I CONDO,1603,,2007,,237,883,Sold,,,https://www.redfin.com/FL/North-Miami/14951-Royal-Oaks-Ln-33181/unit-2205/home/43397587,MARMLS,A11308146,N,Y,25.9135696,-80.1516694
PAST SALE,January-31-2023,Condo/Co-op,1451 Brickell Ave #1802,Miami,FL,33131,870000,1,1.5,ECHO BRICKELL CONDO,777,,2017,,1120,1449,Sold,,,https://www.redfin.com/FL/Miami/1451-Brickell-Ave-33131/unit-1802/home/56743106,MARMLS,A11226231,N,Y,25.7581414,-80.1924308
PAST SALE,January-31-2023,Condo/Co-op,690 SW 1st Ct #1901,Miami,FL,33130,681250,3,2.0,NEO VERTIKA CONDO,1284,,2006,,531,946,Sold,,,https://www.redfin.com/FL/Miami/690-SW-1st-Ct-33130/unit-1901/home/43364450,MARMLS,A11256012,N,Y,25.7680254,-80.1959769
PAST SALE,January-31-2023,Condo/Co-op,92 SW 3rd St #2905,Miami,FL,33130,665000,2,2.5,MINT CONDO,1340,,2010,,496,1064,Sold,,,https://www.redfin.com/FL/Miami/92-SW-3rd-St-33130/unit-2905/home/43444119,MARMLS,A11211907,N,Y,25.7700997,-80.1950909
PAST SALE,January-31-2023,Condo/Co-op,9367 Fontainebleau Blvd Unit G224,Miami,FL,33172,215000,1,1.5,THE BEACH CLUB FONTAINEBL,1125,,1972,,191,206,Sold,,,https://www.redfin.com/FL/Miami/9367-Fontainebleau-Blvd-33172/unit-G224/home/43356620,MARMLS,A11309380,N,Y,25.7767361,-80.3464189
PAST SALE,January-31-2023,Condo/Co-op,8650 SW 133rd Ave Rd #312,Miami,FL,33183,255000,3,2.0,HORIZONS WEST CONDO #7,1040,,1982,,245,452,Sold,,,https://www.redfin.com/FL/Miami/8650-SW-133rd-Avenue-Rd-33183/unit-312/home/43147844,MARMLS,A11303408,N,Y,25.6862198,-80.4118501
PAST SALE,January-31-2023,Condo/Co-op,80 S Shore Dr #306,Miami Beach,FL,33141,285000,1,1.0,CORAL BAY CLUB CONDO,610,,1996,,467,230,Sold,,,https://www.redfin.com/FL/Miami-Beach/80-S-Shore-Dr-33141/unit-306/home/42771779,MARMLS,A11260685,N,Y,25.8580258,-80.131236
PAST SALE,January-31-2023,Condo/Co-op,2780 NE 183rd St #803,Aventura,FL,33160,195000,1,1.5,COMMODORE PLAZA CONDO,887,,1971,,220,588,Sold,,,https://www.redfin.com/FL/Aventura/2780-NE-183rd-St-33160/unit-803/home/42945287,MARMLS,A11302568,N,Y,25.9445849,-80.1442092
PAST SALE,January-31-2023,Condo/Co-op,17800 Atlantic Blvd Ph 8,Sunny Isles Beach,FL,33160,275000,1,1.5,TOWNE ROYALE CONDO,930,,1970,,296,557,Sold,,,https://www.redfin.com/FL/Sunny-Isles-Beach/17800-Atlantic-Blvd-33160/unit-8/home/42679222,MARMLS,A11309732,N,Y,25.9416881,-80.1232738
PAST SALE,January-31-2023,Condo/Co-op,3370 NE 190th #808,Aventura,FL,33180,970000,3,3.5,100 HIDDEN BAY CONDO,2130,,2000,,455,2768,Sold,,,https://www.redfin.com/FL/Aventura/3370-NE-190th-St-33180/unit-808/home/43248733,MARMLS,A11307572,N,Y,25.9513954,-80.1335247
PAST SALE,January-31-2023,Condo/Co-op,471 NE 25th St #401,Miami,FL,33137,350000,2,1.0,BAHIA BISCAYNE CONDO,1327,,2004,,264,362,Sold,,,https://www.redfin.com/FL/Miami/471-NE-25th-St-33137/unit-401/home/43306293,MARMLS,A11276598,N,Y,25.8012377,-80.186827
PAST SALE,January-31-2023,Condo/Co-op,1301 NE Miami Gardens Dr Unit 1522W,Miami,FL,33179,167500,1,2.0,BUCKLEY TOWERS CONDO West,861,,1968,,195,377,Sold,,,https://www.redfin.com/FL/Miami/1301-NE-Miami-Gardens-Dr-33179/unit-1522W/home/43008883,MARMLS,A11283734,N,Y,25.9465008,-80.1758954
PAST SALE,January-31-2023,Condo/Co-op,315 69th St #112,Miami Beach,FL,33141,230000,1,1.0,MIMO ON THE BEACH III CON,738,,1957,,312,471,Sold,,,https://www.redfin.com/FL/Miami-Beach/315-69th-St-33141/unit-112/home/43347279,MARMLS,A11310637,N,Y,25.854475,-80.121625
PAST SALE,January-31-2023,Condo/Co-op,1351 NE Miami Gardens Dr Unit 703E,Miami,FL,33179,150000,1,2.0,BUCKLEY TOWERS CONDO - EA,861,,1969,,174,377,Sold,,,https://www.redfin.com/FL/Miami/1351-NE-Miami-Gardens-Dr-33179/unit-703E/home/43009809,MARMLS,A11285933,N,Y,25.9458272,-80.1748099
PAST SALE,January-31-2023,Condo/Co-op,2238 W 74th St Unit 201-26,Hialeah,FL,33016,276000,2,2.0,ALCAZAR VILLAS CONDO,960,,1993,,288,125,Sold,,,https://www.redfin.com/FL/Hialeah/2238-W-74th-St-33016/unit-201-26/home/42825284,MARMLS,A11317708,N,Y,25.8896155,-80.3285822
PAST SALE,January-31-2023,Condo/Co-op,1525 Pennsylvania Ave #6,Miami Beach,FL,33139,505000,2,1.5,1525 PENNSYLVANIA CONDO,968,,1935,,522,502,Sold,,,https://www.redfin.com/FL/Miami-Beach/1525-Pennsylvania-Ave-33139/unit-6/home/43284712,MARMLS,A11266536,N,Y,25.7881052,-80.1338518
PAST SALE,January-31-2023,Condo/Co-op,7000 Island Blvd #1703,Aventura,FL,33160,580000,2,2.0,7000 ISL BLVD WILLIAMS IS,1580,,1998,,367,1841,Sold,,,https://www.redfin.com/FL/Aventura/7000-Island-Blvd-33160/unit-1703/home/42947850,MARMLS,A11271729,N,Y,25.9441751,-80.1354542
PAST SALE,January-31-2023,Condo/Co-op,3001 NE 185th St #316,Aventura,FL,33180,496000,2,2.5,ALAQUA,1355,,2007,,366,1032,Sold,,,https://www.redfin.com/FL/Aventura/3001-NE-185th-St-33180/unit-316/home/43378444,MARMLS,A11290134,N,Y,25.9475579,-80.1402415
PAST SALE,January-31-2023,Condo/Co-op,3029 NE 188th St #917,Aventura,FL,33180,570000,3,2.0,UPTOWN MARINA LOFTS CONDO,1204,,2006,,473,998,Sold,,,https://www.redfin.com/FL/Aventura/3029-NE-188th-St-33180/unit-917/home/43374149,MARMLS,A11214377,N,Y,25.9497335,-80.1403357
PAST SALE,January-31-2023,Condo/Co-op,9595 Collins Ave Unit NPHJ,Surfside,FL,33154,1200000,2,2.5,SOLIMAR CONDO,1650,,2002,,727,1236,Sold,,,https://www.redfin.com/FL/Surfside/9595-Collins-Ave-33154/unit-NPHJ/home/43266622,MARMLS,A11202163,N,Y,25.8862805,-80.1221796
PAST SALE,January-31-2023,Condo/Co-op,12035 NE 2nd Ave Unit A106,North Miami,FL,33161,164000,2,1.5,Capri Gardens Condo,928,,1973,,177,373,Sold,,,https://www.redfin.com/FL/North-Miami/12035-NE-2nd-Ave-33161/unit-A106/home/42873826,Beaches MLS,F10358986,N,Y,25.8861044,-80.1938905
PAST SALE,January-31-2023,Condo/Co-op,100 Bayview Dr #920,Sunny Isles Beach,FL,33160,354800,1,1.5,ARLEN HOUSE EAST CONDO,991,,1975,,358,719,Sold,,,https://www.redfin.com/FL/Sunny-Isles-Beach/100-Bayview-Dr-33160/unit-920/home/43242239,MARMLS,A11258797,N,Y,25.9227502,-80.1230994
PAST SALE,January-31-2023,Condo/Co-op,7516 NE 1st Ave #302,Miami,FL,33138,125000,1,1.0,LE Terrace Condo,724,,2007,,173,236,Sold,,,https://www.redfin.com/FL/Miami/7516-NE-1st-Ave-33138/unit-302/home/43386085,Beaches MLS,RX-10834820,N,Y,25.8443076,-80.1955251
PAST SALE,January-31-2023,Condo/Co-op,350 S Miami Ave #711,Miami,FL,33130,407000,1,1.5,WIND CONDO,820,,2008,,496,774,Sold,,,https://www.redfin.com/FL/Miami/350-S-Miami-Ave-33130/unit-711/home/43397597,MARMLS,A11240256,N,Y,25.7704554,-80.1942628
PAST SALE,January-31-2023,Condo/Co-op,1800 NE 114th St #1504,Miami,FL,33181,539000,2,3.0,CRICKET CLUB CONDO,2320,,1975,,232,1933,Sold,,,https://www.redfin.com/FL/Miami/1800-NE-114th-St-33181/unit-1504/home/43019465,MARMLS,A11289946,N,Y,25.8808042,-80.1630052
PAST SALE,January-31-2023,Condo/Co-op,100 Lincoln Rd #637,Miami Beach,FL,33139,380000,0,1.0,THE DECOPLAGE CONDO,530,,1965,,717,1000,Sold,,,https://www.redfin.com/FL/Miami-Beach/100-Lincoln-Rd-33139/unit-637/home/42801606,MARMLS,A11084652,N,Y,25.7904391,-80.1296945
PAST SALE,January-31-2023,Condo/Co-op,290 174th St #719,Sunny Isles Beach,FL,33160,725000,3,3.0,WINSTON TOWERS 700 CONDO,1775,,1980,,408,765,Sold,,,https://www.redfin.com/FL/Sunny-Isles-Beach/290-174th-St-33160/unit-719/home/42695620,MARMLS,A11307804,N,Y,25.9360452,-80.130062
PAST SALE,January-31-2023,Condo/Co-op,300 Sunny Isles Blvd #2105,Sunny Isles Beach,FL,33160,1050000,2,3.0,Parque Towers,1541,,2019,,681,860,Sold,,,https://www.redfin.com/FL/Sunny-Isles-Beach/300-Sunny-Isles-Blvd-33160/unit-2105/home/169791730,MARMLS,A11044206,N,Y,25.929359,-80.125686
PAST SALE,January-31-2023,Condo/Co-op,8670 SW 212th St #302,Cutler Bay,FL,33189,250000,2,2.0,LE CLUB AT OLD CUTLER CON,1113,,1988,,225,441,Sold,,,https://www.redfin.com/FL/Cutler-Bay/8670-SW-212th-St-33189/unit-302/home/43346151,MARMLS,A11312888,N,Y,25.5696283,-80.3311895
PAST SALE,January-31-2023,Condo/Co-op,9350 SW 77th Ave Unit G1,Miami,FL,33156,360000,2,2.0,KINGSTON SQUARE CONDO,1178,,1967,,306,401,Sold,,,https://www.redfin.com/FL/Coral-Gables/9350-SW-77th-Ave-33156/unit-G1/home/43147412,MARMLS,A11313156,N,Y,25.683947,-80.320317
PAST SALE,January-31-2023,Condo/Co-op,5450 NW 107th Ave #706,Doral,FL,33178,420000,3,3.0,COSTA LINDA CONDO,1460,,2001,,288,289,Sold,,,https://www.redfin.com/FL/Doral/5450-NW-107th-Ave-33178/unit-706/home/43279719,MARMLS,A11318420,N,Y,25.8226085,-80.3727781
PAST SALE,January-31-2023,Condo/Co-op,55 SE 6th St #4304,Miami,FL,33131,480000,1,1.0,500 BRICKELL WEST CONDO,738,,2008,,650,1210,Sold,,,https://www.redfin.com/FL/Miami/55-SE-6th-St-33131/unit-4304/home/43418570,MARMLS,A11245896,N,Y,25.7684475,-80.1913487
PAST SALE,January-30-2023,Condo/Co-op,8004 SW 149th Ave Unit c114,Miami,FL,33193,208000,2,2.0,Peppermill Kendale,866,,1982,,240,249,Sold,,,https://www.redfin.com/FL/Miami/8004-SW-149th-Ave-33193/unit-C114/home/43131291,Beaches MLS,F10356711,N,Y,25.6908564,-80.4355106
PAST SALE,January-30-2023,Condo/Co-op,500 NE 29th St #705,Miami,FL,33137,400000,1,1.0,MOON BAY OF MIAMI CONDO,706,,2007,,567,637,Sold,,,https://www.redfin.com/FL/Miami/500-NE-29th-St-33137/unit-705/home/43444243,MARMLS,A11245608,N,Y,25.8041395,-80.1863236
PAST SALE,January-30-2023,Condo/Co-op,765 Crandon Blvd #505,Key Biscayne,FL,33149,2750000,3,3.0,LAKE TOWER CONDO,2602,,2002,,1057,3148,Sold,,,https://www.redfin.com/FL/Key-Biscayne/765-Crandon-Blvd-33149/unit-505/home/43271512,MARMLS,A11204263,N,Y,25.6869008,-80.1602796
PAST SALE,January-30-2023,Condo/Co-op,3600 NE 170th St #402,North Miami Beach,FL,33160,175000,1,1.0,EDEN ISLES CONDO # 4,812,,1971,,216,507,Sold,,,https://www.redfin.com/FL/North-Miami-Beach/3600-NE-170th-St-33160/unit-402/home/42883994,MARMLS,A11315140,N,Y,25.936534,-80.1360013
PAST SALE,January-30-2023,Condo/Co-op,155 Ocean Lane Dr #105,Key Biscayne,FL,33149,898000,2,2.0,COMMODORE CLUB WEST CONDO,1260,,1973,,713,1183,Sold,,,https://www.redfin.com/FL/Key-Biscayne/155-Ocean-Lane-Dr-33149/unit-105/home/42921762,MARMLS,A11242728,N,Y,25.7000999,-80.1586448
PAST SALE,January-30-2023,Condo/Co-op,1160 NE 191st St #33,Miami,FL,33179,175000,2,1.5,Riviera Condominium Apts,830,,1966,,211,293,Sold,,,https://www.redfin.com/FL/Miami/1160-NE-191st-St-33179/unit-33/home/43007483,Beaches MLS,RX-10853575,N,Y,25.9507924,-80.1785553
PAST SALE,January-30-2023,Condo/Co-op,495 Brickell Ave #4909,Miami,FL,33131,630000,1,1.0,ICON BRICKELL NO TWO,1035,,2009,,609,850,Sold,,,https://www.redfin.com/FL/Miami/495-Brickell-Ave-33131/unit-4909/home/42678238,MARMLS,A11285966,N,Y,25.7683135,-80.1884553
PAST SALE,January-30-2023,Condo/Co-op,2780 NE 183rd St Ph -12,Aventura,FL,33160,280000,2,2.0,COMMODORE PLAZA CONDO,1058,,1971,,265,600,Sold,,,https://www.redfin.com/FL/Aventura/2780-NE-183rd-St-33160/unit-12/home/42942894,MARMLS,A11314726,N,Y,25.9445849,-80.1442092
PAST SALE,January-30-2023,Condo/Co-op,8301 SW 124th Ave #101,Miami,FL,33183,465000,3,2.5,KENDALL VILLAGE TOWNVILLA,1857,,2001,,250,498,Sold,,,https://www.redfin.com/FL/Miami/8301-SW-124th-Ave-33183/unit-101/home/43263458,MARMLS,A11304076,N,Y,25.689942,-80.390447
PAST SALE,January-30-2023,Condo/Co-op,2750 NE 183rd St #2110,Aventura,FL,33160,325000,2,2.0,COMMODORE PLAZA CONDO,1073,,1971,,303,630,Sold,,,https://www.redfin.com/FL/Aventura/2750-NE-183rd-St-33160/unit-2110/home/42945067,MARMLS,A11293747,N,Y,25.9439079,-80.1451445
PAST SALE,January-30-2023,Condo/Co-op,1750 N Bayshore Dr #2803,Miami,FL,33132,350000,1,1.0,OPERA TOWER CONDO,791,,2007,,442,800,Sold,,,https://www.redfin.com/FL/Miami/1750-N-Bayshore-Dr-33132/unit-2803/home/43385584,MARMLS,A11314152,N,Y,25.7927533,-80.1871142
PAST SALE,January-30-2023,Condo/Co-op,9801 Collins Ave Unit 6I,Bal Harbour,FL,33154,830000,2,2.0,BALMORAL CONDO,1388,,1977,,598,1385,Sold,,,https://www.redfin.com/FL/Bal-Harbour/9801-Collins-Ave-33154/unit-6I/home/42899785,MARMLS,A11293917,N,Y,25.890231,-80.122819
PAST SALE,January-30-2023,Condo/Co-op,7918 Harbor Island Dr #309,North Bay Village,FL,33141,753000,3,2.0,360 CONDO C,1336,,2007,,564,1125,Sold,,,https://www.redfin.com/FL/North-Bay-Village/7918-Harbor-Island-Dr-33141/unit-309/home/43382394,MARMLS,A11213113,N,Y,25.8500583,-80.158078
PAST SALE,January-30-2023,Condo/Co-op,16901 Collins Ave #4601,Sunny Isles Beach,FL,33160,6450000,5,6.5,JADE SIGNATURE CONDO,4361,,2018,,1479,5982,Sold,,,https://www.redfin.com/FL/Sunny-Isles-Beach/16901-Collins-Ave-33160/unit-4601/home/56742192,MARMLS,A11130487,N,Y,25.9327557,-80.1210054
PAST SALE,January-30-2023,Condo/Co-op,19900 E Country Club Dr #811,Aventura,FL,33180,750000,3,3.0,TURNBERRY VILLAGE SO TOWE,1601,,2007,,468,1346,Sold,,,https://www.redfin.com/FL/Aventura/19900-E-Country-Club-Dr-33180/unit-811/home/43387362,MARMLS,A11301497,N,Y,25.9613334,-80.1281559
PAST SALE,January-30-2023,Condo/Co-op,6070 W 18th Ave #107,Hialeah,FL,33012,188000,2,1.5,PALMETTO SPRINGS CONDO VI,880,,1972,,214,248,Sold,,,https://www.redfin.com/FL/Hialeah/6070-W-18th-Ave-33012/unit-107/home/42824279,MARMLS,A11285886,N,Y,25.8780861,-80.3195316
PAST SALE,January-30-2023,Condo/Co-op,771 NE 199th St #205,Miami,FL,33179,243000,2,1.0,CARMEL AT CALIFORNIA CL C,870,,1983,,279,330,Sold,,,https://www.redfin.com/FL/Miami/771-NE-199th-St-33179/unit-205/home/42950825,MARMLS,A11289031,N,Y,25.959438,-80.186136
PAST SALE,January-30-2023,Condo/Co-op,1035 Euclid Ave #27,Miami Beach,FL,33139,235000,1,1.0,1035 EUCLID CONDO,412,,2016,,570,328,Sold,,,https://www.redfin.com/FL/Miami-Beach/1035-Euclid-Ave-33139/unit-27/home/145576330,MARMLS,A11302852,N,Y,25.7813552,-80.1348114
PAST SALE,January-30-2023,Condo/Co-op,800 NE 195th St #717,Miami,FL,33179,253000,2,2.0,CANONGATE CONDO NO ONE,1470,,1969,,172,633,Sold,,,https://www.redfin.com/FL/Miami/800-NE-195th-St-33179/unit-717/home/43011702,MARMLS,A11274629,N,Y,25.954,-80.1843146
PAST SALE,January-30-2023,Condo/Co-op,905 NE 199th St #108,Miami,FL,33179,250000,2,2.0,CARMEL AT CALIFORNIA CL C,907,,1986,,276,314,Sold,,,https://www.redfin.com/FL/Miami/905-NE-199th-St-33179/unit-108/home/42958881,MARMLS,A11308212,N,Y,25.959427,-80.1835397
PAST SALE,January-30-2023,Condo/Co-op,730 3rd St #207,Miami Beach,FL,33139,1525000,2,2.5,ARMITAGE CONDO,1570,,1997,,971,806,Sold,,,https://www.redfin.com/FL/Miami-Beach/730-3rd-St-33139/unit-207/home/42794114,MARMLS,A11304822,N,Y,25.7721594,-80.13576
PAST SALE,January-30-2023,Condo/Co-op,15811 Collins Ave #2604,Sunny Isles Beach,FL,33160,1925000,3,3.5,TDR TOWER III CONDO,2558,,2010,,753,2077,Sold,,,https://www.redfin.com/FL/Sunny-Isles-Beach/15811-Collins-Ave-33160/unit-2604/home/43461672,MARMLS,A11183484,N,Y,25.9228339,-80.1218636
PAST SALE,January-30-2023,Condo/Co-op,1560 Pennsylvania Ave #226,Miami Beach,FL,33139,240000,1,1.0,ETRURIA CONDO,436,,2008,,550,415,Sold,,,https://www.redfin.com/FL/Miami-Beach/1560-Pennsylvania-Ave-33139/unit-226/home/43403030,MARMLS,A11238891,N,Y,25.7886514,-80.1343919
PAST SALE,January-30-2023,Condo/Co-op,421 NE 68th St #7,Miami,FL,33138,223000,1,1.0,THE BELLAGIO CONDO,581,,1965,,384,259,Sold,,,https://www.redfin.com/FL/Miami/421-NE-68th-St-33138/unit-7/home/43437685,MARMLS,A11308748,N,Y,25.8382269,-80.1875114
PAST SALE,January-30-2023,Condo/Co-op,18201 Collins Ave #503,Sunny Isles Beach,FL,33160,730000,1,1.5,TRUMP ROYALE CONDO,914,,2008,,799,1624,Sold,,,https://www.redfin.com/FL/Sunny-Isles-Beach/18201-Collins-Ave-33160/unit-503/home/42697250,MARMLS,A11283524,N,Y,25.9449899,-80.1200893
PAST SALE,January-30-2023,Condo/Co-op,18001 Collins Ave #1815,Sunny Isles Beach,FL,33160,295000,0,1.0,TRUMP INTERNATIONAL SONES,457,,2003,,646,2402,Sold,,,https://www.redfin.com/FL/Sunny-Isles-Beach/18001-Collins-Ave-33160/unit-1815/home/43313366,MARMLS,A11104846,N,Y,25.9431576,-80.120567
PAST SALE,January-30-2023,Condo/Co-op,331 NW 82nd Ave #1303,Miami,FL,33126,395000,4,3.0,CHATEAUBLEU VILLAS AT MID,1550,,1997,,255,269,Sold,,,https://www.redfin.com/FL/Miami/331-NW-82nd-Ave-33126/unit-1303/home/43050657,MARMLS,A11297511,N,Y,25.7739381,-80.3281282
PAST SALE,January-30-2023,Condo/Co-op,1460 Ocean Dr #305,Miami Beach,FL,33139,435000,2,2.0,THE DRAKE CONDO,720,,1937,,604,424,Sold,,,https://www.redfin.com/FL/Miami-Beach/1460-Ocean-Dr-33139/unit-305/home/42797939,MARMLS,A11293062,N,Y,25.7874843,-80.1298017
PAST SALE,January-30-2023,Condo/Co-op,785 Crandon Blvd #801,Key Biscayne,FL,33149,3400000,3,5.5,CLUB TOWER TWO CONDO,2790,,1998,,1219,3497,Sold,,,https://www.redfin.com/FL/Key-Biscayne/785-Crandon-Blvd-33149/unit-801/home/42922292,MARMLS,A11257682,N,Y,25.6875666,-80.1593861
PAST SALE,January-29-2023,Condo/Co-op,2780 NE 183rd St #716,Aventura,FL,33160,299000,2,2.0,COMMODORE PLAZA CONDO,1300,,1971,,230,998,Sold,,,https://www.redfin.com/FL/Aventura/2780-NE-183rd-St-33160/unit-716/home/42935808,MARMLS,A11319380,N,Y,25.9445849,-80.1442092
PAST SALE,January-27-2023,Condo/Co-op,301 Altara Ave #728,Coral Gables,FL,33146,573750,1,1.0,MERRICK MANOR CONDO,778,,2019,,737,711,Sold,,,https://www.redfin.com/FL/Coral-Gables/301-Altara-Ave-33146/unit-728/home/171969389,MARMLS,A11325169,N,Y,25.7336441,-80.2617956
PAST SALE,January-27-2023,Condo/Co-op,17111 Biscayne Blvd #1708,North Miami Beach,FL,33160,1075000,2,3.0,MARINA PALMS RESIDENCES S,1750,,2017,,614,3225,Sold,,,https://www.redfin.com/FL/Aventura/17111-Biscayne-Blvd-33160/unit-1708/home/79132598,MARMLS,A11296174,N,Y,25.9341525,-80.1491166
PAST SALE,January-27-2023,Condo/Co-op,9429 Fontainebleau Blvd Unit 202-33,Miami,FL,33172,303000,2,2.0,BLEAU FONTAINE CONDO #3,1000,,1986,,303,226,Sold,,,https://www.redfin.com/FL/Miami/9429-Fontainebleau-Blvd-33172/unit-202-33/home/43046416,MARMLS,A11304221,N,Y,25.7785365,-80.3480287
PAST SALE,January-27-2023,Condo/Co-op,18328 NW 68th Ave Unit N,Hialeah,FL,33015,190000,1,1.0,LA HACIENDA COUNTRY CLUB,763,,1989,,249,234,Sold,,,https://www.redfin.com/FL/Hialeah/18328-NW-68th-Ave-33015/unit-N/home/43339543,MARMLS,A11264353,N,Y,25.9395768,-80.3154155
PAST SALE,January-27-2023,Condo/Co-op,2524 SE 16th Rd #100,Homestead,FL,33035,190000,3,2.0,SHOMA CONDO AT KEYS COVE,1060,,2006,,179,273,Sold,,,https://www.redfin.com/FL/Homestead/2524-SE-16th-Rd-33035/unit-100/home/43339936,MARMLS,A11320265,N,Y,25.4553614,-80.444347
PAST SALE,January-27-2023,Condo/Co-op,1816 Meridian Ave #20,Miami Beach,FL,33139,225000,0,1.0,1818 MERIDIAN HOUSE CONDO,315,,1956,,714,405,Sold,,,https://www.redfin.com/FL/Miami-Beach/1816-Meridian-Ave-33139/unit-20/home/56743630,MARMLS,A11291373,N,Y,25.794167,-80.1368592
PAST SALE,January-27-2023,Condo/Co-op,9220 Fontainebleau Blvd #211,Miami,FL,33172,280000,2,2.0,PARKVIEW CONDO NO 1,1113,,1973,,252,359,Sold,,,https://www.redfin.com/FL/Miami/9220-Fontainebleau-Blvd-33172/unit-211/home/43041189,MARMLS,A11258434,N,Y,25.7712474,-80.345027
PAST SALE,January-27-2023,Condo/Co-op,919 Michigan Ave #3,Miami Beach,FL,33139,229000,1,1.0,919 MICHIGAN CONDO,635,,1968,,361,542,Sold,,,https://www.redfin.com/FL/Miami-Beach/919-Michigan-Ave-33139/unit-3/home/42791768,MARMLS,A11288569,N,Y,25.7797747,-80.1381106
PAST SALE,January-27-2023,Condo/Co-op,1851 NE 168th St Unit C4,North Miami Beach,FL,33162,155000,1,1.0,THE PALMS 51 CONDO,680,,1965,,228,300,Sold,,,https://www.redfin.com/FL/North-Miami-Beach/1851-NE-168th-St-33162/unit-C4/home/43348164,MARMLS,A11314668,N,Y,25.9308007,-80.1633105
PAST SALE,January-27-2023,Condo/Co-op,3770 NE 171st St #303,North Miami Beach,FL,33160,240000,1,1.5,BAYVIEW POINT NORTH CONDO,826,,1974,,291,461,Sold,,,https://www.redfin.com/FL/North-Miami-Beach/3770-NE-171st-St-33160/unit-303/home/42883054,MARMLS,A11287478,N,Y,25.9376186,-80.1345252
PAST SALE,January-27-2023,Condo/Co-op,780 NE 69th St #1707,Miami,FL,33138,330000,2,2.0,THE PALM BAY YACHT CLUB,1229,,1982,,269,1021,Sold,,,https://www.redfin.com/FL/Miami/780-NE-69th-St-33138/unit-1707/home/42720756,MARMLS,A11304067,N,Y,25.8378965,-80.180131
PAST SALE,January-27-2023,Condo/Co-op,2900 NE 7th Ave #2504,Miami,FL,33137,990000,2,2.5,BISCAYNE BEACH CONDO,1162,,2017,,852,1429,Sold,,,https://www.redfin.com/FL/Miami/2900-NE-7th-Ave-33137/unit-2504/home/79132138,MARMLS,A11237327,N,Y,25.8050465,-80.1857648
PAST SALE,January-27-2023,Condo/Co-op,6620 Indian Creek Dr #507,Miami Beach,FL,33141,634000,2,2.0,PELORO,1094,,2016,,580,1070,Sold,,,https://www.redfin.com/FL/Miami-Beach/6620-Indian-Creek-Dr-33141/unit-507/home/113411460,MARMLS,A11222255,N,Y,25.8502538,-80.1219556
PAST SALE,January-27-2023,Condo/Co-op,3001 NE 185th St #235,Aventura,FL,33180,442300,2,2.0,ALAQUA CONDO,1171,,2007,,378,1760,Sold,,,https://www.redfin.com/FL/Aventura/3001-NE-185th-St-33180/unit-235/home/43379012,MARMLS,A11304979,N,Y,25.9475579,-80.1402415
PAST SALE,January-27-2023,Condo/Co-op,1501 NE Miami Gardens Dr #241,Miami,FL,33179,175000,2,2.0,THIRD MOORINGS CONDO,1133,,1966,,154,303,Sold,,,https://www.redfin.com/FL/Miami/1501-NE-Miami-Gardens-Dr-33179/unit-241/home/42999906,MARMLS,A11196886,N,Y,25.9457314,-80.170801
PAST SALE,January-27-2023,Condo/Co-op,55 W 16th St #1,Hialeah,FL,33010,195000,2,1.0,ALOHA CONDO,749,,1969,,260,350,Sold,,,https://www.redfin.com/FL/Hialeah/55-W-16th-St-33010/unit-1/home/42849158,MARMLS,A11314813,N,Y,25.8364742,-80.2830567
PAST SALE,January-27-2023,Condo/Co-op,2903 Point East Dr Unit K403,Aventura,FL,33160,163500,1,1.0,POINT EAST SEC III CONDO,768,,1967,,213,405,Sold,,,https://www.redfin.com/FL/Aventura/2903-Point-East-Dr-33160/unit-K403/home/42935913,MARMLS,A11282641,N,Y,25.9401896,-80.1455738
PAST SALE,January-27-2023,Condo/Co-op,719 Meridian Ave #8,Miami Beach,FL,33139,207000,1,1.0,VILLA VENETO CONDO,530,,1928,,391,757,Sold,,,https://www.redfin.com/FL/Miami-Beach/719-Meridian-Ave-33139/unit-8/home/43370264,MARMLS,A11289413,N,Y,25.7774938,-80.1358662
PAST SALE,January-27-2023,Condo/Co-op,2150 Sans Souci Blvd Unit B1411,North Miami,FL,33181,377000,2,2.0,BAYVIEW TOWERS CONDO SOUT,1188,,1972,,317,923,Sold,,,https://www.redfin.com/FL/North-Miami/2150-Sans-Souci-Blvd-33181/unit-B1411/home/42872898,MARMLS,A11305022,N,Y,25.8884292,-80.1574675
PAST SALE,January-27-2023,Condo/Co-op,230 174th St #2109,Sunny Isles Beach,FL,33160,485000,2,2.0,WINSTON TOWER 300 CONDO,1274,,1973,,381,950,Sold,,,https://www.redfin.com/FL/Sunny-Isles-Beach/230-174th-St-33160/unit-2109/home/43248740,MARMLS,A11307717,N,Y,25.9367143,-80.1245494
PAST SALE,January-27-2023,Condo/Co-op,495 Brickell Ave #2303,Miami,FL,33131,1050000,2,2.0,ICON BRICKELL NO TWO,1518,,2009,,692,1198,Sold,,,https://www.redfin.com/FL/Miami/495-Brickell-Ave-33131/unit-2303/home/43475350,MARMLS,A11308699,N,Y,25.7683135,-80.1884553
PAST SALE,January-27-2023,Condo/Co-op,100 Bayview Dr #617,Sunny Isles Beach,FL,33160,450000,2,2.0,ARLEN HOUSE EAST CONDO,1521,,1975,,296,938,Sold,,,https://www.redfin.com/FL/Sunny-Isles-Beach/100-Bayview-Dr-33160/unit-617/home/43240255,MARMLS,A11276322,N,Y,25.9227502,-80.1230994
PAST SALE,January-27-2023,Condo/Co-op,2233 SE 23rd Ter #2233,Homestead,FL,33035,251500,2,2.5,TOWNGATE CONDO TWELVE,1370,,2004,,184,480,Sold,,,https://www.redfin.com/FL/Homestead/2233-SE-23rd-Ter-33035/unit-2233/home/43315550,MARMLS,A11316400,N,Y,25.4514984,-80.4424279
PAST SALE,January-27-2023,Condo/Co-op,3551 SW 9th Ter #302,Miami,FL,33135,265000,2,1.0,CORDOBA CONDO,700,,1973,,379,230,Sold,,,https://www.redfin.com/FL/Miami/3551-SW-9th-Ter-33135/unit-302/home/42736757,MARMLS,A11261608,N,Y,25.7635397,-80.2528814
PAST SALE,January-27-2023,Condo/Co-op,3470 E Coast Ave Unit H1612,Miami,FL,33137,465000,1,1.5,TWO MIDTOWN MIAMI CONDO,735,,2007,,633,661,Sold,,,https://www.redfin.com/FL/Miami/3470-E-Coast-Ave-33137/unit-H1612/home/43386098,MARMLS,A11278711,N,Y,25.809553,-80.1915927
PAST SALE,January-27-2023,Condo/Co-op,301 Altara Ave #830,Coral Gables,FL,33146,573750,1,1.0,MERRICK MANOR CONDO,778,,2019,,737,1375,Sold,,,https://www.redfin.com/FL/Coral-Gables/301-Altara-Ave-33146/unit-830/home/171969399,MARMLS,A11198542,N,Y,25.7336441,-80.2617956
PAST SALE,January-27-2023,Condo/Co-op,2460 SW 18th Ave #1205,Miami,FL,33145,260000,2,1.0,GROVE GARDENS CONDO,866,,1971,,300,360,Sold,,,https://www.redfin.com/FL/Miami/2460-SW-18th-Ave-33145/unit-1205/home/42743740,MARMLS,A11299420,N,Y,25.7460571,-80.2237889
PAST SALE,January-27-2023,Condo/Co-op,12841 SW 43rd Dr Unit 255A,Miami,FL,33175,215000,2,1.0,ROYALE GREEN CONDO NO 1,952,,1973,,226,400,Sold,,,https://www.redfin.com/FL/Miami/12841-SW-43rd-Dr-33175/unit-255A/home/43124537,MARMLS,A11305928,N,Y,25.728738,-80.4031784
PAST SALE,January-27-2023,Condo/Co-op,5252 NW 85th Ave #505,Doral,FL,33166,330000,1,1.0,5252 PASEO CONDO,688,,2016,,480,637,Sold,,,https://www.redfin.com/FL/Doral/5252-NW-85th-Ave-33166/unit-505/home/79137934,MARMLS,A11287347,N,Y,25.8191212,-80.3361831
PAST SALE,January-27-2023,Condo/Co-op,301 Altara Ave #530,Coral Gables,FL,33146,573750,1,1.0,MERRICK MANOR CONDO,778,,2019,,737,711,Sold,,,https://www.redfin.com/FL/Coral-Gables/301-Altara-Ave-33146/unit-530/home/171969397,MARMLS,A11325149,N,Y,25.7336441,-80.2617956
PAST SALE,January-27-2023,Condo/Co-op,301 Altara Ave #730,Coral Gables,FL,33146,573750,1,1.0,MERRICK MANOR CONDO,778,,2019,,737,711,Sold,,,https://www.redfin.com/FL/Coral-Gables/301-Altara-Ave-33146/unit-730/home/171969398,MARMLS,A11325160,N,Y,25.7336441,-80.2617956
PAST SALE,January-27-2023,Condo/Co-op,6940 NW 186th St Unit 1-519,Hialeah,FL,33015,185000,1,1.5,CORAL GATE EAST CONDO,989,,1973,,187,560,Sold,,,https://www.redfin.com/FL/Miami-Gardens/6940-NW-186th-St-33015/unit-1-519/home/43337892,MARMLS,A11230653,N,Y,25.940371,-80.316125
PAST SALE,January-26-2023,Condo/Co-op,5201 NW 7th St #402,Miami,FL,33126,170000,1,1.0,EL CID CONDO,756,,1972,,225,214,Sold,,,https://www.redfin.com/FL/Miami/5201-NW-7th-St-33126/unit-402/home/42713239,MARMLS,A11293200,N,Y,25.778925,-80.28029
PAST SALE,January-26-2023,Condo/Co-op,942 NE 199th St #104,North Miami Beach,FL,33179,200000,2,2.0,Lake Park,1192,,1969,,168,342,Sold,,,https://www.redfin.com/FL/North-Miami-Beach/942-NE-199th-St-33179/unit-104/home/183362760,Beaches MLS,F10360218,N,Y,25.9584472,-80.1831308
PAST SALE,January-26-2023,Condo/Co-op,1900 W 68th St Unit D307,Hialeah,FL,33014,180000,1,1.5,LOS ARBOLES CONDO,820,,1973,,220,161,Sold,,,https://www.redfin.com/FL/Hialeah/1900-W-68th-St-33014/unit-D307/home/42838376,MARMLS,A11260681,N,Y,25.8826117,-80.3211366
PAST SALE,January-26-2023,Condo/Co-op,1780 NE 191st St Unit 406-2,Miami,FL,33179,159000,1,1.0,JADE WINDS GROUP -,947,,1969,,168,434,Sold,,,https://www.redfin.com/FL/Miami/1780-NE-191st-St-33179/unit-406-2/home/43010181,MARMLS,A11307233,N,Y,25.9499226,-80.1661333
PAST SALE,January-26-2023,Condo/Co-op,5350 NW 84th Ave #1613,Doral,FL,33166,790000,3,3.0,5350 PARK CONDO,1379,,2019,,573,1194,Sold,,,https://www.redfin.com/FL/Doral/5350-NW-84th-Ave-33166/unit-1613/home/171037493,MARMLS,A11267478,N,Y,25.8206051,-80.3348527
PAST SALE,January-26-2023,Condo/Co-op,650 NE 32nd St #1908,Miami,FL,33137,620000,1,1.5,PARAISO BAY CONDO,706,,2018,,878,720,Sold,,,https://www.redfin.com/FL/Miami/650-NE-32nd-St-33137/unit-1908/home/56741907,MARMLS,A11170597,N,Y,25.8069485,-80.1862675
PAST SALE,January-26-2023,Condo/Co-op,2000 NE 135th St #610,North Miami,FL,33181,260000,2,2.0,KEYSTONE TOWERS CONDO,963,,1969,,270,1282,Sold,,,https://www.redfin.com/FL/North-Miami/2000-NE-135th-St-33181/unit-610/home/43342198,MARMLS,A11245533,N,Y,25.8997217,-80.1557929
PAST SALE,January-26-2023,Condo/Co-op,16699 Collins Ave #2009,Sunny Isles Beach,FL,33160,860000,2,2.0,LA PERLA CONDO,1266,,2006,,679,831,Sold,,,https://www.redfin.com/FL/Sunny-Isles-Beach/16699-Collins-Ave-33160/unit-2009/home/43361925,MARMLS,A11260080,N,Y,25.9301894,-80.121367
PAST SALE,January-26-2023,Condo/Co-op,2020 N Bayshore Dr #1704,Miami,FL,33137,1025000,2,2.0,Paramount Bay Condominiums,1135,,2010,,903,1434,Sold,,,https://www.redfin.com/FL/Miami/2020-N-Bayshore-Dr-33137/unit-1704/home/50122406,MARMLS,A11318944,N,Y,25.7966829,-80.1876694
PAST SALE,January-26-2023,Condo/Co-op,1100 Biscayne Blvd #4504,Miami,FL,33132,850000,2,2.5,MARQUIS CONDO,1477,,2009,,575,1488,Sold,,,https://www.redfin.com/FL/Miami/1100-Biscayne-Blvd-33132/unit-4504/home/43404946,MARMLS,A11267137,N,Y,25.7851774,-80.1900783
PAST SALE,January-26-2023,Condo/Co-op,465 Brickell Ave #3204,Miami,FL,33131,495000,1,1.0,ICONBRICKELL CONDO NO 1,597,,2008,,829,691,Sold,,,https://www.redfin.com/FL/Miami/465-Brickell-Ave-33131/unit-3204/home/42679061,MARMLS,A11296068,N,Y,25.7688518,-80.1885381
PAST SALE,January-26-2023,Condo/Co-op,1334 Collins Ave #202,Miami Beach,FL,33139,268000,1,1.5,COLLINS PLAZA CONDO,750,,1982,,357,535,Sold,,,https://www.redfin.com/FL/Miami-Beach/1334-Collins-Ave-33139/unit-202/home/42801478,MARMLS,A11315295,N,Y,25.7847779,-80.131206
PAST SALE,January-26-2023,Condo/Co-op,1698 Jefferson Ave #49,Miami Beach,FL,33139,255000,1,1.0,JEFFERSONIAN CONDO,645,,1965,,395,582,Sold,,,https://www.redfin.com/FL/Miami-Beach/1698-Jefferson-Ave-33139/unit-49/home/42785779,MARMLS,A11242282,N,Y,25.7918239,-80.138046
PAST SALE,January-26-2023,Condo/Co-op,901 Brickell Key Blvd #3601,Miami,FL,33131,670000,1,1.5,CARBONELL CONDO,1031,,2005,,650,834,Sold,,,https://www.redfin.com/FL/Miami/901-Brickell-Key-Blvd-33131/unit-3601/home/43330062,MARMLS,A11305972,N,Y,25.7690507,-80.187027
PAST SALE,January-26-2023,Condo/Co-op,1060 Brickell Ave #1513,Miami,FL,33131,430000,1,1.0,1060 BRICKELL CONDO,945,,2008,,455,1460,Sold,,,https://www.redfin.com/FL/Miami/1060-Brickell-Ave-33131/unit-1513/home/43398210,MARMLS,A11315698,N,Y,25.763143,-80.191638
PAST SALE,January-26-2023,Condo/Co-op,2450 NE 135th St #410,North Miami,FL,33181,220000,2,2.0,WATERSIDE TOWERS CONDO,1190,,1972,,185,463,Sold,,,https://www.redfin.com/FL/North-Miami/2450-NE-135th-St-33181/unit-410/home/42872725,MARMLS,A11167913,N,Y,25.8999473,-80.1493565
PAST SALE,January-26-2023,Condo/Co-op,22311 SW 88th Pl Unit 304-4,Cutler Bay,FL,33190,267000,3,2.0,THE COURTS AT BAYSHORE II,1264,,2014,,211,255,Sold,,,https://www.redfin.com/FL/Cutler-Bay/22311-SW-88th-Pl-33190/unit-304-4/home/43377830,MARMLS,A11316398,N,Y,25.559317,-80.333921
PAST SALE,January-26-2023,Condo/Co-op,5300 NW 87th Ave #1306,Doral,FL,33178,105000,1,1.0,THE BLUE A RESORT HOTEL CO,705,,2008,,149,755,Sold,,,https://www.redfin.com/FL/Doral/5300-NW-87th-Ave-33178/unit-1306/home/43404723,MARMLS,A11202249,N,Y,25.820668,-80.3382388
PAST SALE,January-26-2023,Condo/Co-op,1330 West Ave #3306,Miami Beach,FL,33139,815000,2,2.0,THE WAVERLY SOUTH BEACH,1127,,2001,,723,1063,Sold,,,https://www.redfin.com/FL/Miami-Beach/1330-West-Ave-33139/unit-3306/home/43303899,MARMLS,A11314175,N,Y,25.7847323,-80.1424477
PAST SALE,January-26-2023,Condo/Co-op,17201 Collins Ave #3903,Sunny Isles Beach,FL,33160,1470000,2,2.0,OCEAN FOUR CONDO,1644,,2006,,894,1467,Sold,,,https://www.redfin.com/FL/Sunny-Isles-Beach/17201-Collins-Ave-33160/unit-3903/home/43390413,MARMLS,A11290788,N,Y,25.9356109,-80.121168
PAST SALE,January-26-2023,Condo/Co-op,400 Alton Rd #311,Miami Beach,FL,33139,1200000,2,2.0,MURANO GRANDE AT PORTOFINO,1649,,2003,,728,3626,Sold,,,https://www.redfin.com/FL/Miami-Beach/400-Alton-Rd-33139/unit-311/home/43471238,MARMLS,A11208868,N,Y,25.7732967,-80.1403323
PAST SALE,January-25-2023,Condo/Co-op,809 NE 199th St Unit 205-7,Miami,FL,33179,180000,1,1.0,Carmel At California,650,,1984,,277,356,Sold,,,https://www.redfin.com/FL/Miami/809-NE-199th-St-33179/unit-205-7/home/42957580,Beaches MLS,F10352893,N,Y,25.9595457,-80.1852834
PAST SALE,January-25-2023,Condo/Co-op,17555 Collins Ave Unit UPH-2,Sunny Isles Beach,FL,33160,1600000,2,2.5,The Pinnacle,1650,,1998,,970,1301,Sold,,,https://www.redfin.com/FL/Sunny-Isles-Beach/17555-Collins-Ave-33160/unit-UPH-2/home/182737524,Beaches MLS,F10355372,N,Y,25.9392068,-80.120635
PAST SALE,January-25-2023,Condo/Co-op,5091 NW 7th St Unit TS-01,Miami,FL,33126,345000,2,2.0,BLUE LAGOON CONDO,963,,2003,,358,596,Sold,,,https://www.redfin.com/FL/Miami/5091-NW-7th-St-33126/unit-TS01/home/43345160,MARMLS,A11297537,N,Y,25.7795347,-80.277627
PAST SALE,January-25-2023,Condo/Co-op,345 Ocean Dr #423,Miami Beach,FL,33139,360000,1,1.0,OCEAN POINT CONDO,659,,1970,,546,565,Sold,,,https://www.redfin.com/FL/Miami-Beach/345-Ocean-Dr-33139/unit-423/home/42799512,MARMLS,A11312427,N,Y,25.7728834,-80.1316491
PAST SALE,January-25-2023,Condo/Co-op,130 NE 202nd Ter Unit S14,Miami Gardens,FL,33179,110000,1,1.0,RO-MONT SOUTH GREEN CONDO,660,,1974,,167,260,Sold,,,https://www.redfin.com/FL/North-Miami-Beach/130-NE-202nd-Ter-33179/unit-S14/home/42950286,MARMLS,A11322442,N,Y,25.9587814,-80.1992503
PAST SALE,January-25-2023,Condo/Co-op,3530 SW 22nd St #716,Miami,FL,33145,495000,2,2.0,KEYSTONE VILLAS II CONDO,1247,,2007,,397,497,Sold,,,https://www.redfin.com/FL/Miami/3530-SW-22nd-St-33145/unit-716/home/43387842,MARMLS,A11312263,N,Y,25.7496043,-80.2514295
PAST SALE,January-25-2023,Condo/Co-op,3131 NE 7th Ave #4301,Miami,FL,33137,1700000,3,3.5,ONE PARAISO CONDO,1634,,2018,,1040,3680,Sold,,,https://www.redfin.com/FL/Miami/3131-NE-7th-Ave-33137/unit-4301/home/79132377,MARMLS,A11240146,N,Y,25.8070469,-80.1855776
PAST SALE,January-25-2023,Condo/Co-op,16385 Biscayne Blvd #421,North Miami Beach,FL,33160,825000,3,3.0,THE HARBOUR SOUTH CONDO,1556,,2018,,530,1278,Sold,,,https://www.redfin.com/FL/Aventura/16385-Biscayne-Blvd-33160/unit-421/home/168055486,MARMLS,A11278591,N,Y,25.9284067,-80.1504081
PAST SALE,January-25-2023,Condo/Co-op,6039 Collins Ave #1128,Miami Beach,FL,33140,427000,2,2.0,MAISON GRANDE CONDO,1280,,1971,,334,1360,Sold,,,https://www.redfin.com/FL/Miami-Beach/6039-Collins-Ave-33140/unit-1128/home/42767932,MARMLS,A11275204,N,Y,25.8431837,-80.1203074
PAST SALE,January-25-2023,Condo/Co-op,1530 Pennsylvania Ave #206,Miami Beach,FL,33139,285000,1,1.0,PENN PLAZA CONDO,590,,1976,,483,656,Sold,,,https://www.redfin.com/FL/Miami-Beach/1530-Pennsylvania-Ave-33139/unit-206/home/42787272,MARMLS,A11317829,N,Y,25.7882015,-80.1345933
PAST SALE,January-25-2023,Condo/Co-op,7510 SW 152nd Ave Unit A204,Miami,FL,33193,215000,2,2.5,SUNRISE AT SUNSET VIEW CO,824,,1989,,261,288,Sold,,,https://www.redfin.com/FL/Miami/7510-SW-152nd-Ave-33193/unit-A204/home/43282540,MARMLS,A11300159,N,Y,25.695984,-80.4389889
PAST SALE,January-25-2023,Condo/Co-op,5077 NW 7th St #1117,Miami,FL,33126,335000,2,2.0,BLUE LAGOON CONDO,979,,2003,,342,606,Sold,,,https://www.redfin.com/FL/Miami/5077-NW-7th-St-33126/unit-1117/home/43321754,MARMLS,A11314622,N,Y,25.7773621,-80.3354294
PAST SALE,January-25-2023,Condo/Co-op,20355 NE 34th Ct #2022,Aventura,FL,33180,420000,2,2.0,DELVISTA TOWERS CONDO,1094,,1982,,384,709,Sold,,,https://www.redfin.com/FL/Aventura/20355-NE-34th-Ct-33180/unit-2022/home/42937997,MARMLS,A11291985,N,Y,25.9642678,-80.1325626
PAST SALE,January-25-2023,Condo/Co-op,540 Brickell Key Dr #809,Miami,FL,33131,246000,0,1.0,BRICKELL KEY II CONDO,470,,1991,,523,394,Sold,,,https://www.redfin.com/FL/Miami/540-Brickell-Key-Dr-33131/unit-809/home/42771072,MARMLS,A11282238,N,Y,25.7680028,-80.1837141
PAST SALE,January-25-2023,Condo/Co-op,455 Grand Bay Dr #917,Key Biscayne,FL,33149,1100000,1,1.0,G B RESORT CONDO HOTEL,731,,2001,,1505,4018,Sold,,,https://www.redfin.com/FL/Key-Biscayne/455-Grand-Bay-Dr-33149/unit-917/home/43264557,MARMLS,A11298609,N,Y,25.6911742,-80.1586012
PAST SALE,January-25-2023,Condo/Co-op,1400 Pennsylvania Ave #47,Miami Beach,FL,33139,238000,1,1.0,TERRACE EAST CONDO,650,,1965,,366,420,Sold,,,https://www.redfin.com/FL/Miami-Beach/1400-Pennsylvania-Ave-33139/unit-47/home/42793987,MARMLS,A11278980,N,Y,25.7856255,-80.1346212
PAST SALE,January-25-2023,Condo/Co-op,19195 NE 36th Ct #809,Aventura,FL,33180,625000,2,2.5,MYSTIC POINTE CONDO NO TW,1365,,1989,,458,1970,Sold,,,https://www.redfin.com/FL/Aventura/19195-Mystic-Pointe-Dr-33180/unit-809/home/42942217,MARMLS,A11305671,N,Y,25.9534527,-80.1268509
PAST SALE,January-25-2023,Condo/Co-op,20000 E Country Club Dr #612,Aventura,FL,33180,535000,2,2.0,TURNBERRY VLG NO TOWER CO,1335,,2006,,401,1261,Sold,,,https://www.redfin.com/FL/Aventura/20000-E-Country-Club-Dr-33180/unit-612/home/43358984,MARMLS,A11282358,N,Y,25.9623684,-80.1275488
PAST SALE,January-25-2023,Condo/Co-op,3398 NE 9th Dr #101,Homestead,FL,33033,242500,3,2.0,MONTEREY AT MALIBU BAY CO,1196,,2005,,203,308,Sold,,,https://www.redfin.com/FL/Homestead/3398-NE-9th-Dr-33033/unit-101/home/43348131,MARMLS,A11308539,N,Y,25.4792521,-80.4253281
PAST SALE,January-25-2023,Condo/Co-op,733 W 81st St #2,Hialeah,FL,33014,425000,3,2.0,ROYAL TWINS CONDO #3,1107,,1980,,384,,Sold,,,https://www.redfin.com/FL/Hialeah/733-W-81st-St-33014/unit-2/home/42818376,MARMLS,A11269795,N,Y,25.8963329,-80.2986979
PAST SALE,January-25-2023,Condo/Co-op,2701 SE 12th Pl #203,Homestead,FL,33035,200000,2,2.0,VENETIA GARDENS CONDO,815,,2003,,245,249,Sold,,,https://www.redfin.com/FL/Homestead/2701-SE-12th-Pl-33035/unit-203/home/43309053,MARMLS,A11315570,N,Y,25.4445749,-80.4580746
PAST SALE,January-25-2023,Condo/Co-op,6515 Collins Ave Ph -1904,Miami Beach,FL,33141,775000,1,1.5,BEL-AIRE ON THE OCEAN,667,,2004,,1162,1020,Sold,,,https://www.redfin.com/FL/Miami-Beach/6515-Collins-Ave-33141/unit-1904/home/43431753,MARMLS,A11296567,N,Y,25.8483225,-80.1196867
PAST SALE,January-25-2023,Condo/Co-op,1200 West Ave #721,Miami Beach,FL,33139,380000,1,1.0,MIRADOR 1200 CONDO,837,,1965,,454,734,Sold,,,https://www.redfin.com/FL/Miami-Beach/1200-West-Ave-33139/unit-721/home/43351488,MARMLS,A11253619,N,Y,25.782981,-80.142902
PAST SALE,January-25-2023,Condo/Co-op,13789 SW 66th St Unit 182F,Miami,FL,33183,215000,1,1.0,THE MEADOWS LAKE NORTH CO,750,,1973,,287,387,Sold,,,https://www.redfin.com/FL/Miami/13789-SW-66th-St-33183/unit-F182/home/43284443,MARMLS,A11313131,N,Y,25.7058432,-80.4171991
PAST SALE,January-25-2023,Condo/Co-op,100 Andalusia Ave #701,Coral Gables,FL,33134,590000,2,2.5,ANDALUSIA CONDO RESIDENCE,1246,,2005,,474,1557,Sold,,,https://www.redfin.com/FL/Coral-Gables/100-Andalusia-Ave-33134/unit-701/home/43346587,MARMLS,A11309302,N,Y,25.7486004,-80.2569176
PAST SALE,January-25-2023,Condo/Co-op,2903 Point East Dr Unit K107,Aventura,FL,33160,189900,1,1.0,POINT EAST SEC III CONDO,777,,1967,,244,658,Sold,,,https://www.redfin.com/FL/Aventura/2903-Point-East-Dr-33160/unit-K107/home/42936976,MARMLS,A11291664,N,Y,25.9401896,-80.1455738
PAST SALE,January-25-2023,Condo/Co-op,5900 Collins Ave #407,Miami Beach,FL,33140,600000,3,2.0,THE GRANDVIEW CONDO,1180,,1998,,508,957,Sold,,,https://www.redfin.com/FL/Miami-Beach/5900-Collins-Ave-33140/unit-407/home/42783218,MARMLS,A11242124,N,Y,25.84154,-80.1218435
PAST SALE,January-25-2023,Condo/Co-op,881 Ocean Dr Unit L1,Key Biscayne,FL,33149,900000,1,1.5,CASA DEL MAR CONDO,930,,1971,,968,861,Sold,,,https://www.redfin.com/FL/Key-Biscayne/881-Ocean-Dr-33149/unit-L1/home/42922399,MARMLS,A11269933,N,Y,25.685686,-80.1572931
PAST SALE,January-25-2023,Condo/Co-op,41 SE 5th St #501,Miami,FL,33131,590000,2,2.0,BRICKELL ON THE RIVER S T,1267,,2006,,466,860,Sold,,,https://www.redfin.com/FL/Miami/41-SE-5th-St-33131/unit-501/home/43400014,MARMLS,A11212084,N,Y,25.7690616,-80.1918153
PAST SALE,January-25-2023,Condo/Co-op,16485 Collins Ave #531,Sunny Isles Beach,FL,33160,1250000,3,3.0,OCEANIA III CONDO,2430,,1991,,514,1865,Sold,,,https://www.redfin.com/FL/Sunny-Isles-Beach/16485-Collins-Ave-33160/unit-531/home/43247510,MARMLS,A11289646,N,Y,25.9291648,-80.1215102
PAST SALE,January-25-2023,Condo/Co-op,10300 NW 66 St #110,Doral,FL,33178,510000,3,2.5,LANDMARK AT DORAL,,,2022,,,396,Sold,,,https://www.redfin.com/FL/Doral/10300-NW-66th-St-33178/unit-110/home/181161140,MARMLS,A11259499,N,Y,25.8331335,-80.3645624
PAST SALE,January-25-2023,Condo/Co-op,498 NW 165th Street Rd Unit D-106,Miami,FL,33169,180000,2,2.0,MONTECARLO CONDO,1175,,1972,,153,1300,Sold,,,https://www.redfin.com/FL/Miami/498-NW-165th-Street-Rd-33169/unit-D106/home/43408065,MARMLS,A11302693,N,Y,25.923303,-80.2072139
PAST SALE,January-25-2023,Condo/Co-op,1301 SE 28th Ln Unit 204-42,Homestead,FL,33035,215000,2,2.0,VENETIA GARDENS SOUTH COND,815,,2005,,264,237,Sold,,,https://www.redfin.com/FL/Homestead/1301-SE-28th-Ln-33035/unit-204-42/home/43307656,MARMLS,A11251549,N,Y,25.4431491,-80.4572924
PAST SALE,January-25-2023,Condo/Co-op,949 Pennsylvania Ave #201,Miami Beach,FL,33139,299000,1,1.0,PENN 10 MANOR CONDO,681,,1966,,439,346,Sold,,,https://www.redfin.com/FL/Miami-Beach/949-Pennsylvania-Ave-33139/unit-201/home/42791717,MARMLS,A11239196,N,Y,25.7805158,-80.1335683
PAST SALE,January-25-2023,Condo/Co-op,1200 N Liberty Ave Unit 1200B,Homestead,FL,33034,200475,2,2.0,LAKESHORE CONDO #4,970,,1987,,207,277,Sold,,,https://www.redfin.com/FL/Homestead/1200-N-Liberty-Ave-33034/unit-1200B/home/43434142,MARMLS,A11312927,N,Y,25.4586162,-80.4657432
PAST SALE,January-25-2023,Condo/Co-op,1600 NE 1st Ave #2303,Miami,FL,33132,370000,0,1.0,CANVAS CONDO,588,,2018,,629,465,Sold,,,https://www.redfin.com/FL/Miami/1600-NE-1st-Ave-33132/unit-2303/home/168005234,MARMLS,A11308316,N,Y,25.7911361,-80.192716
PAST SALE,January-24-2023,Condo/Co-op,8955 Collins Ave #201,Miami Beach,FL,33154,17000000,6,7.5,Arte Surfside,6975,,2019,,2437,25103,Sold,,,https://www.redfin.com/FL/Surfside/8955-Collins-Ave-33154/unit-201/home/43419032,MARMLS,A11012319,N,Y,25.8758777,-80.1211036
PAST SALE,January-24-2023,Condo/Co-op,4250 Biscayne Blvd #1602,Miami,FL,33137,975000,3,2.0,4250 BISCAYNE BOULEVARD C,1623,,2015,,601,1713,Sold,,,https://www.redfin.com/FL/Miami/4250-Biscayne-Blvd-33137/unit-1602/home/108436550,MARMLS,A11312535,N,Y,25.8156264,-80.1891629
PAST SALE,January-24-2023,Condo/Co-op,1330 West Ave #1905,Miami Beach,FL,33139,575000,1,1.0,WAVERLY AT SOUTH BEACH,793,,2001,,725,784,Sold,,,https://www.redfin.com/FL/Miami-Beach/1330-West-Ave-33139/unit-1905/home/43304950,MARMLS,A11305242,N,Y,25.7847323,-80.1424477
PAST SALE,January-24-2023,Condo/Co-op,1200 West Ave #1021,Miami Beach,FL,33139,335000,1,1.0,MIRADOR 1200 CONDO,837,,1965,,400,734,Sold,,,https://www.redfin.com/FL/Miami-Beach/1200-West-Ave-33139/unit-1021/home/43337141,MARMLS,A11257452,N,Y,25.782981,-80.142902
PAST SALE,January-24-2023,Condo/Co-op,7601 E Treasure Dr #920,North Bay Village,FL,33141,493000,2,2.0,THE GRANDVIEW PALACE COND,1005,,1987,,491,617,Sold,,,https://www.redfin.com/FL/North-Bay-Village/7601-E-Treasure-Dr-33141/unit-920/home/43311862,MARMLS,A11315946,N,Y,25.8476718,-80.1458676
PAST SALE,January-24-2023,Condo/Co-op,1300 S Miami Ave #2707,Miami,FL,33130,455000,1,1.0,1300 S MIAMI AVENUE CONDO,570,,2016,,798,413,Sold,,,https://www.redfin.com/FL/Miami/1300-S-Miami-Ave-33130/unit-2707/home/56742844,MARMLS,A11227813,N,Y,25.7612047,-80.1935966
PAST SALE,January-24-2023,Condo/Co-op,15051 Royal Oaks Ln #301,North Miami,FL,33181,370000,2,2.0,THE OAKS I CONDO,1763,,2007,,210,932,Sold,,,https://www.redfin.com/FL/North-Miami/15051-Royal-Oaks-Ln-33181/unit-301/home/43397186,MARMLS,A11274436,N,Y,25.9147585,-80.1517231
PAST SALE,January-24-2023,Condo/Co-op,1627 SW 37th Ave #206,Miami,FL,33145,430000,2,2.0,GABLES VIEW CONDO,966,,2004,,445,657,Sold,,,https://www.redfin.com/FL/Miami/1627-SW-37th-Ave-33145/unit-206/home/43473926,MARMLS,A11302650,N,Y,25.7563069,-80.2544785
PAST SALE,January-24-2023,Condo/Co-op,9320 Fontainebleau Blvd #101,Miami,FL,33172,205000,2,2.0,THE FOUNTAINS AT FONTAINE,870,,1972,,236,368,Sold,,,https://www.redfin.com/FL/Miami/9320-Fontainebleau-Blvd-33172/unit-101/home/43054747,MARMLS,A11285982,N,Y,25.7715087,-80.3476371
PAST SALE,January-24-2023,Condo/Co-op,401 69th St #601,Miami Beach,FL,33141,400000,2,2.0,401 BLU OF NORTH BEACH CO,1299,,1970,,308,931,Sold,,,https://www.redfin.com/FL/Miami-Beach/401-69th-St-33141/unit-601/home/43340290,MARMLS,A11314840,N,Y,25.8546914,-80.1227504
PAST SALE,January-24-2023,Condo/Co-op,3750 NE 169th St #403,North Miami Beach,FL,33160,170000,1,1.5,EDEN ISLES CONDO NO 7,812,,1972,,209,499,Sold,,,https://www.redfin.com/FL/North-Miami-Beach/3750-NE-169th-St-33160/unit-403/home/42878800,MARMLS,A11285092,N,Y,25.935528,-80.1346419
PAST SALE,January-24-2023,Condo/Co-op,1000 Brickell Plz #4714,Miami,FL,33131,750000,1,1.5,BRICKELL FLATIRON CONDO,870,,2019,,862,994,Sold,,,https://www.redfin.com/FL/Miami/1000-Brickell-Plz-33131/unit-4714/home/79135594,MARMLS,A11303713,N,Y,25.7642644,-80.192725
PAST SALE,January-24-2023,Condo/Co-op,945 NE 33rd Ter #104,Homestead,FL,33033,254000,3,2.0,MONTEREY AT MALIBU BAY CO,1196,,2005,,212,307,Sold,,,https://www.redfin.com/FL/Homestead/945-NE-33rd-Ter-33033/unit-104/home/43348138,MARMLS,A11315784,N,Y,25.4787257,-80.4253761
PAST SALE,January-24-2023,Condo/Co-op,2150 Sans Souci Blvd Unit A407,North Miami,FL,33181,160000,1,1.5,BAYVIEW TOWERS CONDO,846,,1972,,189,1132,Sold,,,https://www.redfin.com/FL/North-Miami/2150-Sans-Souci-Blvd-33181/unit-407A/home/42869493,MARMLS,A11305158,N,Y,25.8884292,-80.1574675
PAST SALE,January-24-2023,Condo/Co-op,15711 SW 137th Ave #201,Miami,FL,33177,330000,3,2.0,VILLA ENCANTADA CONDO NO,1120,,2001,,295,250,Sold,,,https://www.redfin.com/FL/Miami/15711-SW-137th-Ave-33177/unit-201/home/43265938,MARMLS,A11307876,N,Y,25.6213543,-80.4140991
PAST SALE,January-24-2023,Condo/Co-op,13215 NE 6th Ave #107,North Miami,FL,33161,143000,1,1.0,CHESTNUT HILL CONDO,668,,1966,,214,160,Sold,,,https://www.redfin.com/FL/North-Miami/13215-NE-6th-Ave-33161/unit-107/home/42873400,MARMLS,A11285987,N,Y,25.8970362,-80.186177
PAST SALE,January-24-2023,Condo/Co-op,20281 E Country Club Dr #211,Aventura,FL,33180,460000,2,2.0,HAMPTONS WEST CONDO,1560,,1984,,295,1612,Sold,,,https://www.redfin.com/FL/Aventura/20281-E-Country-Club-Dr-33180/unit-211/home/42934062,MARMLS,A11231576,N,Y,25.9655056,-80.1258549
PAST SALE,January-24-2023,Condo/Co-op,3301 N Country Club Dr #707,Aventura,FL,33180,270000,2,2.0,BRAVURA I CONDO,994,,1972,,272,650,Sold,,,https://www.redfin.com/FL/Aventura/3301-N-Country-Club-Dr-33180/unit-707/home/42931548,MARMLS,A11228664,N,Y,25.967105,-80.1356401
PAST SALE,January-24-2023,Condo/Co-op,18975 Collins Ave #1802,Sunny Isles Beach,FL,33160,4100000,4,5.5,18975 COLLINS CONDO,3176,,2019,,1291,3271,Sold,,,https://www.redfin.com/FL/Sunny-Isles-Beach/18975-Collins-Ave-33160/unit-1802/home/170265665,MARMLS,A11199964,N,Y,25.9521284,-80.1197081
PAST SALE,January-24-2023,Condo/Co-op,20000 E Country Club Dr #803,Aventura,FL,33180,670000,3,3.0,TURNBERRY VLG NO TOWER CO,1702,,2006,,394,1250,Sold,,,https://www.redfin.com/FL/Miami/20000-E-Country-Club-Dr-33180/unit-803/home/43373973,MARMLS,A11304943,N,Y,25.9623684,-80.1275488
PAST SALE,January-24-2023,Condo/Co-op,19333 Collins Ave #1207,Sunny Isles Beach,FL,33160,1632500,3,3.0,OCEAN ONE CONDO,1756,,1999,,930,1600,Sold,,,https://www.redfin.com/FL/Sunny-Isles-Beach/19333-Collins-Ave-33160/unit-1207/home/43262426,MARMLS,A11332150,N,Y,25.9557419,-80.1195658
PAST SALE,January-24-2023,Condo/Co-op,18001 Collins Ave #1814,Sunny Isles Beach,FL,33160,840000,1,1.0,TRUMP INTERNATIONAL SONES,1021,,2003,,823,940,Sold,,,https://www.redfin.com/FL/Sunny-Isles-Beach/18001-Collins-Ave-33160/unit-1814/home/43312839,MARMLS,A11174650,N,Y,25.9431576,-80.120567
PAST SALE,January-24-2023,Condo/Co-op,345 Ocean Dr #1011,Miami Beach,FL,33139,560000,1,1.0,OCEAN POINT CONDO,659,,1970,,850,1130,Sold,,,https://www.redfin.com/FL/Miami-Beach/345-Ocean-Dr-33139/unit-1011/home/42802619,MARMLS,A11265230,N,Y,25.7728834,-80.1316491
PAST SALE,January-24-2023,Condo/Co-op,2350 NE 135th St #1408,North Miami,FL,33181,230000,1,1.0,VECINO DEL MAR CONDO,723,,1980,,318,403,Sold,,,https://www.redfin.com/FL/North-Miami/2350-NE-135th-St-33181/unit-1408/home/42865594,MARMLS,A11261087,N,Y,25.8998195,-80.1528452
PAST SALE,January-24-2023,Condo/Co-op,465 Ocean Dr #620,Miami Beach,FL,33139,530000,1,1.0,ROYAL ATLANTIC CONDO,645,,1969,,822,539,Sold,,,https://www.redfin.com/FL/Miami-Beach/465-Ocean-Dr-33139/unit-620/home/42802761,MARMLS,A11302516,N,Y,25.7744208,-80.1313873
PAST SALE,January-24-2023,Condo/Co-op,20000 E Country Club Dr #707,Aventura,FL,33180,550000,2,2.0,TURNBERRY VLG NO TOWER CO,1335,,2006,,412,1260,Sold,,,https://www.redfin.com/FL/Aventura/20000-E-Country-Club-Dr-33180/unit-707/home/43375014,MARMLS,A11273215,N,Y,25.9623684,-80.1275488
PAST SALE,January-23-2023,Condo/Co-op,1800 Sunset Harbour Dr #2105,Miami Beach,FL,33139,585000,1,1.5,SUNSET HARBOUR SOUTH COND,820,,1998,,713,875,Sold,,,https://www.redfin.com/FL/Miami-Beach/1800-Sunset-Harbour-Dr-33139/unit-2105/home/42795958,MARMLS,A11314734,N,Y,25.7944878,-80.1448009
PAST SALE,January-23-2023,Condo/Co-op,9460 Fontainebleau Blvd #131,Miami,FL,33172,315000,2,2.0,BLEAU GROTTO CONDO,990,,1972,,318,295,Sold,,,https://www.redfin.com/FL/Miami/9460-Fontainebleau-Blvd-33172/unit-131/home/43291334,MARMLS,A11291109,N,Y,25.774014,-80.3493122
PAST SALE,January-23-2023,Condo/Co-op,3131 NE 7th Ave #2303,Miami,FL,33137,1350000,3,3.5,ONE PARAISO CONDO,1526,,2018,,885,1530,Sold,,,https://www.redfin.com/FL/Miami/3131-NE-7th-Ave-33137/unit-2303/home/79137108,MARMLS,A11297248,N,Y,25.8070469,-80.1855776
PAST SALE,January-23-2023,Condo/Co-op,17530 NW 68th Ave Unit C2006,Hialeah,FL,33015,143500,1,1.0,Lakeview Gardens,660,,1972,,217,206,Sold,,,https://www.redfin.com/FL/Hialeah/17530-NW-68th-Ave-33015/unit-C2006/home/43270168,Beaches MLS,F10349150,N,Y,25.9327718,-80.3127364
PAST SALE,January-23-2023,Condo/Co-op,2020 N Bayshore Dr #3401,Miami,FL,33137,1450000,2,2.5,PARAMOUNT BAY CONDO,1588,,2010,,913,1630,Sold,,,https://www.redfin.com/FL/Miami/2020-N-Bayshore-Dr-33137/unit-3401/home/50122112,MARMLS,A11278125,N,Y,25.7966829,-80.1876694
PAST SALE,January-23-2023,Condo/Co-op,1725 NW 47th St Unit 1725A,Miami,FL,33142,349000,2,2.0,1725 CONDO,,,2021,,,,Sold,,,https://www.redfin.com/FL/Miami/1725-NW-47th-St-33142/unit-1725A/home/178600449,MARMLS,A11172050,N,Y,25.8179324,-80.2248341
PAST SALE,January-23-2023,Condo/Co-op,9225 Collins Ave #1407,Surfside,FL,33154,298000,0,1.0,FOUR WINDS CONDO,450,,1967,,662,383,Sold,,,https://www.redfin.com/FL/Surfside/9225-Collins-Ave-33154/unit-1407/home/43461116,MARMLS,A11298476,N,Y,25.8804044,-80.1218584
PAST SALE,January-23-2023,Condo/Co-op,11 Island Ave #703,Miami Beach,FL,33139,877000,1,1.5,COSTA BRAVA CONDO,1027,,1972,,854,842,Sold,,,https://www.redfin.com/FL/Miami-Beach/11-Island-Ave-33139/unit-703/home/42793886,MARMLS,A11292751,N,Y,25.7895342,-80.1477865
PAST SALE,January-23-2023,Condo/Co-op,151 SE 1st St #1608,Miami,FL,33131,320000,1,1.0,CENTRO CONDO,564,,2016,,567,425,Sold,,,https://www.redfin.com/FL/Miami/151-SE-1st-St-33131/unit-1608/home/56742350,MARMLS,A11287632,N,Y,25.7735999,-80.1906033
PAST SALE,January-23-2023,Condo/Co-op,536 14th St #110,Miami Beach,FL,33139,258000,1,1.0,EVERGLADES EAST CONDO,590,,1925,,437,448,Sold,,,https://www.redfin.com/FL/Miami-Beach/536-14th-St-33139/unit-110/home/42799281,MARMLS,A11301453,N,Y,25.7850959,-80.1336555
PAST SALE,January-23-2023,Condo/Co-op,100 Lincoln Rd #323,Miami Beach,FL,33139,420000,1,1.5,THE DECOPLAGE CONDO,890,,1965,,472,806,Sold,,,https://www.redfin.com/FL/Miami-Beach/100-Lincoln-Rd-33139/unit-323/home/42788697,MARMLS,A11181589,N,Y,25.7904391,-80.1296945
PAST SALE,January-23-2023,Condo/Co-op,6001 SW 70th St #215,South Miami,FL,33143,450000,3,2.0,VALENCIA CONDO,1130,,2004,,398,1120,Sold,,,https://www.redfin.com/FL/South-Miami/6001-SW-70th-St-33143/unit-215/home/43332937,MARMLS,A11309462,N,Y,25.7066498,-80.2912754
PAST SALE,January-23-2023,Condo/Co-op,16699 Collins Ave #2709,Sunny Isles Beach,FL,33160,870000,2,2.0,LA PERLA CONDO,1266,,2006,,687,831,Sold,,,https://www.redfin.com/FL/Sunny-Isles-Beach/16699-Collins-Ave-33160/unit-2709/home/43356122,MARMLS,A11300818,N,Y,25.9301894,-80.121367
PAST SALE,January-23-2023,Condo/Co-op,10201 E Bay Harbor Dr #306,Bay Harbor Islands,FL,33154,1300000,1,2.0,SERENO RESIDENCES CONDO,1067,,2016,,1218,,Sold,,,https://www.redfin.com/FL/Bay-Harbor-Islands/10201-E-Bay-Harbor-Dr-33154/unit-306/home/144659547,MARMLS,A11314174,N,Y,25.8926813,-80.1308976
PAST SALE,January-23-2023,Condo/Co-op,10 NW 87th Ave Unit B110,Miami,FL,33172,210000,1,1.5,PARK EAST CONDO,948,,1972,,222,257,Sold,,,https://www.redfin.com/FL/Miami/10-NW-87th-Ave-33172/unit-B110/home/43052737,MARMLS,A11312901,N,Y,25.7699867,-80.3367592
PAST SALE,January-23-2023,Condo/Co-op,9455 Collins Ave #905,Surfside,FL,33154,995000,2,3.0,THE WAVES CONDO,1510,,1991,,659,1150,Sold,,,https://www.redfin.com/FL/Surfside/9455-Collins-Ave-33154/unit-905/home/42900601,MARMLS,A11300177,N,Y,25.8847311,-80.1220524
PAST SALE,January-23-2023,Condo/Co-op,10261 E Bay Harbor Dr #1201,Bay Harbor Islands,FL,33154,2800000,3,3.5,LE NAUTIQUE AT HAULOVER I,3200,,2003,,875,4382,Sold,,,https://www.redfin.com/FL/Bay-Harbor-Islands/10261-E-Bay-Harbor-Dr-33154/unit-1201/home/43307324,MARMLS,A11287776,N,Y,25.8932217,-80.1312129
PAST SALE,January-23-2023,Condo/Co-op,501 NE 31st St #1006,Miami,FL,33137,720000,3,2.0,PARAISO BAYVIEWS CONDO,1152,,2018,,625,1156,Sold,,,https://www.redfin.com/FL/Miami/501-NE-31st-St-33137/unit-1006/home/79137746,MARMLS,A11189633,N,Y,25.8068816,-80.1873138
PAST SALE,January-23-2023,Condo/Co-op,555 SW 16th Ave #14,Miami,FL,33135,160000,1,1.0,LOS JARDINES CONDO,460,,1954,,348,200,Sold,,,https://www.redfin.com/FL/Miami/555-SW-16th-Ave-33135/unit-14/home/43437235,MARMLS,A11317530,N,Y,25.7677813,-80.2209752
PAST SALE,January-23-2023,Condo/Co-op,6515 Collins Ave Ph -1908,Miami Beach,FL,33141,1395000,2,2.0,BEL-AIRE ON THE OCEAN CON,1097,,2004,,1272,2984,Sold,,,https://www.redfin.com/FL/Miami-Beach/6515-Collins-Ave-33141/unit-1908/home/43319039,MARMLS,A11309797,N,Y,25.8483225,-80.1196867
PAST SALE,January-23-2023,Condo/Co-op,780 NE 69th St #804,Miami,FL,33138,410000,2,2.0,THE PALM BAY YACHT CLUB C,1225,,1982,,335,1025,Sold,,,https://www.redfin.com/FL/Miami/780-NE-69th-St-33138/unit-804/home/42727719,MARMLS,A11308898,N,Y,25.8378965,-80.180131
PAST SALE,January-23-2023,Condo/Co-op,335 S Biscayne Blvd #1912,Miami,FL,33131,960000,3,2.0,One Miami East,1416,,2005,,678,1025,Sold,,,https://www.redfin.com/FL/Miami/335-S-Biscayne-Blvd-33131/unit-1912/home/43335794,Beaches MLS,F10342549,N,Y,25.7713919,-80.1863581
PAST SALE,January-21-2023,Condo/Co-op,3029 NE 188th St #1021,Aventura,FL,33180,585000,3,2.0,UPTOWN MARINA LOFTS CONDO,1362,,2006,,430,2298,Sold,,,https://www.redfin.com/FL/Aventura/3029-NE-188th-St-33180/unit-1021/home/43382604,MARMLS,A11297486,N,Y,25.9497335,-80.1403357
PAST SALE,January-21-2023,Condo/Co-op,1050 Brickell Ave #422,Miami,FL,33131,485000,1,1.5,1060 BRICKELL CONDO,1167,,2008,,416,1045,Sold,,,https://www.redfin.com/FL/Miami/1050-Brickell-Ave-33131/unit-422/home/43398351,MARMLS,A11271838,N,Y,25.7633047,-80.1917469
PAST SALE,January-20-2023,Condo/Co-op,10000 NW 80th Ct #2234,Hialeah Gardens,FL,33016,210000,2,2.0,SAMARI LAKE EAST CONDO,960,,1977,,219,568,Sold,,,https://www.redfin.com/FL/Hialeah-Gardens/10000-NW-80th-Ct-33016/unit-2234/home/42930297,MARMLS,A11294774,N,Y,25.8648109,-80.3299275
PAST SALE,,Condo/Co-op,3536 NE 168th St #205,North Miami Beach,FL,33160,186400,1,1.0,,663,,1972,,281,,,,,https://www.redfin.com/FL/North-Miami-Beach/3536-NE-168th-St-33160/unit-205/home/42881861,,,N,Y,25.9344571,-80.136611
PAST SALE,January-20-2023,Condo/Co-op,1650 NE 115th St #610,North Miami,FL,33181,225000,1,2.0,CRICKET CLUBHOUSE CONDO,710,,1972,,317,660,Sold,,,https://www.redfin.com/FL/Miami/1650-NE-115th-St-33181/unit-610/home/43022790,MARMLS,A11269545,N,Y,25.8816558,-80.1640953
PAST SALE,January-20-2023,Condo/Co-op,2800 Island Blvd #807,Aventura,FL,33160,1150000,2,2.5,2800 ISL BLVD WILLIAMS IS,2150,,1990,,535,2694,Sold,,,https://www.redfin.com/FL/Aventura/2800-Island-Blvd-33160/unit-807/home/42950925,MARMLS,A11283296,N,Y,25.939725,-80.1343316
PAST SALE,January-20-2023,Condo/Co-op,3020 Marcos Dr Unit S508,Aventura,FL,33160,312500,2,2.0,POINT EAST SEC 4 CONDO,1027,,1968,,304,456,Sold,,,https://www.redfin.com/FL/Aventura/3020-Marcos-Dr-33160/unit-S508/home/42945203,MARMLS,A11258888,N,Y,25.9390778,-80.1412447
PAST SALE,,Condo/Co-op,19501 W Country Club Dr #2515,Aventura,FL,33180,535000,2,2.0,,1175,,2002,,455,,,,,https://www.redfin.com/FL/Aventura/19501-W-Country-Club-Dr-33180/unit-2515/home/43308606,,,N,Y,25.9556063,-80.1382789
PAST SALE,January-20-2023,Condo/Co-op,5271 SW 8th St #301,Miami,FL,33134,350000,3,2.0,GRANADA GRAND CONDO,1244,,2006,,281,458,Sold,,,https://www.redfin.com/FL/Coral-Gables/5271-SW-8th-St-33134/unit-301/home/43370145,MARMLS,A11311341,N,Y,25.7640446,-80.2811489
PAST SALE,January-20-2023,Condo/Co-op,701 Brickell Key Blvd #1408,Miami,FL,33131,435000,1,1.5,COURVOISIER COURTS CONDO,806,,1997,,540,1390,Sold,,,https://www.redfin.com/FL/Miami/701-Brickell-Key-Blvd-33131/unit-1408/home/43346513,MARMLS,A11296756,N,Y,25.767956,-80.186446
PAST SALE,January-20-2023,Condo/Co-op,2740 SW 28th Ter #401,Miami,FL,33133,375000,1,1.0,VILLAGGIO IN THE GROVE TO,613,,2006,,612,340,Sold,,,https://www.redfin.com/FL/Miami/2740-SW-28th-Ter-33133/unit-401/home/43364303,MARMLS,A11329728,N,Y,25.7384222,-80.2387993
PAST SALE,January-20-2023,Condo/Co-op,1725 W 60th St Unit F209,Hialeah,FL,33012,245000,2,2.0,LOS SUENOS CONDO,908,,1972,,270,305,Sold,,,https://www.redfin.com/FL/Hialeah/1725-W-60th-St-33012/unit-F209/home/43279959,MARMLS,A11307220,N,Y,25.8775562,-80.3174501
PAST SALE,January-20-2023,Condo/Co-op,9400 E Bay Harbor Dr #6,Bay Harbor Islands,FL,33154,310000,2,2.0,9400 CONDO APTS,1365,,1958,,227,370,Sold,,,https://www.redfin.com/FL/Bay-Harbor-Islands/9400-E-Bay-Harbor-Dr-33154/unit-6/home/42903695,MARMLS,A11311152,N,Y,25.8851287,-80.1292064
PAST SALE,January-20-2023,Condo/Co-op,495 Brickell Ave #2105,Miami,FL,33131,1050000,2,2.0,ICON BRICKELL NO TWO,1450,,2009,,724,1185,Sold,,,https://www.redfin.com/FL/Miami/495-Brickell-Ave-33131/unit-2105/home/43407241,MARMLS,A11271684,N,Y,25.7683135,-80.1884553
PAST SALE,January-20-2023,Condo/Co-op,100 Lincoln Rd #603,Miami Beach,FL,33139,338000,0,1.0,The Decoplage Condo,530,,1965,,638,500,Sold,,,https://www.redfin.com/FL/Miami-Beach/100-Lincoln-Rd-33139/unit-603/home/42798802,Beaches MLS,RX-10843541,N,Y,25.7904391,-80.1296945
PAST SALE,January-20-2023,Condo/Co-op,1700 S Bayshore Ln Unit 6A,Miami,FL,33133,1575000,4,3.0,PORT BYWATER CONDO,2437,,1980,,646,1451,Sold,,,https://www.redfin.com/FL/Miami/1700-S-Bayshore-Ln-33133/unit-6A/home/42749387,MARMLS,A11257071,N,Y,25.7387971,-80.220099
PAST SALE,,Condo/Co-op,3536 NE 168th St #503,North Miami Beach,FL,33160,239100,2,1.0,,816,,1972,,293,,,,,https://www.redfin.com/FL/North-Miami-Beach/3536-NE-168th-St-33160/unit-503/home/42872968,,,N,Y,25.9344571,-80.136611
PAST SALE,January-20-2023,Condo/Co-op,1665 Bay Rd #517,Miami Beach,FL,33139,475000,2,2.0,WEST BAY GARDENS CONDO,1065,,1980,,446,455,Sold,,,https://www.redfin.com/FL/Miami-Beach/1665-Bay-Rd-33139/unit-517/home/42786833,MARMLS,A11309029,N,Y,25.7910791,-80.1434371
