,SOLD DATE,ADDRESS,CITY,PRICE,BEDS,BATHS,LOCATION,YEAR BUILT,DAYS ON MARKET,$/SQUARE FEET,URL,LATITUDE,LONGITUDE,PRICE_AS_CURRENCY,YEAR BUILT DISPLAY,PRICE_SQUARE_FEET_AS_CURRENCY,COLOR,RANK,FULL_ADDRESS
2208,April-10-2023,1401 N Dearborn St,Chicago,5650000.0,5.0,7.5,CHI - Near North Side,1877.0,,653.0,https://www.redfin.com/IL/Chicago/1401-N-Dearborn-St-60610/home/14115357,41.9078849,-87.6296177,"$5,650,000",1877,$653,orange,1,1401 N Dearborn St Chicago
2175,April-11-2023,2028 N Fremont St,Chicago,5050000.0,5.0,5.0,CHI - Lincoln Park,2009.0,,829.0,https://www.redfin.com/IL/Chicago/2028-N-Fremont-St-60614/home/181491346,41.9190162,-87.6512758,"$5,050,000",2009,$829,orange,2,2028 N Fremont St Chicago
1136,April-28-2023,25 Aspen Ln,Glencoe,4560000.0,4.0,4.5,Glencoe,2008.0,,792.0,https://www.redfin.com/IL/Glencoe/25-Aspen-Ln-60022/home/13793513,42.1485838,-87.7573049,"$4,560,000",2008,$792,orange,3,25 Aspen Ln Glencoe
1989,April-3-2023,453 W Deming Pl,Chicago,4500000.0,6.0,5.0,CHI - Lincoln Park,2015.0,,858.0,https://www.redfin.com/IL/Chicago/453-W-Deming-Pl-60614/home/104330448,41.9289412,-87.6410086,"$4,500,000",2015,$858,orange,4,453 W Deming Pl Chicago
1866,April-6-2023,2040 N Magnolia Ave,Chicago,3315000.0,5.0,4.5,CHI - Lincoln Park,1998.0,,564.0,https://www.redfin.com/IL/Chicago/2040-N-Magnolia-Ave-60614/home/12584454,41.9192292,-87.6597506,"$3,315,000",1998,$564,orange,5,2040 N Magnolia Ave Chicago
59,April-7-2023,1837 N Fremont St,Chicago,3300000.0,5.0,3.5,CHI - Lincoln Park,2011.0,,700.0,https://www.redfin.com/IL/Chicago/1837-N-Fremont-St-60614/home/13350938,41.91488,-87.6505314,"$3,300,000",2011,$700,orange,6,1837 N Fremont St Chicago
2107,April-4-2023,502 Greenwood Rd,Northbrook,2950000.0,7.0,8.5,Northbrook,2022.0,,230.0,https://www.redfin.com/IL/Northbrook/502-Greenwood-Rd-60062/home/13818386,42.1436873,-87.8453254,"$2,950,000",2022,$230,orange,7,502 Greenwood Rd Northbrook
2199,April-6-2023,60 Hazel Ave,Glencoe,2750000.0,6.0,7.0,Glencoe,1910.0,,330.0,https://www.redfin.com/IL/Glencoe/60-Hazel-Ave-60022/home/13791168,42.1366996,-87.7493958,"$2,750,000",1910,$330,orange,8,60 Hazel Ave Glencoe
308,April-11-2023,601 Spruce St,Winnetka,2676000.0,4.0,4.0,Winnetka,1942.0,,515.0,https://www.redfin.com/IL/Winnetka/601-Spruce-St-60093/home/13786416,42.1071589,-87.7269968,"$2,676,000",1942,$515,orange,9,601 Spruce St Winnetka
1225,April-27-2023,1230 Westmoor Rd,Winnetka,2610000.0,6.0,6.5,Winnetka,2006.0,,335.0,https://www.redfin.com/IL/Winnetka/1230-Westmoor-Rd-60093/home/13790645,42.1111625,-87.749999,"$2,610,000",2006,$335,orange,10,1230 Westmoor Rd Winnetka
562,April-17-2023,566 Willow Rd,Winnetka,2585000.0,6.0,6.5,Winnetka,2005.0,,386.0,https://www.redfin.com/IL/Winnetka/566-Willow-Rd-60093/home/13785584,42.100592,-87.7259032,"$2,585,000",2005,$386,blue,11,566 Willow Rd Winnetka
101,April-7-2023,2323 N Janssen Ave,Chicago,2510000.0,5.0,5.0,CHI - Lincoln Park,2008.0,,468.0,https://www.redfin.com/IL/Chicago/2323-N-Janssen-Ave-60614/home/13353329,41.9241623,-87.6642393,"$2,510,000",2008,$468,blue,12,2323 N Janssen Ave Chicago
634,April-10-2023,71 Indian Hill Rd,Winnetka,2475000.0,4.0,4.5,Winnetka,1974.0,,351.0,https://www.redfin.com/IL/Winnetka/71-Indian-Hill-Rd-60093/home/13783829,42.0877568,-87.7319598,"$2,475,000",1974,$351,blue,13,71 Indian Hill Rd Winnetka
131,April-14-2023,760 Mount Pleasant St,Winnetka,2400000.0,5.0,4.5,Winnetka,2019.0,,429.0,https://www.redfin.com/IL/Winnetka/760-Mount-Pleasant-St-60093/home/13787318,42.0989336,-87.7330054,"$2,400,000",2019,$429,blue,14,760 Mount Pleasant St Winnetka
472,April-28-2023,571 Hawthorn Ln,Winnetka,2350000.0,6.0,6.5,Winnetka,2013.0,,355.0,https://www.redfin.com/IL/Winnetka/571-Hawthorn-Ln-60093/home/13785823,42.0989554,-87.7260734,"$2,350,000",2013,$355,blue,15,571 Hawthorn Ln Winnetka
599,April-25-2023,1143 W Montana St,Chicago,2299000.0,8.0,4.5,CHI - Lincoln Park,1890.0,,460.0,https://www.redfin.com/IL/Chicago/1143-W-Montana-St-60614/home/13360175,41.9260452,-87.6577469,"$2,299,000",1890,$460,blue,16,1143 W Montana St Chicago
119,April-12-2023,1934 W Patterson Ave,Chicago,2275000.0,6.0,5.0,CHI - North Center,2023.0,,,https://www.redfin.com/IL/Chicago/1934-W-Patterson-Ave-60613/home/12554384,41.9480179,-87.6775489,"$2,275,000",2023,$nan,blue,17,1934 W Patterson Ave Chicago
105,April-4-2023,142 Abingdon Ave,Kenilworth,2272000.0,6.0,4.5,Kenilworth,1926.0,,334.0,https://www.redfin.com/IL/Kenilworth/142-Abingdon-Ave-60043/home/13785727,42.0880378,-87.7052148,"$2,272,000",1926,$334,blue,18,142 Abingdon Ave Kenilworth
2096,April-14-2023,1030 Sheridan Rd,Evanston,2250000.0,6.0,4.5,Evanston,1913.0,,369.0,https://www.redfin.com/IL/Evanston/1030-Sheridan-Rd-60202/home/13578292,42.036687,-87.6724836,"$2,250,000",1913,$369,blue,19,1030 Sheridan Rd Evanston
969,April-20-2023,1901-1905 W Oakdale Ave,Chicago,2160000.0,4.0,3.5,CHI - North Center,2001.0,,402.0,https://www.redfin.com/IL/Chicago/1901-W-Oakdale-Ave-60657/home/180606992,41.934782,-87.6759613,"$2,160,000",2001,$402,blue,20,1901-1905 W Oakdale Ave Chicago
132,April-14-2023,117 Sterling Ln,Wilmette,2150000.0,6.0,5.5,Wilmette,2022.0,,358.0,https://www.redfin.com/IL/Wilmette/117-Sterling-Ln-60091/unit-1/home/13776364,42.0697346,-87.7220525,"$2,150,000",2022,$358,blue,21,117 Sterling Ln Wilmette
1458,April-17-2023,530 Lake Ave,Wilmette,2150000.0,6.0,5.5,Wilmette,2004.0,,,https://www.redfin.com/IL/Wilmette/530-Lake-Ave-60091/home/13783281,42.0790522,-87.6952632,"$2,150,000",2004,$nan,blue,22,530 Lake Ave Wilmette
1730,April-13-2023,1941 W Cortland St,Chicago,2125000.0,5.0,5.0,CHI - Logan Square,2023.0,,472.0,https://www.redfin.com/IL/Chicago/1941-W-Cortland-St-60622/home/184057890,41.915719,-87.6767027,"$2,125,000",2023,$472,blue,23,1941 W Cortland St Chicago
1552,April-13-2023,125 15th St,Wilmette,2100000.0,7.0,4.5,Wilmette,2022.0,,452.0,https://www.redfin.com/IL/Wilmette/125-15th-St-60091/home/13773797,42.0701325,-87.714751,"$2,100,000",2022,$452,blue,24,125 15th St Wilmette
2075,April-14-2023,41 E Elm St,Chicago,2085000.0,4.0,5.5,CHI - Near North Side,1886.0,,496.0,https://www.redfin.com/IL/Chicago/41-E-Elm-St-60611/unit-HSE/home/14123945,41.9030245,-87.6270259,"$2,085,000",1886,$496,blue,25,41 E Elm St Chicago
102,April-28-2023,2432 Pomona Ln,Wilmette,2070000.0,6.0,5.5,Wilmette,2019.0,,346.0,https://www.redfin.com/IL/Wilmette/2432-Pomona-Ln-60091/home/156166362,42.0762065,-87.7362113,"$2,070,000",2019,$346,blue,26,2432 Pomona Ln Wilmette
2050,April-3-2023,1651 N Burling St,Chicago,2050000.0,6.0,4.5,CHI - Lincoln Park,1983.0,,393.0,https://www.redfin.com/IL/Chicago/1651-N-Burling-St-60614/home/13346765,41.9124185,-87.6469153,"$2,050,000",1983,$393,blue,27,1651 N Burling St Chicago
839,April-11-2023,850 Lamson Dr,Winnetka,1999000.0,4.0,5.5,Winnetka,1955.0,,393.0,https://www.redfin.com/IL/Winnetka/850-Lamson-Dr-60093/home/13790209,42.1158276,-87.7359221,"$1,999,000",1955,$393,blue,28,850 Lamson Dr Winnetka
1409,April-24-2023,490 Orchard Ln,Winnetka,1955000.0,5.0,4.0,Winnetka,1928.0,,346.0,https://www.redfin.com/IL/Winnetka/490-Orchard-Ln-60093/home/13786044,42.0995165,-87.7230798,"$1,955,000",1928,$346,blue,29,490 Orchard Ln Winnetka
356,April-4-2023,631 Greenleaf Ave,Wilmette,1926000.0,5.0,4.5,Wilmette,,,416.0,https://www.redfin.com/IL/Wilmette/631-Greenleaf-Ave-60091/home/13774153,42.0748984,-87.6971305,"$1,926,000",nan,$416,blue,30,631 Greenleaf Ave Wilmette
1186,April-18-2023,1048 W Webster Ave,Chicago,1861000.0,4.0,3.0,CHI - Lincoln Park,1987.0,,547.0,https://www.redfin.com/IL/Chicago/1048-W-Webster-Ave-60614/home/13353920,41.9219372,-87.6554282,"$1,861,000",1987,$547,blue,31,1048 W Webster Ave Chicago
378,April-17-2023,1112 Hinman Ave,Evanston,1850000.0,5.0,3.5,Evanston,1900.0,,402.0,https://www.redfin.com/IL/Evanston/1112-Hinman-Ave-60202/home/13579351,42.0380132,-87.6790995,"$1,850,000",1900,$402,blue,32,1112 Hinman Ave Evanston
227,April-17-2023,621 S Grove Ave,Barrington,1850000.0,5.0,4.5,Barrington Village,2005.0,,312.0,https://www.redfin.com/IL/Barrington/621-S-Grove-Ave-60010/home/13905905,42.147966,-88.133371,"$1,850,000",2005,$312,blue,33,621 S Grove Ave Barrington
48,April-18-2023,518 Laurel Ave,Wilmette,1825000.0,6.0,4.5,Wilmette,1940.0,,,https://www.redfin.com/IL/Wilmette/518-Laurel-Ave-60091/home/13773387,42.072916,-87.6945894,"$1,825,000",1940,$nan,blue,34,518 Laurel Ave Wilmette
1300,April-12-2023,1515 Spencer Ave,Wilmette,1800000.0,7.0,5.5,Wilmette,2012.0,,,https://www.redfin.com/IL/Wilmette/1515-Spencer-Ave-60091/home/13776291,42.0767267,-87.715222,"$1,800,000",2012,$nan,blue,35,1515 Spencer Ave Wilmette
305,April-21-2023,200 Hazel Ave,Glencoe,1800000.0,5.0,4.5,Glencoe,1969.0,,487.0,https://www.redfin.com/IL/Glencoe/200-Hazel-Ave-60022/home/13791632,42.1350021,-87.753306,"$1,800,000",1969,$487,blue,36,200 Hazel Ave Glencoe
1190,April-3-2023,1323 W School St,Chicago,1725000.0,5.0,4.0,CHI - Lake View,1999.0,,363.0,https://www.redfin.com/IL/Chicago/1323-W-School-St-60657/home/13382593,41.941401,-87.6624502,"$1,725,000",1999,$363,blue,37,1323 W School St Chicago
1100,April-11-2023,1831 N Wolcott Ave,Chicago,1725000.0,5.0,3.5,CHI - Logan Square,2004.0,,411.0,https://www.redfin.com/IL/Chicago/1831-N-Wolcott-Ave-60622/home/13355592,41.9150838,-87.6748173,"$1,725,000",2004,$411,blue,38,1831 N Wolcott Ave Chicago
182,April-18-2023,2215 W Cullom Ave,Chicago,1715000.0,5.0,5.0,CHI - North Center,2013.0,,,https://www.redfin.com/IL/Chicago/2215-W-Cullom-Ave-60618/home/13390189,41.9593289,-87.6844267,"$1,715,000",2013,$nan,blue,39,2215 W Cullom Ave Chicago
460,April-12-2023,523 Washington Ave,Wilmette,1705000.0,5.0,4.0,Wilmette,1909.0,,364.0,https://www.redfin.com/IL/Wilmette/523-Washington-Ave-60091/home/13774083,42.0773259,-87.6948974,"$1,705,000",1909,$364,blue,40,523 Washington Ave Wilmette
185,April-21-2023,8585 Johnston Rd,Burr Ridge,1700000.0,4.0,,Burr Ridge,2004.0,,,https://www.redfin.com/IL/Burr-Ridge/8585-Johnston-Rd-60527/home/12780573,41.7335657,-87.9091539,"$1,700,000",2004,$nan,blue,41,8585 Johnston Rd Burr Ridge
343,April-28-2023,462 Illinois Rd,Wilmette,1675000.0,6.0,4.5,Wilmette,2004.0,,,https://www.redfin.com/IL/Wilmette/462-Illinois-Rd-60091/home/13778272,42.073765,-87.7295361,"$1,675,000",2004,$nan,blue,42,462 Illinois Rd Wilmette
187,April-27-2023,4926 N Hoyne Ave,Chicago,1674900.0,6.0,5.0,CHI - Lincoln Square,2013.0,,310.0,https://www.redfin.com/IL/Chicago/4926-N-Hoyne-Ave-60625/home/13403693,41.9713839,-87.6820255,"$1,674,900",2013,$310,blue,43,4926 N Hoyne Ave Chicago
467,April-19-2023,1508 W School St,Chicago,1665000.0,5.0,4.5,CHI - Lake View,1999.0,,396.0,https://www.redfin.com/IL/Chicago/1508-W-School-St-60657/home/12805470,41.9417979,-87.6667629,"$1,665,000",1999,$396,blue,44,1508 W School St Chicago
840,April-20-2023,2654 N Wayne Ave,Chicago,1611000.0,4.0,3.5,CHI - Lincoln Park,1997.0,,351.0,https://www.redfin.com/IL/Chicago/2654-N-Wayne-Ave-60614/home/183721323,41.9304817,-87.6625662,"$1,611,000",1997,$351,blue,45,2654 N Wayne Ave Chicago
283,April-3-2023,638 Glenayre Dr,Glenview,1595000.0,4.0,4.0,Glenayre Park,1947.0,,427.0,https://www.redfin.com/IL/Glenview/638-Glenayre-Dr-60025/home/13793566,42.0669647,-87.7890528,"$1,595,000",1947,$427,blue,46,638 Glenayre Dr Glenview
96,April-17-2023,2120 Cargill Dr,Northbrook,1585000.0,6.0,5.5,Northbrook,2021.0,,208.0,https://www.redfin.com/IL/Northbrook/2120-Cargill-Dr-60062/home/13810046,42.1143956,-87.8371126,"$1,585,000",2021,$208,blue,47,2120 Cargill Dr Northbrook
1977,April-11-2023,1357 Sunview Ln,Winnetka,1585000.0,5.0,5.0,East Winnetka,1953.0,,284.0,https://www.redfin.com/IL/Winnetka/1357-Sunview-Ln-60093/home/13789289,42.109566,-87.7552286,"$1,585,000",1953,$284,blue,48,1357 Sunview Ln Winnetka
842,April-10-2023,1735 N Hermitage Ave,Chicago,1575000.0,4.0,3.5,CHI - West Town,2001.0,,448.0,https://www.redfin.com/IL/Chicago/1735-N-Hermitage-Ave-60622/home/13354944,41.9134697,-87.6711275,"$1,575,000",2001,$448,blue,49,1735 N Hermitage Ave Chicago
190,April-26-2023,322 Montgomery Ln,Glenview,1555000.0,5.0,4.5,Glenview / Golf,2023.0,,471.0,https://www.redfin.com/IL/Glenview/322-Montgomery-Ln-60025/home/13677615,42.0614901,-87.8123898,"$1,555,000",2023,$471,blue,50,322 Montgomery Ln Glenview
1345,April-17-2023,1520 Newport Ln,Inverness,1550000.0,5.0,6.0,Glencrest,2016.0,,279.0,https://www.redfin.com/IL/Inverness/1520-Newport-Ln-60010/home/147656879,42.1279529,-88.127194,"$1,550,000",2016,$279,blue,51,1520 Newport Ln Inverness
186,April-24-2023,2131 W School St,Chicago,1535000.0,5.0,3.5,CHI - North Center,2006.0,,377.0,https://www.redfin.com/IL/Chicago/2131-W-School-St-60618/home/12572996,41.9411439,-87.6820608,"$1,535,000",2006,$377,blue,52,2131 W School St Chicago
156,April-24-2023,225 Ridge Ave,Winnetka,1525000.0,6.0,3.5,Winnetka,1920.0,,373.0,https://www.redfin.com/IL/Winnetka/225-Ridge-Ave-60093/home/13784941,42.0971982,-87.7316089,"$1,525,000",1920,$373,blue,53,225 Ridge Ave Winnetka
1673,April-14-2023,1237 W Lill St,Chicago,1510000.0,6.0,4.0,CHI - Lincoln Park,1929.0,,,https://www.redfin.com/IL/Chicago/1237-W-Lill-Ave-60614/home/13361367,41.9276187,-87.6600201,"$1,510,000",1929,$nan,blue,54,1237 W Lill St Chicago
1329,April-7-2023,30 Pine Tree Rd,Northbrook,1505000.0,6.0,5.5,Glenbrook Countryside,2017.0,,334.0,https://www.redfin.com/IL/Northbrook/30-Pine-Tree-Rd-60062/home/13819797,42.1515969,-87.8268565,"$1,505,000",2017,$334,blue,55,30 Pine Tree Rd Northbrook
939,April-24-2023,460 Orchard Ln,Winnetka,1500000.0,4.0,2.5,Winnetka,1937.0,,462.0,https://www.redfin.com/IL/Winnetka/460-Orchard-Ln-60093/home/13785500,42.0995518,-87.7221362,"$1,500,000",1937,$462,blue,56,460 Orchard Ln Winnetka
523,April-3-2023,544 Sterling Rd,Kenilworth,1500000.0,5.0,4.5,Kenilworth,2004.0,,394.0,https://www.redfin.com/IL/Kenilworth/544-Sterling-Rd-60043/home/13784462,42.0888317,-87.7207964,"$1,500,000",2004,$394,blue,57,544 Sterling Rd Kenilworth
173,April-12-2023,1221 Walnut St,Western Springs,1499000.0,5.0,4.5,Western Springs,2004.0,,428.0,https://www.redfin.com/IL/Western-Springs/1221-Walnut-St-60558/home/14060667,41.8105525,-87.905111,"$1,499,000",2004,$428,blue,58,1221 Walnut St Western Springs
84,April-10-2023,3756 N Wayne Ave,Chicago,1475000.0,4.0,3.5,CHI - Lake View,1906.0,,,https://www.redfin.com/IL/Chicago/3756-N-Wayne-Ave-60613/home/13384365,41.9505916,-87.6631893,"$1,475,000",1906,$nan,blue,59,3756 N Wayne Ave Chicago
1803,April-25-2023,2650 N Magnolia Ave,Chicago,1475000.0,4.0,3.5,CHI - Lincoln Park,1993.0,,,https://www.redfin.com/IL/Chicago/2650-N-Magnolia-Ave-60614/home/13363231,41.9303978,-87.6601117,"$1,475,000",1993,$nan,blue,60,2650 N Magnolia Ave Chicago
631,April-14-2023,2238 N Southport Ave,Chicago,1470000.0,4.0,3.5,CHI - Lincoln Park,1998.0,,377.0,https://www.redfin.com/IL/Chicago/2238-N-Southport-Ave-60614/home/13353689,41.9227402,-87.6635254,"$1,470,000",1998,$377,blue,61,2238 N Southport Ave Chicago
416,April-3-2023,1710 N Crilly Ct,Chicago,1460000.0,4.0,3.0,CHI - Lincoln Park,1885.0,,487.0,https://www.redfin.com/IL/Chicago/1710-N-Crilly-Ct-60614/home/13344202,41.9132105,-87.6360393,"$1,460,000",1885,$487,blue,62,1710 N Crilly Ct Chicago
409,April-14-2023,1716 Highland Ter,Glenview,1460000.0,6.0,5.0,Glenview / Golf,1987.0,,,https://www.redfin.com/IL/Glenview/1716-Highland-Ter-60025/home/13801211,42.0866801,-87.7938169,"$1,460,000",1987,$nan,blue,63,1716 Highland Ter Glenview
1256,April-14-2023,1122 Judson Ave,Evanston,1460000.0,6.0,4.0,Evanston,1884.0,,334.0,https://www.redfin.com/IL/Evanston/1122-Judson-Ave-60202/home/13578617,42.0384225,-87.6774213,"$1,460,000",1884,$334,blue,64,1122 Judson Ave Evanston
481,April-14-2023,35 Lakeside Dr,South Barrington,1450000.0,6.0,5.5,Lakeshore Estates,2001.0,,142.0,https://www.redfin.com/IL/South-Barrington/35-Lakeside-Dr-60010/home/13904493,42.1013591,-88.1684333,"$1,450,000",2001,$142,blue,65,35 Lakeside Dr South Barrington
448,April-25-2023,1294 Scott Ave,Winnetka,1442200.0,5.0,3.5,Winnetka,1925.0,,441.0,https://www.redfin.com/IL/Winnetka/1294-Scott-Ave-60093/home/13787981,42.1188258,-87.7524431,"$1,442,200",1925,$441,blue,66,1294 Scott Ave Winnetka
1063,April-28-2023,2310 Henley St,Glenview,1440000.0,6.0,5.5,Glenview / Golf,2001.0,,361.0,https://www.redfin.com/IL/Glenview/2310-Henley-St-60025/home/13795131,42.0708188,-87.8158827,"$1,440,000",2001,$361,blue,67,2310 Henley St Glenview
243,April-21-2023,3642 N Artesian Ave,Chicago,1435000.0,5.0,5.0,CHI - North Center,2022.0,,,https://www.redfin.com/IL/Chicago/3642-N-Artesian-Ave-60618/home/147909570,41.9479931,-87.6897956,"$1,435,000",2022,$nan,blue,68,3642 N Artesian Ave Chicago
1513,April-18-2023,4745 Franklin Ave,Western Springs,1430000.0,6.0,6.5,Western Springs,2007.0,,294.0,https://www.redfin.com/IL/Western-Springs/4745-Franklin-Ave-60558/home/14058491,41.8028662,-87.8955867,"$1,430,000",2007,$294,blue,69,4745 Franklin Ave Western Springs
2198,April-14-2023,1914 N Dayton St,Chicago,1422850.0,4.0,4.5,CHI - Lincoln Park,1886.0,,,https://www.redfin.com/IL/Chicago/1914-N-Dayton-St-60614/home/13350892,41.9165117,-87.6499625,"$1,422,850",1886,$nan,blue,70,1914 N Dayton St Chicago
1783,April-28-2023,18 Forest Ln,South Barrington,1410000.0,7.0,6.0,Forest Knoll,1996.0,,144.0,https://www.redfin.com/IL/South-Barrington/18-Forest-Ln-60010/home/13902187,42.1007243,-88.1289481,"$1,410,000",1996,$144,blue,71,18 Forest Ln South Barrington
718,April-26-2023,5550 N Wayne Ave,Chicago,1400000.0,4.0,3.5,CHI - Edgewater,1910.0,,420.0,https://www.redfin.com/IL/Chicago/5550-N-Wayne-Ave-60640/home/13402440,41.9832829,-87.6640494,"$1,400,000",1910,$420,blue,72,5550 N Wayne Ave Chicago
1910,April-17-2023,100 Shoreline Dr,Park Ridge,1400000.0,5.0,3.0,Park Ridge,1964.0,,337.0,https://www.redfin.com/IL/Park-Ridge/100-Shoreline-Dr-60068/home/13648015,42.0114089,-87.8525886,"$1,400,000",1964,$337,blue,73,100 Shoreline Dr Park Ridge
2182,April-3-2023,2717 N Albany Ave,Chicago,1390000.0,5.0,3.5,CHI - Logan Square,2019.0,,397.0,https://www.redfin.com/IL/Chicago/2717-N-Albany-Ave-60647/home/13451810,41.9307924,-87.7046351,"$1,390,000",2019,$397,blue,74,2717 N Albany Ave Chicago
79,April-19-2023,209 Forest Ave,Oak Park,1385000.0,6.0,5.5,Oak Park,1894.0,,307.0,https://www.redfin.com/IL/Oak-Park/209-Forest-Ave-60302/home/13271182,41.8910074,-87.8006803,"$1,385,000",1894,$307,blue,75,209 Forest Ave Oak Park
172,April-13-2023,902 Linden Ln,Glenview,1375000.0,6.0,6.5,Glenview / Golf,2006.0,,197.0,https://www.redfin.com/IL/Glenview/902-Linden-Ln-60025/home/13801570,42.0891897,-87.7812002,"$1,375,000",2006,$197,blue,76,902 Linden Ln Glenview
154,April-27-2023,3726 N Hermitage Ave,Chicago,1370000.0,5.0,4.5,CHI - Lake View,2007.0,,340.0,https://www.redfin.com/IL/Chicago/3726-N-Hermitage-Ave-60613/home/181868353,41.9495879,-87.672821,"$1,370,000",2007,$340,blue,77,3726 N Hermitage Ave Chicago
613,April-7-2023,687 Cherry St,Winnetka,1365000.0,5.0,4.5,Winnetka,1926.0,,370.0,https://www.redfin.com/IL/Winnetka/687-Cherry-St-60093/home/13786408,42.1036541,-87.7303633,"$1,365,000",1926,$370,blue,78,687 Cherry St Winnetka
1383,April-14-2023,611 County Line Rd,Highland Park,1360000.0,5.0,4.5,Highland Park,1929.0,,289.0,https://www.redfin.com/IL/Highland-Park/611-County-Line-Rd-60035/home/17615524,42.1527297,-87.7761411,"$1,360,000",1929,$289,blue,79,611 County Line Rd Highland Park
367,April-20-2023,1580 Macalpin Cir,Inverness,1335000.0,6.0,5.5,Braymore Hills,1997.0,,192.0,https://www.redfin.com/IL/Inverness/1580-Macalpin-Cir-60010/home/13903861,42.1238126,-88.1289481,"$1,335,000",1997,$192,blue,80,1580 Macalpin Cir Inverness
1198,April-10-2023,846 Bonnie Brae Pl,River Forest,1332000.0,4.0,4.0,River Forest,1926.0,,245.0,https://www.redfin.com/IL/River-Forest/846-Bonnie-Brae-Pl-60305/home/13342720,41.8958299,-87.807394,"$1,332,000",1926,$245,blue,81,846 Bonnie Brae Pl River Forest
606,April-28-2023,5758 S Dorchester Ave,Chicago,1330000.0,3.0,2.5,CHI - Hyde Park,1963.0,,512.0,https://www.redfin.com/IL/Chicago/5758-S-Dorchester-Ave-60637/home/13944999,41.7898425,-87.5917842,"$1,330,000",1963,$512,blue,82,5758 S Dorchester Ave Chicago
1809,April-17-2023,2121 2nd St,Northbrook,1325000.0,5.0,6.5,Northbrook,2007.0,,286.0,https://www.redfin.com/IL/Northbrook/2121-2nd-St-60062/home/13808636,42.114347,-87.831451,"$1,325,000",2007,$286,blue,83,2121 2nd St Northbrook
566,April-6-2023,4851 N Hamilton Ave,Chicago,1315000.0,4.0,3.5,CHI - Lincoln Square,1904.0,,407.0,https://www.redfin.com/IL/Chicago/4851-N-Hamilton-Ave-60625/home/13404679,41.970233,-87.682632,"$1,315,000",1904,$407,blue,84,4851 N Hamilton Ave Chicago
2130,April-5-2023,1843 N Dayton St,Chicago,1305000.0,3.0,3.5,CHI - Lincoln Park,1985.0,,,https://www.redfin.com/IL/Chicago/1843-N-Dayton-St-60614/home/180700082,41.9150292,-87.6494615,"$1,305,000",1985,$nan,blue,85,1843 N Dayton St Chicago
1363,April-17-2023,1815 W Cortland St,Chicago,1300000.0,5.0,4.0,CHI - Logan Square,2009.0,,317.0,https://www.redfin.com/IL/Chicago/1815-W-Cortland-St-60622/home/13355274,41.9157896,-87.6733952,"$1,300,000",2009,$317,blue,86,1815 W Cortland St Chicago
1497,April-12-2023,6 Silo Ridge Rd S,Orland Park,1300000.0,7.0,7.0,Silo Ridge,1990.0,,130.0,https://www.redfin.com/IL/Orland-Park/6-Silo-Ridge-Rd-S-60467/home/13025912,41.6155418,-87.9038655,"$1,300,000",1990,$130,blue,87,6 Silo Ridge Rd S Orland Park
419,April-19-2023,611 Wisner St,Park Ridge,1300000.0,4.0,2.5,Park Ridge,1930.0,,325.0,https://www.redfin.com/IL/Park-Ridge/611-Wisner-St-60068/home/13651965,42.018998,-87.8242992,"$1,300,000",1930,$325,blue,88,611 Wisner St Park Ridge
338,April-28-2023,131 8th Ave,La Grange,1285000.0,5.0,4.5,La Grange,1904.0,,279.0,https://www.redfin.com/IL/La-Grange/131-8th-Ave-60525/home/12607000,41.8113151,-87.865218,"$1,285,000",1904,$279,blue,89,131 8th Ave La Grange
895,April-26-2023,2030 Greenwood Ave,Wilmette,1285000.0,4.0,3.5,Wilmette,1938.0,,,https://www.redfin.com/IL/Wilmette/2030-Greenwood-Ave-60091/home/13782746,42.0833816,-87.7265159,"$1,285,000",1938,$nan,blue,90,2030 Greenwood Ave Wilmette
72,April-21-2023,2034 Highland Ave,Wilmette,1276000.0,4.0,3.5,Wilmette,1957.0,,439.0,https://www.redfin.com/IL/Wilmette/2034-Highland-Ave-60091/home/13777833,42.0748519,-87.7268622,"$1,276,000",1957,$439,blue,91,2034 Highland Ave Wilmette
671,April-4-2023,824 Bell Ln,Winnetka,1270000.0,5.0,4.0,Winnetka,1973.0,,315.0,https://www.redfin.com/IL/Winnetka/824-Bell-Ln-60093/home/13788075,42.1141833,-87.7554401,"$1,270,000",1973,$315,blue,92,824 Bell Ln Winnetka
731,April-3-2023,626 Coronet Rd,Glenview,1261000.0,4.0,2.5,Glenview / Golf,1950.0,,367.0,https://www.redfin.com/IL/Glenview/626-Coronet-Rd-60025/home/13792414,42.0663355,-87.7804454,"$1,261,000",1950,$367,blue,93,626 Coronet Rd Glenview
1084,April-14-2023,979 Dairy Ln,Inverness,1260000.0,6.0,5.5,Mcintosh,1977.0,,158.0,https://www.redfin.com/IL/Inverness/979-Dairy-Ln-60067/home/13896402,42.1281777,-88.0938542,"$1,260,000",1977,$158,blue,94,979 Dairy Ln Inverness
95,April-24-2023,1250 Ridge Rd,Northbrook,1250000.0,5.0,5.0,Northbrook,1998.0,,284.0,https://www.redfin.com/IL/Northbrook/1250-Ridge-Rd-60062/home/13812655,42.1315563,-87.8107945,"$1,250,000",1998,$284,blue,95,1250 Ridge Rd Northbrook
1265,April-24-2023,1046 Pine St,Winnetka,1240000.0,4.0,2.5,Winnetka,1987.0,,407.0,https://www.redfin.com/IL/Winnetka/1046-Pine-St-60093/home/13786682,42.1080218,-87.7433842,"$1,240,000",1987,$407,blue,96,1046 Pine St Winnetka
689,April-12-2023,542 Park Ave,River Forest,1230000.0,5.0,5.5,River Forest,,,,https://www.redfin.com/IL/River-Forest/542-Park-Ave-60305/home/13324425,41.8897763,-87.8201424,"$1,230,000",nan,$nan,blue,97,542 Park Ave River Forest
1895,April-19-2023,5319 Washington St,Skokie,1230000.0,4.0,4.0,Skokie,2023.0,,362.0,https://www.redfin.com/IL/Skokie/5319-Washington-St-60077/home/22644337,42.0324737,-87.760227,"$1,230,000",2023,$362,blue,98,5319 Washington St Skokie
1013,April-14-2023,1139 Manor Dr,Wilmette,1225000.0,5.0,4.5,Wilmette,1994.0,,241.0,https://www.redfin.com/IL/Wilmette/1139-Manor-Dr-60091/home/13781193,42.0846415,-87.7642253,"$1,225,000",1994,$241,blue,99,1139 Manor Dr Wilmette
1350,April-14-2023,2731 N Hampden Ct,Chicago,1220000.0,4.0,3.5,CHI - Lincoln Park,1889.0,,,https://www.redfin.com/IL/Chicago/2731-N-Hampden-Ct-60614/home/12556634,41.9315828,-87.641692,"$1,220,000",1889,$nan,blue,100,2731 N Hampden Ct Chicago
1283,April-21-2023,1931 W Wolfram St,Chicago,1212000.0,4.0,3.5,CHI - North Center,2000.0,,311.0,https://www.redfin.com/IL/Chicago/1931-W-Wolfram-St-60657/home/184578040,41.9329881,-87.6769898,"$1,212,000",2000,$311,blue,101,1931 W Wolfram St Chicago
1291,April-21-2023,2643 W Medill Ave,Chicago,1200000.0,4.0,3.5,CHI - Logan Square,2015.0,,365.0,https://www.redfin.com/IL/Chicago/2643-W-Medill-Ave-60647/home/68096689,41.9236597,-87.694541,"$1,200,000",2015,$365,blue,102,2643 W Medill Ave Chicago
979,April-7-2023,1133 Greenbriar Ln,Northbrook,1200000.0,6.0,4.5,Highlands,2010.0,,240.0,https://www.redfin.com/IL/Northbrook/1133-Greenbriar-Ln-60062/home/13814090,42.1322207,-87.8336,"$1,200,000",2010,$240,blue,103,1133 Greenbriar Ln Northbrook
831,April-14-2023,1223 Cherry St,Winnetka,1199000.0,4.0,3.5,Winnetka,1935.0,,326.0,https://www.redfin.com/IL/Winnetka/1223-Cherry-St-60093/home/13786116,42.1038976,-87.7498832,"$1,199,000",1935,$326,blue,104,1223 Cherry St Winnetka
2201,April-21-2023,3730 N Albany Ave,Chicago,1190000.0,5.0,3.5,CHI - Irving Park,2022.0,,356.0,https://www.redfin.com/IL/Chicago/3730-N-Albany-Ave-60618/home/180759451,41.949407,-87.7057247,"$1,190,000",2022,$356,blue,105,3730 N Albany Ave Chicago
1556,April-6-2023,1151 Seneca Rd,Wilmette,1187000.0,3.0,4.0,Wilmette,1957.0,,343.0,https://www.redfin.com/IL/Wilmette/1151-Seneca-Rd-60091/home/13782896,42.084029,-87.740903,"$1,187,000",1957,$343,blue,106,1151 Seneca Rd Wilmette
153,April-4-2023,2130 Grove St,Glenview,1185000.0,4.0,2.5,Glenview / Golf,1948.0,,,https://www.redfin.com/IL/Glenview/2130-Grove-St-60025/home/13795883,42.0754096,-87.8117976,"$1,185,000",1948,$nan,blue,107,2130 Grove St Glenview
1509,April-24-2023,147 Old Dundee Rd,Barrington Hills,1182000.0,4.0,3.5,Barrington Area,1980.0,,297.0,https://www.redfin.com/IL/Barrington/147-Old-Dundee-Rd-60010/home/13905245,42.1196538,-88.1728522,"$1,182,000",1980,$297,blue,108,147 Old Dundee Rd Barrington Hills
1324,April-10-2023,4821 Lawn Ave,Western Springs,1175000.0,5.0,3.5,Western Springs,1952.0,,356.0,https://www.redfin.com/IL/Western-Springs/4821-Lawn-Ave-60558/home/14060882,41.8014429,-87.8995155,"$1,175,000",1952,$356,blue,109,4821 Lawn Ave Western Springs
1727,April-18-2023,2026 W Superior St,Chicago,1175000.0,4.0,3.5,CHI - West Town,2014.0,,379.0,https://www.redfin.com/IL/Chicago/2026-W-Superior-St-60612/home/12583886,41.8949568,-87.6781652,"$1,175,000",2014,$379,blue,110,2026 W Superior St Chicago
149,April-18-2023,2429 N Talman Ave,Chicago,1170000.0,4.0,3.5,CHI - Logan Square,2015.0,,316.0,https://www.redfin.com/IL/Chicago/2429-N-Talman-Ave-60647/home/22692447,41.925785,-87.693436,"$1,170,000",2015,$316,blue,111,2429 N Talman Ave Chicago
542,April-18-2023,401 Laurel Ave,Wilmette,1150000.0,6.0,4.0,Wilmette,1887.0,,236.0,https://www.redfin.com/IL/Wilmette/401-Laurel-Ave-60091/home/13772211,42.0723486,-87.6922984,"$1,150,000",1887,$236,blue,112,401 Laurel Ave Wilmette
1325,April-17-2023,1400 William St,River Forest,1135000.0,4.0,2.5,River Forest,1937.0,,294.0,https://www.redfin.com/IL/River-Forest/1400-William-St-60305/home/13342257,41.9053273,-87.8109745,"$1,135,000",1937,$294,blue,113,1400 William St River Forest
707,April-14-2023,1908 W George St,Chicago,1125000.0,4.0,3.5,CHI - North Center,1886.0,,341.0,https://www.redfin.com/IL/Chicago/1908-W-George-St-60657/home/13358942,41.9343593,-87.6762008,"$1,125,000",1886,$341,blue,114,1908 W George St Chicago
1659,April-28-2023,2314 Lawndale Ave,Evanston,1110000.0,4.0,3.0,Evanston,1926.0,,461.0,https://www.redfin.com/IL/Evanston/2314-Lawndale-Ave-60201/home/13633192,42.059493,-87.7208731,"$1,110,000",1926,$461,blue,115,2314 Lawndale Ave Evanston
931,April-7-2023,1017 Crystal Ct,Glenview,1100000.0,5.0,4.5,Glenview / Golf,2002.0,,272.0,https://www.redfin.com/IL/Glenview/1017-Crystal-Ct-60025/home/13796605,42.0736884,-87.8338308,"$1,100,000",2002,$272,blue,116,1017 Crystal Ct Glenview
166,April-28-2023,2227 Lincolnwood Dr,Evanston,1100000.0,6.0,4.0,Evanston,1926.0,,500.0,https://www.redfin.com/IL/Evanston/2227-Lincolnwood-Dr-60201/home/13630483,42.0582093,-87.7154373,"$1,100,000",1926,$500,blue,117,2227 Lincolnwood Dr Evanston
116,April-4-2023,438 W Arlington Pl,Chicago,1100000.0,4.0,3.5,CHI - Lincoln Park,1900.0,,271.0,https://www.redfin.com/IL/Chicago/438-W-Arlington-Pl-60614/home/13365866,41.9271764,-87.6407006,"$1,100,000",1900,$271,blue,118,438 W Arlington Pl Chicago
297,April-21-2023,2425 N Orchard St,Chicago,1100000.0,4.0,3.5,CHI - Lincoln Park,,,423.0,https://www.redfin.com/IL/Chicago/2425-N-Orchard-St-60614/home/13367514,41.9263065,-87.6460572,"$1,100,000",nan,$423,blue,119,2425 N Orchard St Chicago
1995,April-14-2023,6635 N Onarga Ave,Chicago,1100000.0,5.0,3.5,CHI - Edison Park,2022.0,,278.0,https://www.redfin.com/IL/Chicago/6635-N-Onarga-Ave-60631/home/13635888,42.0011297,-87.8104679,"$1,100,000",2022,$278,blue,120,6635 N Onarga Ave Chicago
1864,April-24-2023,593 Groen Ct,Schaumburg,1085000.0,4.0,2.5,Schaumburg,1939.0,,386.0,https://www.redfin.com/IL/Schaumburg/593-Groen-Ct-60193/home/13723092,42.0188628,-88.0659112,"$1,085,000",1939,$386,blue,121,593 Groen Ct Schaumburg
1590,April-21-2023,1828 S Fairview Ave,Park Ridge,1050000.0,4.0,3.5,Park Ridge,1928.0,,295.0,https://www.redfin.com/IL/Park-Ridge/1828-S-Fairview-Ave-60068/home/13562545,41.9872688,-87.8343747,"$1,050,000",1928,$295,blue,122,1828 S Fairview Ave Park Ridge
93,April-28-2023,1045 Julia Ct,Glencoe,1050000.0,5.0,3.5,Glencoe,1985.0,,298.0,https://www.redfin.com/IL/Glencoe/1045-Julia-Ct-60022/home/13820906,42.1380619,-87.7757568,"$1,050,000",1985,$298,blue,123,1045 Julia Ct Glencoe
152,April-14-2023,1627 N Richmond St,Chicago,1040000.0,5.0,3.5,CHI - West Town,2020.0,,,https://www.redfin.com/IL/Chicago/1627-N-Richmond-St-60647/home/52643392,41.9111396,-87.6999871,"$1,040,000",2020,$nan,blue,124,1627 N Richmond St Chicago
1650,April-26-2023,2025 Larkdale Dr,Glenview,1035000.0,4.0,3.5,Glenview / Golf,2007.0,,256.0,https://www.redfin.com/IL/Glenview/2025-Larkdale-Dr-60025/home/13793909,42.0682185,-87.8101801,"$1,035,000",2007,$256,blue,125,2025 Larkdale Dr Glenview
108,April-3-2023,873 Country Club Ln,Northbrook,1035000.0,3.0,4.0,Royal Ridge,2000.0,,304.0,https://www.redfin.com/IL/Northbrook/873-Country-Club-Ln-60062/home/184671798,42.1164993,-87.8010534,"$1,035,000",2000,$304,blue,126,873 Country Club Ln Northbrook
111,April-14-2023,4054 N Kostner Ave,Chicago,1020000.0,5.0,4.5,CHI - Irving Park,1909.0,,258.0,https://www.redfin.com/IL/Chicago/4054-N-Kostner-Ave-60641/home/13481332,41.9551915,-87.7384032,"$1,020,000",1909,$258,blue,127,4054 N Kostner Ave Chicago
1901,April-27-2023,2150 New Willow Rd,Northfield,1010000.0,4.0,5.0,Northfield,,,142.0,https://www.redfin.com/IL/Northfield/2150-New-Willow-Rd-60093/home/13803463,42.1020218,-87.784092,"$1,010,000",nan,$142,blue,128,2150 New Willow Rd Northfield
1398,April-28-2023,1435 S Prospect Ave,Park Ridge,990000.0,4.0,3.5,Park Ridge,2005.0,,276.0,https://www.redfin.com/IL/Park-Ridge/1435-S-Prospect-Ave-60068/home/13564877,41.9923749,-87.8324298,"$990,000",2005,$276,blue,129,1435 S Prospect Ave Park Ridge
129,April-3-2023,563 Park Ave,River Forest,990000.0,5.0,3.5,River Forest,1900.0,,401.0,https://www.redfin.com/IL/River-Forest/563-Park-Ave-60305/home/22816291,41.8905086,-87.8192838,"$990,000",1900,$401,blue,130,563 Park Ave River Forest
1653,April-17-2023,2008 W Ohio St,Chicago,980000.0,4.0,3.5,East Village,2002.0,,245.0,https://www.redfin.com/IL/Chicago/2008-W-Ohio-St-60612/home/14104637,41.8924994,-87.6773948,"$980,000",2002,$245,blue,131,2008 W Ohio St Chicago
987,April-13-2023,4220 N Ridgeway Ave,Chicago,975000.0,4.0,3.5,CHI - Irving Park,2014.0,,271.0,https://www.redfin.com/IL/Chicago/4220-N-Ridgeway-Ave-60618/home/113042927,41.9580199,-87.7219243,"$975,000",2014,$271,blue,132,4220 N Ridgeway Ave Chicago
140,April-14-2023,7900 Deerview Ct,Burr Ridge,975000.0,4.0,6.0,Burr Ridge,1997.0,,306.0,https://www.redfin.com/IL/Burr-Ridge/7900-Deerview-Ct-60527/home/14043597,41.745307,-87.9135221,"$975,000",1997,$306,blue,133,7900 Deerview Ct Burr Ridge
1756,April-7-2023,3044 N Troy St,Chicago,972000.0,5.0,3.5,CHI - Avondale,2022.0,,,https://www.redfin.com/IL/Chicago/3044-N-Troy-St-60618/home/13452862,41.9370319,-87.7066487,"$972,000",2022,$nan,blue,134,3044 N Troy St Chicago
770,April-28-2023,1003 Red Oak Dr,Western Springs,965000.0,5.0,4.5,Timber Trails,2016.0,,241.0,https://www.redfin.com/IL/Western-Springs/1003-Red-Oak-Dr-60558/home/113092939,41.7804098,-87.9000644,"$965,000",2016,$241,blue,135,1003 Red Oak Dr Western Springs
607,April-12-2023,4911 N Leavitt St,Chicago,961500.0,3.0,3.5,CHI - Lincoln Square,1903.0,,351.0,https://www.redfin.com/IL/Chicago/4911-N-Leavitt-St-60625/home/13404706,41.9708707,-87.6839013,"$961,500",1903,$351,blue,136,4911 N Leavitt St Chicago
2126,April-6-2023,1644 N Campbell Ave,Chicago,960000.0,5.0,3.5,CHI - West Town,2003.0,,241.0,https://www.redfin.com/IL/Chicago/1644-N-Campbell-Ave-60647/home/18954250,41.9116285,-87.6901009,"$960,000",2003,$241,blue,137,1644 N Campbell Ave Chicago
2186,April-28-2023,9146 Lincoln Ave,Brookfield,960000.0,1.0,2.0,Brookfield,,,82.0,https://www.redfin.com/IL/Brookfield/9146-Lincoln-Ave-60513/home/182333381,41.826194,-87.8512538,"$960,000",nan,$82,blue,138,9146 Lincoln Ave Brookfield
1529,April-26-2023,1738 N Artesian Ave,Chicago,960000.0,4.0,3.5,CHI - West Town,2008.0,,,https://www.redfin.com/IL/Chicago/1738-N-Artesian-Ave-60647/home/21763249,41.9132197,-87.688804,"$960,000",2008,$nan,blue,139,1738 N Artesian Ave Chicago
1518,April-12-2023,9 Blanchard Cir,South Barrington,957500.0,6.0,3.0,The Glen,1984.0,,209.0,https://www.redfin.com/IL/South-Barrington/9-Blanchard-Cir-60010/home/13901645,42.0805758,-88.1489238,"$957,500",1984,$209,blue,140,9 Blanchard Cir South Barrington
183,April-17-2023,281 Scott Ave,Winnetka,950000.0,5.0,3.5,Winnetka,1927.0,,392.0,https://www.redfin.com/IL/Winnetka/281-Scott-Ave-60093/home/13790528,42.120226,-87.7446726,"$950,000",1927,$392,blue,141,281 Scott Ave Winnetka
1611,April-21-2023,2114 W Wellington Ave,Chicago,935000.0,4.0,3.5,CHI - North Center,1997.0,,298.0,https://www.redfin.com/IL/Chicago/2114-W-Wellington-Ave-60618/home/13359739,41.9360899,-87.6813619,"$935,000",1997,$298,blue,142,2114 W Wellington Ave Chicago
1494,April-18-2023,1801 Birch St,Park Ridge,930000.0,4.0,3.5,Park Ridge,2000.0,,281.0,https://www.redfin.com/IL/Park-Ridge/1801-Birch-St-60068/home/13657414,42.0313166,-87.8490434,"$930,000",2000,$281,blue,143,1801 Birch St Park Ridge
1421,April-11-2023,711 Prairie Ave,Barrington,927500.0,5.0,4.5,Barrington Village,2017.0,,284.0,https://www.redfin.com/IL/Barrington/711-Prairie-Ave-60010/home/13905107,42.1461054,-88.1286984,"$927,500",2017,$284,blue,144,711 Prairie Ave Barrington
1649,April-28-2023,5324 N Wayne Ave,Chicago,925000.0,5.0,2.0,Lakewood Balmoral,1900.0,,243.0,https://www.redfin.com/IL/Chicago/5324-N-Wayne-Ave-60640/home/13402736,41.9788702,-87.6638738,"$925,000",1900,$243,blue,145,5324 N Wayne Ave Chicago
1514,April-28-2023,7739 W Summerdale Ave,Chicago,915000.0,4.0,4.5,CHI - Norwood Park,2022.0,,213.0,https://www.redfin.com/IL/Chicago/7739-W-Summerdale-Ave-60656/home/13558453,41.9765472,-87.8209266,"$915,000",2022,$213,blue,146,7739 W Summerdale Ave Chicago
447,April-28-2023,2520 Partridge Ln,Northbrook,915000.0,5.0,3.5,White Plains,1968.0,,271.0,https://www.redfin.com/IL/Northbrook/2520-Partridge-Ln-60062/home/13813965,42.1303841,-87.8427351,"$915,000",1968,$271,blue,147,2520 Partridge Ln Northbrook
1401,April-10-2023,17 S Mitchell Ave,Arlington Heights,909900.0,4.0,3.0,Arlington Heights,1924.0,,,https://www.redfin.com/IL/Arlington-Heights/17-S-Mitchell-Ave-60005/home/26826711,42.0821757,-87.9875445,"$909,900",1924,$nan,blue,148,17 S Mitchell Ave Arlington Heights
1134,April-5-2023,616 S Stone Ave,La Grange,905000.0,4.0,3.5,Country Club,1998.0,,285.0,https://www.redfin.com/IL/La-Grange/616-S-Stone-Ave-60525/home/14056472,41.802344,-87.8781436,"$905,000",1998,$285,blue,149,616 S Stone Ave La Grange
78,April-5-2023,819 N Spring Ave,La Grange Park,904000.0,6.0,3.5,Harding Woods,1949.0,,194.0,https://www.redfin.com/IL/La-Grange-Park/819-N-Spring-Ave-60526/home/13298405,41.829555,-87.8762779,"$904,000",1949,$194,blue,150,819 N Spring Ave La Grange Park
432,April-27-2023,410 Belleplaine Ave,Park Ridge,900000.0,4.0,4.5,Park Ridge,,,360.0,https://www.redfin.com/IL/Park-Ridge/410-Belleplaine-Ave-60068/home/13638344,42.0040804,-87.82892,"$900,000",nan,$360,blue,151,410 Belleplaine Ave Park Ridge
1544,April-14-2023,309 N Washington Ave,Park Ridge,900000.0,5.0,4.0,Park Ridge,1926.0,,247.0,https://www.redfin.com/IL/Park-Ridge/309-N-Washington-Ave-60068/home/13651751,42.0154209,-87.8257887,"$900,000",1926,$247,blue,152,309 N Washington Ave Park Ridge
90,April-11-2023,7052 Palma Ln,Morton Grove,900000.0,7.0,5.0,Morton Grove,2018.0,,254.0,https://www.redfin.com/IL/Morton-Grove/7052-Palma-Ln-60053/home/13618256,42.054488,-87.8034204,"$900,000",2018,$254,blue,153,7052 Palma Ln Morton Grove
126,April-17-2023,2617 Eastwood Ave,Evanston,900000.0,3.0,2.5,Evanston,1917.0,,,https://www.redfin.com/IL/Evanston/2617-Eastwood-Ave-60201/home/13773432,42.0649933,-87.6953777,"$900,000",1917,$nan,blue,154,2617 Eastwood Ave Evanston
925,April-19-2023,2635 Lawndale Ave,Evanston,900000.0,3.0,2.5,Evanston,1928.0,,,https://www.redfin.com/IL/Evanston/2635-Lawndale-Ave-60201/home/13774230,42.0658017,-87.7203981,"$900,000",1928,$nan,blue,155,2635 Lawndale Ave Evanston
286,April-4-2023,404 Inverdale Dr,Inverness,899000.0,4.0,3.5,Inverness,1970.0,,295.0,https://www.redfin.com/IL/Inverness/404-Inverdale-Dr-60010/home/13885779,42.1206597,-88.1014094,"$899,000",1970,$295,blue,156,404 Inverdale Dr Inverness
557,April-13-2023,828 N Kensington Ave,La Grange Park,895000.0,4.0,2.5,La Grange Park,1924.0,,337.0,https://www.redfin.com/IL/La-Grange-Pk/828-N-Kensington-Ave-60526/home/13298406,41.8298661,-87.8758107,"$895,000",1924,$337,blue,157,828 N Kensington Ave La Grange Park
344,April-14-2023,330 Auburn Ave,Winnetka,895000.0,4.0,2.5,Winnetka,1961.0,,,https://www.redfin.com/IL/Winnetka/330-Auburn-Ave-60093/home/13787276,42.1003657,-87.7506912,"$895,000",1961,$nan,blue,158,330 Auburn Ave Winnetka
1370,April-11-2023,1603 N Haddow Ave,Arlington Heights,890000.0,5.0,2.5,Arlington Heights,1966.0,,318.0,https://www.redfin.com/IL/Arlington-Heights/1603-N-Haddow-Ave-60004/home/13845026,42.1051838,-87.9764745,"$890,000",1966,$318,blue,159,1603 N Haddow Ave Arlington Heights
9,April-3-2023,1308 N Bell Ave,Chicago,885000.0,4.0,3.0,CHI - West Town,1888.0,,402.0,https://www.redfin.com/IL/Chicago/1308-N-Bell-Ave-60622/home/14107818,41.9052998,-87.6837112,"$885,000",1888,$402,blue,160,1308 N Bell Ave Chicago
1133,April-10-2023,3639 N Ravenswood Ave,Chicago,882500.0,4.0,3.5,CHI - Lake View,1898.0,,346.0,https://www.redfin.com/IL/Chicago/3639-N-Ravenswood-Ave-60613/home/13388073,41.9480789,-87.6733793,"$882,500",1898,$346,blue,161,3639 N Ravenswood Ave Chicago
145,April-28-2023,1328 W Byron St,Chicago,880000.0,4.0,3.0,CHI - Lake View,1890.0,,,https://www.redfin.com/IL/Chicago/1328-W-Byron-St-60613/home/179482389,41.9527807,-87.6629742,"$880,000",1890,$nan,blue,162,1328 W Byron St Chicago
1210,April-14-2023,3843 N Hermitage Ave,Chicago,875000.0,4.0,3.0,CHI - Lake View,1898.0,,503.0,https://www.redfin.com/IL/Chicago/3843-N-Hermitage-Ave-60613/home/13387855,41.9519027,-87.6723342,"$875,000",1898,$503,blue,163,3843 N Hermitage Ave Chicago
107,April-6-2023,5148 W Winona St,Chicago,875000.0,5.0,3.5,CHI - Jefferson Park,2022.0,,265.0,https://www.redfin.com/IL/Chicago/5148-W-Winona-St-60630/home/13497177,41.9746843,-87.7572169,"$875,000",2022,$265,blue,164,5148 W Winona St Chicago
1626,April-28-2023,904 Colfax St,Evanston,875000.0,4.0,1.5,Evanston,1909.0,,381.0,https://www.redfin.com/IL/Evanston/904-Colfax-St-60201/home/13582045,42.0603274,-87.6833902,"$875,000",1909,$381,blue,165,904 Colfax St Evanston
2063,April-3-2023,3800 W Eddy St,Chicago,869000.0,6.0,3.5,CHI - Avondale,1913.0,,244.0,https://www.redfin.com/IL/Chicago/3800-W-Eddy-St-60618/unit-HSE/home/13455064,41.9457211,-87.7226456,"$869,000",1913,$244,blue,166,3800 W Eddy St Chicago
1025,April-27-2023,1009 S Prospect Ave,Park Ridge,869000.0,4.0,3.0,Park Ridge,1928.0,,247.0,https://www.redfin.com/IL/Park-Ridge/1009-S-Prospect-Ave-60068/home/13638909,41.9986812,-87.8324298,"$869,000",1928,$247,blue,167,1009 S Prospect Ave Park Ridge
2172,April-26-2023,132 Julie Ln,Glenview,865000.0,4.0,4.0,Glenview / Golf,1951.0,,234.0,https://www.redfin.com/IL/Glenview/132-Julie-Dr-60025/home/13677507,42.0580305,-87.8200297,"$865,000",1951,$234,blue,168,132 Julie Ln Glenview
384,April-17-2023,5034 W Carmen Ave,Chicago,864200.0,5.0,3.5,CHI - Forest Glen,2016.0,,263.0,https://www.redfin.com/IL/Chicago/5034-W-Carmen-Ave-60630/home/13497367,41.973663,-87.7542112,"$864,200",2016,$263,blue,169,5034 W Carmen Ave Chicago
165,April-28-2023,2115 W Cornelia Ave,Chicago,860000.0,4.0,2.5,CHI - North Center,1888.0,,,https://www.redfin.com/IL/Chicago/2115-W-Cornelia-Ave-60618/home/13385934,41.944891,-87.6816334,"$860,000",1888,$nan,blue,170,2115 W Cornelia Ave Chicago
118,April-14-2023,528 N Broadway Ave,Park Ridge,860000.0,4.0,3.5,Park Ridge,1957.0,,349.0,https://www.redfin.com/IL/Park-Ridge/528-N-Broadway-Ave-60068/unit-528/home/13645753,42.0170686,-87.8519419,"$860,000",1957,$349,blue,171,528 N Broadway Ave Park Ridge
570,April-17-2023,1517 Maple Ave,Wilmette,855000.0,4.0,4.5,Wilmette,1909.0,,,https://www.redfin.com/IL/Wilmette/1517-Maple-Ave-60091/home/13774688,42.0712805,-87.715364,"$855,000",1909,$nan,blue,172,1517 Maple Ave Wilmette
957,April-25-2023,3054 N Paulina St,Chicago,855000.0,3.0,2.5,CHI - Lake View,1997.0,,356.0,https://www.redfin.com/IL/Chicago/3054-N-Paulina-St-60657/home/22959738,41.9376038,-87.6712422,"$855,000",1997,$356,blue,173,3054 N Paulina St Chicago
1454,April-13-2023,505 Haddington Cir,Inverness,850000.0,4.0,2.5,Estates at Inverness Ridge,2002.0,,238.0,https://www.redfin.com/IL/Inverness/505-Haddington-Cir-60010/home/184297330,42.1074023,-88.1374484,"$850,000",2002,$238,blue,174,505 Haddington Cir Inverness
1465,April-3-2023,8845 S Pleasant Ave,Chicago,850000.0,5.0,4.5,CHI - Beverly,1926.0,,167.0,https://www.redfin.com/IL/Chicago/8845-S-Pleasant-Ave-60643/home/13100926,41.7325922,-87.6748202,"$850,000",1926,$167,blue,175,8845 S Pleasant Ave Chicago
1769,April-14-2023,107 Singletree Rd,Orland Park,850000.0,5.0,4.5,Silo Ridge,1997.0,,141.0,https://www.redfin.com/IL/Orland-Park/107-Singletree-Rd-60467/home/13025461,41.618873,-87.900802,"$850,000",1997,$141,blue,176,107 Singletree Rd Orland Park
355,April-17-2023,110 Lawton Rd,Riverside,850000.0,6.0,4.0,Riverside,1922.0,,274.0,https://www.redfin.com/IL/Riverside/110-Lawton-Rd-60546/home/13290243,41.8272518,-87.8146723,"$850,000",1922,$274,blue,177,110 Lawton Rd Riverside
476,April-14-2023,1701 Washington Ave,Wilmette,850000.0,4.0,2.0,Mckenzie,1936.0,,337.0,https://www.redfin.com/IL/Wilmette/1701-Washington-Ave-60091/home/13775946,42.0757535,-87.7190866,"$850,000",1936,$337,blue,178,1701 Washington Ave Wilmette
1525,April-28-2023,937 Lakewood Dr,Barrington,850000.0,5.0,3.5,Lakeview,1993.0,,198.0,https://www.redfin.com/IL/Barrington/937-Lakewood-Dr-60010/home/13896467,42.1482491,-88.1175838,"$850,000",1993,$198,blue,179,937 Lakewood Dr Barrington
1255,April-4-2023,1205 Lee St,Evanston,850000.0,3.0,2.0,Evanston,1927.0,,433.0,https://www.redfin.com/IL/Evanston/1205-Lee-St-60202/home/13579069,42.0361049,-87.6889562,"$850,000",1927,$433,blue,180,1205 Lee St Evanston
2073,April-26-2023,1469 Columbia Ln,Barrington,845000.0,6.0,4.5,Oaks of Barrington,1999.0,,204.0,https://www.redfin.com/IL/Barrington/1469-Columbia-Ln-60010/home/12799368,42.129376,-88.1387846,"$845,000",1999,$204,blue,181,1469 Columbia Ln Barrington
332,April-10-2023,80 Bassford Ave,La Grange,841000.0,4.0,3.0,La Grange,1943.0,,,https://www.redfin.com/IL/La-Grange/80-Bassford-Ave-60525/home/14062697,41.8167621,-87.8860204,"$841,000",1943,$nan,blue,182,80 Bassford Ave La Grange
788,April-19-2023,7040 Foster St,Morton Grove,840000.0,6.0,4.5,Morton Grove,2004.0,,234.0,https://www.redfin.com/IL/Morton-Grove/7040-Foster-St-60053/home/13619437,42.0537048,-87.8028827,"$840,000",2004,$234,blue,183,7040 Foster St Morton Grove
2180,April-24-2023,558 Hunter Rd,Wilmette,837250.0,4.0,2.5,Wilmette,1974.0,,251.0,https://www.redfin.com/IL/Wilmette/558-Hunter-Rd-60091/home/13776480,42.0741415,-87.7319791,"$837,250",1974,$251,blue,184,558 Hunter Rd Wilmette
1477,April-20-2023,2405 Hampton Ln,Northbrook,831000.0,4.0,4.5,Northbrook,1978.0,,248.0,https://www.redfin.com/IL/Northbrook/2405-Hampton-Ln-60062/home/13807634,42.1092286,-87.8529037,"$831,000",1978,$248,blue,185,2405 Hampton Ln Northbrook
194,April-18-2023,3558 S Parnell Ave,Chicago,830000.0,5.0,3.5,CHI - Bridgeport,2023.0,,237.0,https://www.redfin.com/IL/Chicago/3558-S-Parnell-Ave-60609/home/14072382,41.8291093,-87.6402108,"$830,000",2023,$237,blue,186,3558 S Parnell Ave Chicago
65,April-25-2023,432 N Lombard Ave,Oak Park,826000.0,5.0,4.0,Oak Park,2017.0,,323.0,https://www.redfin.com/IL/Oak-Park/432-N-Lombard-Ave-60302/home/13268122,41.8943633,-87.7796467,"$826,000",2017,$323,blue,187,432 N Lombard Ave Oak Park
592,April-7-2023,369 Geri Ln,Des Plaines,825000.0,6.0,4.0,Ottawa Courte,2006.0,,,https://www.redfin.com/IL/Des-Plaines/369-Geri-Ln-60016/home/18951424,42.0475045,-87.8688426,"$825,000",2006,$nan,blue,188,369 Geri Ln Des Plaines
500,April-14-2023,125 Harvard Ave,Barrington,825000.0,5.0,3.0,Barrington Area,2013.0,,238.0,https://www.redfin.com/IL/Barrington/125-Harvard-Ave-60010/home/13903754,42.1389639,-88.1350485,"$825,000",2013,$238,blue,189,125 Harvard Ave Barrington
307,April-27-2023,1469 Scott Ave,Winnetka,825000.0,4.0,3.5,Winnetka,1927.0,,337.0,https://www.redfin.com/IL/Winnetka/1469-Scott-Ave-60093/home/13788179,42.1195432,-87.7588251,"$825,000",1927,$337,blue,190,1469 Scott Ave Winnetka
1490,April-28-2023,707 S Glendale Ln,Mount Prospect,820000.0,4.0,3.0,Green Acres,1959.0,,264.0,https://www.redfin.com/IL/Mount-Prospect/707-S-Glendale-Ln-60056/home/13700783,42.0522711,-87.9558794,"$820,000",1959,$264,blue,191,707 S Glendale Ln Mount Prospect
999,April-26-2023,1144 Huber Ln,Glenview,820000.0,5.0,3.0,Glenview / Golf,1958.0,,314.0,https://www.redfin.com/IL/Glenview/1144-Huber-Ln-60025/home/13796053,42.0763269,-87.834445,"$820,000",1958,$314,blue,192,1144 Huber Ln Glenview
683,April-21-2023,2441 Pick Dr,Glenview,820000.0,3.0,3.5,Glenview / Golf,1959.0,,312.0,https://www.redfin.com/IL/Glenview/2441-Pick-Dr-60025/home/13678651,42.0643649,-87.8188586,"$820,000",1959,$312,blue,193,2441 Pick Dr Glenview
44,April-21-2023,7224 N Hamilton Ave,Chicago,819000.0,6.0,3.5,CHI - West Ridge,2001.0,,184.0,https://www.redfin.com/IL/Chicago/7224-N-Hamilton-Ave-60645/home/13572907,42.0129975,-87.685419,"$819,000",2001,$184,blue,194,7224 N Hamilton Ave Chicago
1386,April-20-2023,1212 S Cook St,Barrington,817000.0,4.0,4.5,Barrington Village,2004.0,,154.0,https://www.redfin.com/IL/Barrington/1212-S-Cook-St-60010/home/13904570,42.1364916,-88.134896,"$817,000",2004,$154,blue,195,1212 S Cook St Barrington
2261,April-27-2023,4141 Hampton Ct,Glenview,815302.0,4.0,2.5,Hampton Court Estates,2022.0,,351.0,https://www.redfin.com/IL/Glenview/4141-Hampton-Ct-60026/home/147783068,42.095016,-87.858536,"$815,302",2022,$351,blue,196,4141 Hampton Ct Glenview
538,April-28-2023,1065 Vine St,Winnetka,815000.0,3.0,2.0,Winnetka,1961.0,,340.0,https://www.redfin.com/IL/Winnetka/1065-Vine-St-60093/home/13790196,42.1143059,-87.7439419,"$815,000",1961,$340,blue,197,1065 Vine St Winnetka
484,April-28-2023,15736 Glenlake Dr,Orland Park,810000.0,5.0,4.5,Somerglen South,1998.0,,180.0,https://www.redfin.com/IL/Orland-Park/15736-Glenlake-Dr-60467/home/12730427,41.6032086,-87.8856961,"$810,000",1998,$180,blue,198,15736 Glenlake Dr Orland Park
1000,April-17-2023,8 Spruce Ct,Lemont,810000.0,5.0,4.5,Timberline,1998.0,,,https://www.redfin.com/IL/Lemont/8-Spruce-Ct-60439/home/13208829,41.6657858,-88.009668,"$810,000",1998,$nan,blue,199,8 Spruce Ct Lemont
139,April-17-2023,9026 Kedvale Ave,Skokie,800000.0,4.0,2.5,Devonshire Woods,1943.0,,350.0,https://www.redfin.com/IL/Skokie/9026-Kedvale-Ave-60076/home/13623044,42.0452232,-87.7316319,"$800,000",1943,$350,blue,200,9026 Kedvale Ave Skokie
1293,April-14-2023,4035 N Hamlin Ave,Chicago,800000.0,5.0,3.5,Old Irving,,,,https://www.redfin.com/IL/Chicago/4035-N-Hamlin-Ave-60618/home/22850394,41.954853,-87.7224636,"$800,000",nan,$nan,blue,201,4035 N Hamlin Ave Chicago
1296,April-20-2023,916 Hayes Ave,Oak Park,800000.0,5.0,4.0,Oak Park,2018.0,,213.0,https://www.redfin.com/IL/Oak-Park/916-Hayes-Ave-60302/home/12565449,41.9026024,-87.7787449,"$800,000",2018,$213,blue,202,916 Hayes Ave Oak Park
333,April-20-2023,1330 Lathrop Ave,River Forest,800000.0,3.0,2.5,River Forest,,,318.0,https://www.redfin.com/IL/River-Forest/1330-Lathrop-Ave-60305/home/13342726,41.9043922,-87.8158059,"$800,000",nan,$318,blue,203,1330 Lathrop Ave River Forest
49,April-4-2023,1204 N Grove Ave,Oak Park,800000.0,5.0,3.5,Oak Park,1928.0,,232.0,https://www.redfin.com/IL/Oak-Park/1204-N-Grove-Ave-60302/home/13274526,41.9074667,-87.7961411,"$800,000",1928,$232,blue,204,1204 N Grove Ave Oak Park
177,April-19-2023,529 S Benton St,Palatine,799900.0,5.0,4.5,Palatine,2006.0,,230.0,https://www.redfin.com/IL/Palatine/529-S-Benton-St-60067/home/13879218,42.1009739,-88.0406453,"$799,900",2006,$230,blue,205,529 S Benton St Palatine
1502,April-14-2023,7007 N Monon Ave,Chicago,795000.0,4.0,2.5,CHI - Forest Glen,1950.0,,295.0,https://www.redfin.com/IL/Chicago/7007-N-Monon-Ave-60646/home/13592702,42.0090465,-87.7775439,"$795,000",1950,$295,blue,206,7007 N Monon Ave Chicago
1182,April-7-2023,100 Elm St,Prospect Heights,795000.0,6.0,4.0,Prospect Heights,2006.0,,190.0,https://www.redfin.com/IL/Prospect-Heights/100-Elm-St-60070/home/13842275,42.0972245,-87.9419435,"$795,000",2006,$190,blue,207,100 Elm St Prospect Heights
894,April-27-2023,15511 Fawn Creek Ln,Orland Park,794500.0,5.0,5.5,Fawn Creek,1995.0,,132.0,https://www.redfin.com/IL/Orland-Park/15511-Fawn-Creek-Ln-60467/home/13013648,41.6073674,-87.8872297,"$794,500",1995,$132,blue,208,15511 Fawn Creek Ln Orland Park
63,April-3-2023,3059 N Central Park Ave,Chicago,790000.0,4.0,3.5,CHI - Avondale,1891.0,,258.0,https://www.redfin.com/IL/Chicago/3059-N-Central-Park-Ave-60618/home/13448746,41.936998,-87.7171269,"$790,000",1891,$258,blue,209,3059 N Central Park Ave Chicago
1825,April-7-2023,144 N Park Rd,La Grange,790000.0,4.0,2.5,La Grange,1924.0,,287.0,https://www.redfin.com/IL/La-Grange/144-N-Park-Rd-60525/home/14062768,41.8182319,-87.8812595,"$790,000",1924,$287,blue,210,144 N Park Rd La Grange
1562,April-28-2023,4708 N Campbell Ave,Chicago,790000.0,4.0,3.0,CHI - Lincoln Square,1914.0,,756.0,https://www.redfin.com/IL/Chicago/4708-N-Campbell-Ave-60625/home/13488669,41.9670913,-87.6915726,"$790,000",1914,$756,blue,211,4708 N Campbell Ave Chicago
990,April-25-2023,708 Willow Tree Ln,Glencoe,787500.0,3.0,3.0,Strawberry Hill,1960.0,,329.0,https://www.redfin.com/IL/Glencoe/708-Willow-Tree-Ln-60022/home/13812016,42.1361519,-87.776756,"$787,500",1960,$329,blue,212,708 Willow Tree Ln Glencoe
160,April-11-2023,6465 Cherokee Dr,Indian Head Park,785000.0,4.0,3.5,Indian Head Park,1976.0,,303.0,https://www.redfin.com/IL/Indian-Head-Park/6465-Cherokee-Dr-60525/home/14051488,41.7719365,-87.899737,"$785,000",1976,$303,blue,213,6465 Cherokee Dr Indian Head Park
1768,April-21-2023,1505 Devon Ave,Park Ridge,785000.0,5.0,3.5,Park Ridge,1998.0,,174.0,https://www.redfin.com/IL/Park-Ridge/1505-Devon-Ave-60068/home/13563505,41.9959024,-87.8461888,"$785,000",1998,$174,blue,214,1505 Devon Ave Park Ridge
74,April-27-2023,4226 Ellington Ave,Western Springs,785000.0,3.0,2.5,Field Park,1927.0,,410.0,https://www.redfin.com/IL/Western-Springs/4226-Ellington-Ave-60558/home/14062910,41.8126277,-87.8943601,"$785,000",1927,$410,blue,215,4226 Ellington Ave Western Springs
623,April-18-2023,12625 Thornberry Dr,Lemont,780000.0,4.0,2.5,Briarcliffe Estates,2016.0,,211.0,https://www.redfin.com/IL/Lemont/12625-Thornberry-Dr-60439/home/22679572,41.6582953,-88.0268697,"$780,000",2016,$211,blue,216,12625 Thornberry Dr Lemont
316,April-3-2023,1200 Elmwood Ave,Evanston,777000.0,4.0,4.0,Evanston,1899.0,,309.0,https://www.redfin.com/IL/Evanston/1200-Elmwood-Ave-60202/home/13578866,42.039566,-87.6839422,"$777,000",1899,$309,blue,217,1200 Elmwood Ave Evanston
539,April-28-2023,548 Exmoor Rd,Kenilworth,776000.0,3.0,2.0,Kenilworth,1954.0,,486.0,https://www.redfin.com/IL/Kenilworth/548-Exmoor-Rd-60043/home/13783552,42.0889708,-87.7220525,"$776,000",1954,$486,blue,218,548 Exmoor Rd Kenilworth
164,April-28-2023,820 Bermuda Dunes Pl,Northbrook,775000.0,4.0,3.5,Northbrook,1982.0,,177.0,https://www.redfin.com/IL/Northbrook/820-Bermuda-Dunes-Pl-60062/home/13816517,42.137266,-87.8682865,"$775,000",1982,$177,blue,219,820 Bermuda Dunes Pl Northbrook
802,April-6-2023,1040 Terrace Ln,Glenview,775000.0,4.0,3.0,Glenview / Golf,1965.0,,,https://www.redfin.com/IL/Glenview/1040-Terrace-Ln-60025/home/13795988,42.0745465,-87.8270939,"$775,000",1965,$nan,blue,220,1040 Terrace Ln Glenview
2054,April-5-2023,814 Jackson Ave,River Forest,775000.0,3.0,3.0,River Forest,1919.0,,,https://www.redfin.com/IL/River-Forest/814-Jackson-Ave-60305/home/13342116,41.8946824,-87.8137131,"$775,000",1919,$nan,blue,221,814 Jackson Ave River Forest
390,April-24-2023,9332 Sayre Ave,Morton Grove,775000.0,3.0,3.0,Morton Grove,2016.0,,208.0,https://www.redfin.com/IL/Morton-Grove/9332-Sayre-Ave-60053/home/13618417,42.051175,-87.8009429,"$775,000",2016,$208,blue,222,9332 Sayre Ave Morton Grove
1024,April-4-2023,2915 Lincoln St,Evanston,772000.0,4.0,2.0,Evanston,1921.0,,410.0,https://www.redfin.com/IL/Evanston/2915-Lincoln-St-60201/home/13633544,42.0623368,-87.7152797,"$772,000",1921,$410,blue,223,2915 Lincoln St Evanston
1663,April-25-2023,949 N East Ave,Oak Park,770000.0,5.0,3.0,Oak Park,1923.0,,214.0,https://www.redfin.com/IL/Oak-Park/949-N-East-Ave-60302/home/13272687,41.9035303,-87.7903594,"$770,000",1923,$214,blue,224,949 N East Ave Oak Park
411,April-21-2023,2948 Central St,Evanston,769000.0,3.0,3.5,Evanston,1944.0,,192.0,https://www.redfin.com/IL/Evanston/2948-Central-St-60201/home/40183975,42.0641061,-87.7168191,"$769,000",1944,$192,blue,225,2948 Central St Evanston
1061,April-28-2023,3880 Gregory Dr,Northbrook,765000.0,4.0,2.5,Timber Trails,1960.0,,,https://www.redfin.com/IL/Northbrook/3880-Gregory-Dr-60062/home/13798564,42.0883209,-87.8759376,"$765,000",1960,$nan,blue,226,3880 Gregory Dr Northbrook
1149,April-10-2023,546 N Oak Park Ave,Oak Park,760000.0,5.0,3.0,Oak Park,1914.0,,208.0,https://www.redfin.com/IL/Oak-Park/546-N-Oak-Park-Ave-60302/home/13273662,41.8960767,-87.7943356,"$760,000",1914,$208,blue,227,546 N Oak Park Ave Oak Park
695,April-18-2023,33 S Stone Ave,La Grange,760000.0,5.0,3.5,La Grange,1878.0,,239.0,https://www.redfin.com/IL/La-Grange/33-S-Stone-Ave-60525/home/14066060,41.8126576,-87.8779236,"$760,000",1878,$239,blue,228,33 S Stone Ave La Grange
768,April-19-2023,6915 N Caldwell Ave,Chicago,759000.0,4.0,2.5,CHI - Forest Glen,1950.0,,333.0,https://www.redfin.com/IL/Chicago/6915-N-Caldwell-Ave-60646/home/13593044,42.0061422,-87.7832322,"$759,000",1950,$333,blue,229,6915 N Caldwell Ave Chicago
46,April-28-2023,1716 W Henderson St,Chicago,750000.0,4.0,2.0,CHI - Lake View,,,,https://www.redfin.com/IL/Chicago/1716-W-Henderson-St-60657/home/13385271,41.9426484,-87.671901,"$750,000",nan,$nan,blue,230,1716 W Henderson St Chicago
1928,April-20-2023,7820 S County Line Rd,Burr Ridge,750000.0,5.0,3.0,Burr Ridge,2016.0,,254.0,https://www.redfin.com/IL/Burr-Ridge/7820-S-County-Line-Rd-60527/home/18007179,41.7460497,-87.9158976,"$750,000",2016,$254,blue,231,7820 S County Line Rd Burr Ridge
404,April-25-2023,619 N Dryden Ave,Arlington Heights,750000.0,4.0,2.0,Carriage Walk,1986.0,,274.0,https://www.redfin.com/IL/Arlington-Heights/619-N-Dryden-Ave-60004/home/13831811,42.0891549,-87.9703468,"$750,000",1986,$274,blue,232,619 N Dryden Ave Arlington Heights
80,April-14-2023,1616 Blackthorn Dr,Glenview,750000.0,4.0,2.5,Glenview / Golf,1968.0,,281.0,https://www.redfin.com/IL/Glenview/1616-Blackthorn-Dr-60025/home/13800116,42.0862707,-87.8057442,"$750,000",1968,$281,blue,233,1616 Blackthorn Dr Glenview
147,April-17-2023,4850 N Keystone Ave,Chicago,750000.0,4.0,3.5,CHI - Albany Park,2020.0,,,https://www.redfin.com/IL/Chicago/4850-N-Keystone-Ave-60630/home/13494579,41.9697629,-87.7295872,"$750,000",2020,$nan,blue,234,4850 N Keystone Ave Chicago
1557,April-3-2023,1925 W Farragut Ave,Chicago,749000.0,3.0,2.0,CHI - Lincoln Square,1906.0,,340.0,https://www.redfin.com/IL/Chicago/1925-W-Farragut-Ave-60640/home/13403741,41.9768405,-87.6774958,"$749,000",1906,$340,blue,235,1925 W Farragut Ave Chicago
1309,April-14-2023,1134 Rossell Ave,Oak Park,745000.0,3.0,2.5,Oak Park,1928.0,,318.0,https://www.redfin.com/IL/Oak-Park/1134-Rossell-Ave-60302/home/13274426,41.9070444,-87.7856575,"$745,000",1928,$318,blue,236,1134 Rossell Ave Oak Park
568,April-21-2023,605 Lyman Ave,Oak Park,745000.0,4.0,3.0,Oak Park,1908.0,,298.0,https://www.redfin.com/IL/Oak-Park/605-Lyman-Ave-60304/home/13253326,41.8779287,-87.777339,"$745,000",1908,$298,blue,237,605 Lyman Ave Oak Park
99,April-20-2023,324 S Knight Ave,Park Ridge,741000.0,4.0,2.5,Park Ridge,1924.0,,328.0,https://www.redfin.com/IL/Park-Ridge/324-S-Knight-Ave-60068/home/13639658,42.0063038,-87.8446661,"$741,000",1924,$328,blue,238,324 S Knight Ave Park Ridge
1919,April-14-2023,2205 W Leland Ave,Chicago,740000.0,4.0,2.5,CHI - Lincoln Square,,,296.0,https://www.redfin.com/IL/Chicago/2205-W-Leland-Ave-60625/home/13392609,41.9666005,-87.6842696,"$740,000",nan,$296,blue,239,2205 W Leland Ave Chicago
60,April-10-2023,621 S Evergreen Ave,Arlington Heights,740000.0,5.0,3.5,Arlington Heights,1952.0,,223.0,https://www.redfin.com/IL/Arlington-Heights/621-S-Evergreen-Ave-60005/home/13826151,42.0729348,-87.9815209,"$740,000",1952,$223,blue,240,621 S Evergreen Ave Arlington Heights
2217,April-20-2023,307 Hatlen Ave,Mount Prospect,730000.0,6.0,4.5,Mount Prospect,1961.0,,215.0,https://www.redfin.com/IL/Mount-Prospect/307-Hatlen-Ave-60056/home/13703083,42.0604017,-87.9620883,"$730,000",1961,$215,blue,241,307 Hatlen Ave Mount Prospect
2018,April-17-2023,430 Westwood Dr,Barrington,730000.0,4.0,2.5,Westwood,1976.0,,304.0,https://www.redfin.com/IL/Barrington/430-Westwood-Dr-60010/home/13905761,42.1472212,-88.1445787,"$730,000",1976,$304,blue,242,430 Westwood Dr Barrington
493,April-7-2023,6939 N Knox Ave,Lincolnwood,728000.0,5.0,2.5,Lincolnwood,1950.0,,202.0,https://www.redfin.com/IL/Lincolnwood/6939-N-Knox-Ave-60712/home/13590051,42.0074834,-87.7447432,"$728,000",1950,$202,blue,243,6939 N Knox Ave Lincolnwood
56,April-17-2023,4155 Suffield Ct,Skokie,725000.0,4.0,3.0,Skokie,1957.0,,238.0,https://www.redfin.com/IL/Skokie/4155-Suffield-Ct-60076/home/13622940,42.0432941,-87.7322285,"$725,000",1957,$238,blue,244,4155 Suffield Ct Skokie
75,April-3-2023,1709 Courtland Ave,Park Ridge,725000.0,5.0,3.5,Park Ridge,1963.0,,452.0,https://www.redfin.com/IL/Park-Ridge/1709-Courtland-Ave-60068/home/13562734,41.9893352,-87.8312782,"$725,000",1963,$452,blue,245,1709 Courtland Ave Park Ridge
602,April-7-2023,6225 S Ellis Ave,Chicago,725000.0,4.0,3.5,CHI - Woodlawn,2022.0,,,https://www.redfin.com/IL/Chicago/6225-S-Ellis-Ave-60637/home/181752272,41.7808022,-87.6010773,"$725,000",2022,$nan,blue,246,6225 S Ellis Ave Chicago
270,April-24-2023,4204 Ellington Ave,Western Springs,725000.0,3.0,2.5,Field Park,1926.0,,289.0,https://www.redfin.com/IL/Western-Springs/4204-Ellington-Ave-60558/home/14062240,41.8133448,-87.8943026,"$725,000",1926,$289,blue,247,4204 Ellington Ave Western Springs
167,April-14-2023,2048 Wagner Rd,Glenview,725000.0,4.0,3.0,Glen Oak Acres,1956.0,,,https://www.redfin.com/IL/Glenview/2048-Wagner-Rd-60025/home/13801579,42.0924597,-87.7810603,"$725,000",1956,$nan,blue,248,2048 Wagner Rd Glenview
174,April-14-2023,529 S Madison Ave,La Grange,725000.0,4.0,2.5,La Grange,1949.0,,338.0,https://www.redfin.com/IL/La-Grange/529-S-Madison-Ave-60525/home/14056303,41.8039256,-87.870435,"$725,000",1949,$338,blue,249,529 S Madison Ave La Grange
88,April-27-2023,403 Grand Blvd,Park Ridge,725000.0,4.0,2.0,Park Ridge,,,250.0,https://www.redfin.com/IL/Park-Ridge/403-Grand-Blvd-60068/home/13650160,42.015901,-87.8307408,"$725,000",nan,$250,blue,250,403 Grand Blvd Park Ridge
744,April-20-2023,808 Kennicott Pl,Mount Prospect,725000.0,5.0,3.5,Mount Prospect,1990.0,,218.0,https://www.redfin.com/IL/Mount-Prospect/808-Kennicott-Pl-60056/home/13693613,42.050367,-87.9662137,"$725,000",1990,$218,blue,251,808 Kennicott Pl Mount Prospect
727,April-10-2023,4206 N Moody Ave,Chicago,720000.0,5.0,4.0,CHI - Portage Park,1930.0,,185.0,https://www.redfin.com/IL/Chicago/4206-N-Moody-Ave-60634/home/13473865,41.9569533,-87.7808582,"$720,000",1930,$185,blue,252,4206 N Moody Ave Chicago
1993,April-14-2023,1228.5-1230 Sherman Ave,Evanston,720000.0,3.0,2.0,Evanston,1882.0,,380.0,https://www.redfin.com/IL/Evanston/1230-Sherman-Ave-60202/home/13579273,42.0405385,-87.6823247,"$720,000",1882,$380,blue,253,1228.5-1230 Sherman Ave Evanston
55,April-3-2023,636 Coronet Rd,Glenview,720000.0,3.0,2.0,Glenview / Golf,1956.0,,,https://www.redfin.com/IL/Glenview/636-Coronet-Rd-60025/home/13792416,42.0666446,-87.7804454,"$720,000",1956,$nan,blue,254,636 Coronet Rd Glenview
611,April-26-2023,441 S Belmont Ave,Arlington Heights,720000.0,3.0,2.5,Arlington Heights,1961.0,,326.0,https://www.redfin.com/IL/Arlington-Heights/441-S-Belmont-Ave-60005/home/13826066,42.0758507,-87.9778356,"$720,000",1961,$326,blue,255,441 S Belmont Ave Arlington Heights
130,April-13-2023,6311 N Navajo Ave,Chicago,720000.0,3.0,3.5,Edgebrook,1937.0,,,https://www.redfin.com/IL/Chicago/6311-N-Navajo-Ave-60646/unit-HSE/home/13512783,41.9961133,-87.7585959,"$720,000",1937,$nan,blue,256,6311 N Navajo Ave Chicago
347,April-7-2023,2717 N Western Ave,Chicago,720000.0,4.0,3.5,CHI - Logan Square,1903.0,,,https://www.redfin.com/IL/Chicago/2717-N-Western-Ave-60647/home/13359360,41.9309071,-87.6875234,"$720,000",1903,$nan,blue,257,2717 N Western Ave Chicago
1574,April-28-2023,3609 W Hirsch St,Chicago,719900.0,4.0,3.5,CHI - Humboldt Park,2023.0,,274.0,https://www.redfin.com/IL/Chicago/3609-W-Hirsch-St-60651/home/40384282,41.9061209,-87.7171296,"$719,900",2023,$274,blue,258,3609 W Hirsch St Chicago
399,April-7-2023,633 East Ave,Park Ridge,715000.0,4.0,3.5,Country Club,1948.0,,187.0,https://www.redfin.com/IL/Park-Ridge/633-East-Ave-60068/home/13653109,42.0198819,-87.8210114,"$715,000",1948,$187,blue,259,633 East Ave Park Ridge
726,April-21-2023,1564 Florence Ave,Evanston,715000.0,4.0,2.0,Evanston,1910.0,,,https://www.redfin.com/IL/Evanston/1564-Florence-Ave-60201/home/13627876,42.0462885,-87.6953499,"$715,000",1910,$nan,blue,260,1564 Florence Ave Evanston
1654,April-6-2023,2877 Shannon Rd,Northbrook,712000.0,4.0,2.5,Northbrook,1964.0,,294.0,https://www.redfin.com/IL/Northbrook/2877-Shannon-Rd-60062/home/13816420,42.1313389,-87.8506369,"$712,000",1964,$294,blue,261,2877 Shannon Rd Northbrook
1570,April-28-2023,2210 Walnut St,Park Ridge,710000.0,4.0,2.5,Park Ridge,1960.0,,299.0,https://www.redfin.com/IL/Park-Ridge/2210-Walnut-St-60068/home/13657955,42.0298065,-87.854239,"$710,000",1960,$299,blue,262,2210 Walnut St Park Ridge
763,April-27-2023,2220 Eastview Dr,Des Plaines,710000.0,4.0,2.5,Des Plaines,1997.0,,200.0,https://www.redfin.com/IL/Des-Plaines/2220-Eastview-Dr-60018/home/13644042,42.0124531,-87.9003395,"$710,000",1997,$200,blue,263,2220 Eastview Dr Des Plaines
1,April-20-2023,2453 Rebecca Ln,Glenview,708000.0,4.0,2.5,Glenview / Golf,1968.0,,251.0,https://www.redfin.com/IL/Glenview/2453-Rebecca-Ln-60026/home/13804223,42.100458,-87.8402021,"$708,000",1968,$251,blue,264,2453 Rebecca Ln Glenview
1203,April-12-2023,6556 N Kilpatrick Ave,Lincolnwood,705000.0,3.0,2.5,Lincolnwood Terraces,1951.0,,323.0,https://www.redfin.com/IL/Lincolnwood/6556-N-Kilpatrick-Ave-60712/home/13589047,42.0007032,-87.7461756,"$705,000",1951,$323,blue,265,6556 N Kilpatrick Ave Lincolnwood
1372,April-17-2023,411 N Elmwood Ave,Oak Park,702000.0,5.0,2.5,Oak Park,1906.0,,234.0,https://www.redfin.com/IL/Oak-Park/411-N-Elmwood-Ave-60302/home/13271917,41.8934943,-87.7868757,"$702,000",1906,$234,blue,266,411 N Elmwood Ave Oak Park
1206,April-28-2023,1007 Bette Ln,Glenview,701000.0,4.0,2.5,Glenview / Golf,1984.0,,234.0,https://www.redfin.com/IL/Glenview/1007-Bette-Ln-60025/home/13798496,42.0738957,-87.854189,"$701,000",1984,$234,blue,267,1007 Bette Ln Glenview
1441,April-28-2023,2531 W Lexington St,Chicago,700000.0,4.0,3.5,CHI - Near West Side,2022.0,,,https://www.redfin.com/IL/Chicago/2531-W-Lexington-St-60612/home/179373507,41.8717743,-87.6902088,"$700,000",2022,$nan,blue,268,2531 W Lexington St Chicago
76,April-7-2023,415 S Euclid Ave,Oak Park,700000.0,6.0,2.5,Oak Park,1904.0,,226.0,https://www.redfin.com/IL/Oak-Park/415-S-Euclid-Ave-60302/home/13268931,41.8809298,-87.7929917,"$700,000",1904,$226,blue,269,415 S Euclid Ave Oak Park
1573,April-21-2023,3329 N Pacific Ave,Chicago,699900.0,4.0,3.5,CHI - Dunning,2009.0,,233.0,https://www.redfin.com/IL/Chicago/3329-N-Pacific-Ave-60634/home/21755136,41.9403473,-87.8260792,"$699,900",2009,$233,blue,270,3329 N Pacific Ave Chicago
933,April-13-2023,1030 N Grove Ave,Oak Park,699000.0,4.0,2.5,Oak Park,1926.0,,252.0,https://www.redfin.com/IL/Oak-Park/1030-N-Grove-Ave-60302/home/13275464,41.9046568,-87.7961219,"$699,000",1926,$252,blue,271,1030 N Grove Ave Oak Park
777,April-25-2023,1332 Bonnie Glen Ln,Glenview,695000.0,4.0,3.0,Glenview / Golf,1962.0,,,https://www.redfin.com/IL/Glenview/1332-Bonnie-Glen-Ln-60025/home/13794809,42.0779438,-87.792453,"$695,000",1962,$nan,blue,272,1332 Bonnie Glen Ln Glenview
1162,April-3-2023,296 Lockwood Ave,Northfield,695000.0,6.0,4.0,Northfield,1925.0,,,https://www.redfin.com/IL/Northfield/296-Lockwood-Ave-60093/home/13787934,42.0992511,-87.7639701,"$695,000",1925,$nan,blue,273,296 Lockwood Ave Northfield
1077,April-28-2023,1603 E Walnut Ave,Des Plaines,690000.0,4.0,3.5,Des Plaines,2021.0,,176.0,https://www.redfin.com/IL/Des-Plaines/1603-E-Walnut-Ave-60016/home/13659512,42.0341231,-87.8842392,"$690,000",2021,$176,blue,274,1603 E Walnut Ave Des Plaines
638,April-21-2023,31 Horseshoe Ln,Lemont,685000.0,5.0,3.5,Lemont,1986.0,,217.0,https://www.redfin.com/IL/Lemont/31-Horseshoe-Ln-60439/home/13211839,41.6743879,-87.9235598,"$685,000",1986,$217,blue,275,31 Horseshoe Ln Lemont
1446,April-24-2023,5832 N Forest Glen Ave,Chicago,685000.0,3.0,3.0,CHI - Forest Glen,1929.0,,324.0,https://www.redfin.com/IL/Chicago/5832-N-Forest-Glen-Ave-60646/home/13514774,41.9868842,-87.7460087,"$685,000",1929,$324,blue,276,5832 N Forest Glen Ave Chicago
1242,April-7-2023,3746 N Paris Ave,Chicago,685000.0,3.0,3.5,CHI - Dunning,2021.0,,,https://www.redfin.com/IL/Chicago/3746-N-Paris-Ave-60634/home/13544684,41.948102,-87.8308982,"$685,000",2021,$nan,blue,277,3746 N Paris Ave Chicago
549,April-7-2023,7439 N Osceola Ave,Chicago,685000.0,4.0,3.0,CHI - Edison Park,1956.0,,428.0,https://www.redfin.com/IL/Chicago/7439-N-Osceola-Ave-60631/unit-HSE/home/13650758,42.0163743,-87.8123865,"$685,000",1956,$428,blue,278,7439 N Osceola Ave Chicago
759,April-14-2023,402 E Maude Ave,Arlington Heights,680500.0,4.0,2.5,Arlington Heights,1967.0,,304.0,https://www.redfin.com/IL/Arlington-Heights/402-E-Maude-Ave-60004/home/13844204,42.1061987,-87.9776935,"$680,500",1967,$304,blue,279,402 E Maude Ave Arlington Heights
1527,April-11-2023,212 S Evergreen Ave,Arlington Heights,680000.0,5.0,4.5,Arlington Heights,1899.0,,247.0,https://www.redfin.com/IL/Arlington-Heights/212-S-Evergreen-Ave-60005/home/13825958,42.0791427,-87.9819976,"$680,000",1899,$247,blue,280,212 S Evergreen Ave Arlington Heights
426,April-3-2023,526 S Prospect Ave,Park Ridge,680000.0,4.0,2.5,Park Ridge,1913.0,,248.0,https://www.redfin.com/IL/Park-Ridge/526-S-Prospect-Ave-60068/home/13640116,42.0041495,-87.8331591,"$680,000",1913,$248,blue,281,526 S Prospect Ave Park Ridge
504,April-14-2023,205 N Lombard Ave,Oak Park,680000.0,4.0,2.0,Oak Park,1912.0,,338.0,https://www.redfin.com/IL/Oak-Park/205-N-Lombard-Ave-60302/home/13269132,41.8907,-87.7802468,"$680,000",1912,$338,blue,282,205 N Lombard Ave Oak Park
371,April-28-2023,8612 W 127th St,Palos Park,677500.0,5.0,3.0,Palos Park,1957.0,,152.0,https://www.redfin.com/IL/Palos-Park/8612-W-127th-St-60464/home/13193450,41.6605524,-87.8316813,"$677,500",1957,$152,blue,283,8612 W 127th St Palos Park
348,April-28-2023,1355 Wessling Dr,Northbrook,676500.0,4.0,2.5,Huntington,1970.0,,242.0,https://www.redfin.com/IL/Northbrook/1355-Wessling-Dr-60062/home/13815450,42.1280121,-87.8728888,"$676,500",1970,$242,blue,284,1355 Wessling Dr Northbrook
53,April-28-2023,1333 N Park Ave,Palatine,675000.0,5.0,5.0,Park Avenue Estates,2007.0,,180.0,https://www.redfin.com/IL/Palatine/1333-N-Park-Ave-60067/home/18933977,42.135313,-88.0762172,"$675,000",2007,$180,blue,285,1333 N Park Ave Palatine
1352,April-5-2023,3256 Robincrest Dr,Northbrook,675000.0,4.0,3.5,Northbrook,1966.0,,,https://www.redfin.com/IL/Northbrook/3256-Robincrest-Dr-60062/home/13808740,42.1200857,-87.8606725,"$675,000",1966,$nan,blue,286,3256 Robincrest Dr Northbrook
652,April-17-2023,5113 Harvey Ave,Western Springs,675000.0,4.0,3.5,Western Springs,1972.0,,241.0,https://www.redfin.com/IL/Western-Springs/5113-Harvey-Ave-60558/home/14058925,41.7969782,-87.8889357,"$675,000",1972,$241,blue,287,5113 Harvey Ave Western Springs
1066,April-14-2023,753 Forest Ave,River Forest,674000.0,4.0,2.5,River Forest,1909.0,,312.0,https://www.redfin.com/IL/River-Forest/753-Forest-Ave-60305/home/13325145,41.8937553,-87.8216291,"$674,000",1909,$312,blue,288,753 Forest Ave River Forest
135,April-5-2023,624 S Lincoln Ave,Park Ridge,673900.0,4.0,3.5,Park Ridge,,,337.0,https://www.redfin.com/IL/Park-Ridge/624-S-Lincoln-Ave-60068/home/13639522,42.0025898,-87.8435165,"$673,900",nan,$337,blue,289,624 S Lincoln Ave Park Ridge
590,April-4-2023,1240 Glenoak Ln,Northbrook,673000.0,4.0,3.5,Northbrook,1956.0,,238.0,https://www.redfin.com/IL/Northbrook/1240-Glenoak-Ln-60062/home/13812586,42.133429,-87.811583,"$673,000",1956,$238,blue,290,1240 Glenoak Ln Northbrook
57,April-12-2023,1048 N Carlyle Ln,Arlington Heights,671000.0,4.0,2.5,Arlington Heights,1985.0,,182.0,https://www.redfin.com/IL/Arlington-Heights/1048-N-Carlyle-Ln-60004/home/13831691,42.0951936,-87.9667495,"$671,000",1985,$182,blue,291,1048 N Carlyle Ln Arlington Heights
112,April-28-2023,1911 Linneman St,Glenview,670000.0,3.0,2.0,Glenview / Golf,1961.0,,347.0,https://www.redfin.com/IL/Glenview/1911-Linneman-St-60025/home/13793083,42.0689698,-87.806013,"$670,000",1961,$347,blue,292,1911 Linneman St Glenview
1996,April-3-2023,13147 Windward Trl,Orland Park,670000.0,4.0,3.5,Orland Park,1969.0,,216.0,https://www.redfin.com/IL/Orland-Park/13147-Windward-Trl-60462/home/13191473,41.6516282,-87.8239843,"$670,000",1969,$216,blue,293,13147 Windward Trl Orland Park
184,April-3-2023,1432 Blackthorn Dr,Glenview,670000.0,4.0,2.5,Glenview / Golf,1965.0,,244.0,https://www.redfin.com/IL/Glenview/1432-Blackthorn-Dr-60025/home/13801280,42.0834549,-87.806954,"$670,000",1965,$244,blue,294,1432 Blackthorn Dr Glenview
17,April-26-2023,6427 Hoffman Ter,Morton Grove,665000.0,4.0,3.0,Eldorado Towers,1977.0,,280.0,https://www.redfin.com/IL/Morton-Grove/6427-Hoffman-Ter-60053/home/13618051,42.0528739,-87.7877464,"$665,000",1977,$280,blue,295,6427 Hoffman Ter Morton Grove
709,April-19-2023,281 Latrobe Ave,Northfield,665000.0,4.0,3.0,Northfield,1948.0,,323.0,https://www.redfin.com/IL/Northfield/281-Latrobe-Ave-60093/home/12569391,42.0990248,-87.76213,"$665,000",1948,$323,blue,296,281 Latrobe Ave Northfield
2233,April-14-2023,3435 N Kedzie Ave,Chicago,665000.0,4.0,2.5,CHI - Avondale,1912.0,,333.0,https://www.redfin.com/IL/Chicago/3435-N-Kedzie-Ave-60618/home/13453549,41.9437485,-87.7074955,"$665,000",1912,$333,blue,297,3435 N Kedzie Ave Chicago
786,April-20-2023,5423 N St Louis Ave,Chicago,660000.0,5.0,2.0,CHI - North Park,1930.0,,257.0,https://www.redfin.com/IL/Chicago/5423-N-Saint-Louis-Ave-60625/home/13494562,41.9800668,-87.7157504,"$660,000",1930,$257,blue,298,5423 N St Louis Ave Chicago
1671,April-14-2023,804 Kennicott Pl,Mount Prospect,660000.0,4.0,3.0,Mount Prospect,1989.0,,185.0,https://www.redfin.com/IL/Mount-Prospect/804-Kennicott-Pl-60056/home/13694354,42.0508994,-87.9662211,"$660,000",1989,$185,blue,299,804 Kennicott Pl Mount Prospect
600,April-17-2023,430 S Catherine Ave,La Grange,660000.0,4.0,2.5,La Grange,1893.0,,333.0,https://www.redfin.com/IL/La-Grange/430-S-Catherine-Ave-60525/home/14063944,41.8058953,-87.8734066,"$660,000",1893,$333,blue,300,430 S Catherine Ave La Grange
1770,April-28-2023,14200 S 88th Ave,Orland Park,660000.0,4.0,3.0,Orland Park,2001.0,,184.0,https://www.redfin.com/IL/Orland-Park/14200-S-88th-Ave-60462/home/12710744,41.633229,-87.83413,"$660,000",2001,$184,blue,301,14200 S 88th Ave Orland Park
1789,April-3-2023,10420 S Seeley Ave,Chicago,660000.0,4.0,2.5,CHI - Beverly,1918.0,,228.0,https://www.redfin.com/IL/Chicago/10420-S-Seeley-Ave-60643/home/13072652,41.7039402,-87.6732887,"$660,000",1918,$228,blue,302,10420 S Seeley Ave Chicago
346,April-28-2023,2240 Woodview Ln,Park Ridge,655000.0,4.0,3.0,Park Ridge,1964.0,,224.0,https://www.redfin.com/IL/Park-Ridge/2240-Woodview-Ln-60068/home/13667956,42.0460058,-87.8495656,"$655,000",1964,$224,blue,303,2240 Woodview Ln Park Ridge
1493,April-17-2023,3428 N Plainfield Ave,Chicago,650500.0,5.0,3.5,CHI - Dunning,2023.0,,195.0,https://www.redfin.com/IL/Chicago/3428-N-Plainfield-Ave-60634/home/184324312,41.9420614,-87.8340982,"$650,500",2023,$195,blue,304,3428 N Plainfield Ave Chicago
354,April-6-2023,729 N Kenilworth Ave,Oak Park,650000.0,3.0,1.5,Oak Park,,,325.0,https://www.redfin.com/IL/Oak-Park/729-N-Kenilworth-Ave-60302/home/13274025,41.899104,-87.798149,"$650,000",nan,$325,blue,305,729 N Kenilworth Ave Oak Park
1211,April-17-2023,1144 Green Bay Rd,Glencoe,650000.0,3.0,3.0,Glencoe,1957.0,,353.0,https://www.redfin.com/IL/Glencoe/1144-Green-Bay-Rd-60022/home/13820136,42.1435832,-87.7709716,"$650,000",1957,$353,blue,306,1144 Green Bay Rd Glencoe
1845,April-20-2023,5221 S Nashville Ave,Chicago,650000.0,4.0,4.0,CHI - Garfield Ridge,1946.0,,235.0,https://www.redfin.com/IL/Chicago/5221-S-Nashville-Ave-60638/home/14027888,41.7971259,-87.7865774,"$650,000",1946,$235,blue,307,5221 S Nashville Ave Chicago
658,April-3-2023,1975 W Touhy Ave,Park Ridge,650000.0,4.0,2.5,Park Ridge,2017.0,,217.0,https://www.redfin.com/IL/Park-Ridge/1975-W-Touhy-Ave-60068/unit-1/home/13641611,42.0103286,-87.8522514,"$650,000",2017,$217,blue,308,1975 W Touhy Ave Park Ridge
124,April-17-2023,5320 Woodland Ave,Western Springs,650000.0,4.0,2.5,Western Springs,1966.0,,269.0,https://www.redfin.com/IL/Western-Springs/5320-Woodland-Ave-60558/home/14057708,41.7925194,-87.9031414,"$650,000",1966,$269,blue,309,5320 Woodland Ave Western Springs
1479,April-27-2023,18 Plumrose Ln,Schaumburg,650000.0,6.0,3.0,Schaumburg,1997.0,,265.0,https://www.redfin.com/IL/Schaumburg/18-Plumrose-Ln-60194/home/13729602,42.0294439,-88.0759914,"$650,000",1997,$265,blue,310,18 Plumrose Ln Schaumburg
128,April-3-2023,2304 Prospect Ave,Evanston,650000.0,3.0,1.5,Evanston,1941.0,,276.0,https://www.redfin.com/IL/Evanston/2304-Prospect-Ave-60201/home/13632804,42.0591735,-87.7259138,"$650,000",1941,$276,blue,311,2304 Prospect Ave Evanston
157,April-14-2023,835 N Cuyler Ave,Oak Park,650000.0,5.0,2.5,Oak Park,,,295.0,https://www.redfin.com/IL/Oak-Park/835-N-Cuyler-Ave-60302/home/13275216,41.9011987,-87.7841322,"$650,000",nan,$295,blue,312,835 N Cuyler Ave Oak Park
830,April-7-2023,3827 N Ottawa Ave,Chicago,650000.0,5.0,3.5,CHI - Dunning,2007.0,,215.0,https://www.redfin.com/IL/Chicago/3827-N-Ottawa-Ave-60634/home/18954474,41.9494979,-87.818143,"$650,000",2007,$215,blue,313,3827 N Ottawa Ave Chicago
121,April-28-2023,2615 Longmeadow Dr,Northbrook,649000.0,3.0,2.5,Northbrook,1968.0,,260.0,https://www.redfin.com/IL/Northbrook/2615-Longmeadow-Dr-60062/home/13810615,42.1126758,-87.8442125,"$649,000",1968,$260,blue,314,2615 Longmeadow Dr Northbrook
1093,April-3-2023,7052 N Olcott Ave,Chicago,648000.0,4.0,3.0,CHI - Edison Park,1988.0,,223.0,https://www.redfin.com/IL/Chicago/7052-N-Olcott-Ave-60631/home/13637438,42.0093938,-87.8140009,"$648,000",1988,$223,blue,315,7052 N Olcott Ave Chicago
1405,April-18-2023,4411 S Normal Ave,Chicago,645000.0,4.0,4.5,CHI - New City,2023.0,,174.0,https://www.redfin.com/IL/Chicago/4411-S-Normal-Ave-60609/home/147726333,41.8140249,-87.6380371,"$645,000",2023,$174,blue,316,4411 S Normal Ave Chicago
1594,April-14-2023,5734 Red Oak Dr,Hoffman Estates,640000.0,5.0,4.0,White Oak,2004.0,,162.0,https://www.redfin.com/IL/Hoffman-Estates/5734-Red-Oak-Dr-60192/home/12673468,42.0540411,-88.2258445,"$640,000",2004,$162,blue,317,5734 Red Oak Dr Hoffman Estates
1785,April-25-2023,4242 N Ozark Ave,Norridge,640000.0,4.0,4.5,Norridge,1926.0,,215.0,https://www.redfin.com/IL/Norridge/4242-N-Ozark-Ave-60706/home/13552666,41.957368,-87.8210246,"$640,000",1926,$215,blue,318,4242 N Ozark Ave Norridge
764,April-4-2023,1075 W Skylark Dr,Palatine,640000.0,4.0,3.5,Hunting Ridge,1971.0,,201.0,https://www.redfin.com/IL/Palatine/1075-W-Skylark-Dr-60067/home/13876066,42.0906158,-88.0699019,"$640,000",1971,$201,blue,319,1075 W Skylark Dr Palatine
136,April-10-2023,801 N Stone Ave,La Grange Park,640000.0,3.0,2.5,Harding Woods,1957.0,,,https://www.redfin.com/IL/La-Grange-Park/801-N-Stone-Ave-60526/home/13298188,41.8288253,-87.8786991,"$640,000",1957,$nan,blue,320,801 N Stone Ave La Grange Park
386,April-26-2023,8221 W Knollwood Dr,Palos Park,640000.0,4.0,3.0,Palos Park,1954.0,,,https://www.redfin.com/IL/Palos-Park/8221-W-Knollwood-Dr-60464/home/13193513,41.6717419,-87.8222381,"$640,000",1954,$nan,blue,321,8221 W Knollwood Dr Palos Park
176,April-26-2023,738 S Mallard Dr,Palatine,640000.0,5.0,3.0,Palatine,1970.0,,236.0,https://www.redfin.com/IL/Palatine/738-S-Mallard-Dr-60067/home/13883878,42.0967577,-88.0722691,"$640,000",1970,$236,blue,322,738 S Mallard Dr Palatine
1366,April-17-2023,745 S Spring Ave,La Grange,640000.0,5.0,3.0,Country Club,1951.0,,234.0,https://www.redfin.com/IL/La-Grange/745-S-Spring-Ave-60525/home/14056057,41.7996705,-87.8748726,"$640,000",1951,$234,blue,323,745 S Spring Ave La Grange
1603,April-18-2023,7150 N Moody Ave,Chicago,638500.0,4.0,3.5,CHI - Forest Glen,1949.0,,283.0,https://www.redfin.com/IL/Chicago/7150-N-Moody-Ave-60646/home/13593152,42.01063,-87.7811295,"$638,500",1949,$283,blue,324,7150 N Moody Ave Chicago
693,April-5-2023,3945 Franklin Ave,Western Springs,637500.0,4.0,2.0,Western Springs,1956.0,,,https://www.redfin.com/IL/Western-Springs/3945-Franklin-Ave-60558/home/14062816,41.8175456,-87.896207,"$637,500",1956,$nan,blue,325,3945 Franklin Ave Western Springs
282,April-17-2023,244 Gillick St,Park Ridge,635000.0,4.0,2.0,Park Ridge,1927.0,,306.0,https://www.redfin.com/IL/Park-Ridge/244-Gillick-St-60068/home/13637176,42.0024866,-87.8259998,"$635,000",1927,$306,blue,326,244 Gillick St Park Ridge
633,April-7-2023,245 S Glendale Ave,Barrington,635000.0,4.0,2.5,Barrington Village,1980.0,,200.0,https://www.redfin.com/IL/Barrington/245-S-Glendale-Ave-60010/home/13905471,42.1507188,-88.1235142,"$635,000",1980,$200,blue,327,245 S Glendale Ave Barrington
267,April-11-2023,6941 N Karlov Ave,Lincolnwood,635000.0,4.0,3.5,Lincolnwood,1960.0,,302.0,https://www.redfin.com/IL/Lincolnwood/6941-N-Karlov-Ave-60712/home/13589504,42.0074587,-87.7307885,"$635,000",1960,$302,blue,328,6941 N Karlov Ave Lincolnwood
752,April-27-2023,7025 N Mankato Ave,Chicago,630000.0,4.0,4.0,CHI - Forest Glen,1952.0,,229.0,https://www.redfin.com/IL/Chicago/7025-N-Mankato-Ave-60646/home/13592876,42.0089286,-87.7830103,"$630,000",1952,$229,blue,329,7025 N Mankato Ave Chicago
2088,April-11-2023,5821 N Napoleon Ave,Chicago,630000.0,5.0,3.5,CHI - Norwood Park,1928.0,,254.0,https://www.redfin.com/IL/Chicago/5821-N-Napoleon-Ave-60631/unit-HSE/home/13507152,41.9873608,-87.7884957,"$630,000",1928,$254,blue,330,5821 N Napoleon Ave Chicago
1639,April-11-2023,6745 N Dowagiac Ave,Chicago,630000.0,4.0,3.0,CHI - Forest Glen,1959.0,,231.0,https://www.redfin.com/IL/Chicago/6745-N-Dowagiac-Ave-60646/home/13591528,42.0035126,-87.763275,"$630,000",1959,$231,blue,331,6745 N Dowagiac Ave Chicago
1282,April-14-2023,6808 N Oleander Ave,Chicago,629900.0,5.0,3.0,CHI - Edison Park,1922.0,,296.0,https://www.redfin.com/IL/Chicago/6808-N-Oleander-Ave-60631/home/13638190,42.004505,-87.815486,"$629,900",1922,$296,blue,332,6808 N Oleander Ave Chicago
699,April-4-2023,401 Florence Ave,Evanston,628000.0,4.0,1.5,Evanston,1938.0,,334.0,https://www.redfin.com/IL/Evanston/401-Florence-Ave-60202/home/13603550,42.0250884,-87.6945701,"$628,000",1938,$334,blue,333,401 Florence Ave Evanston
734,April-6-2023,703 Thatcher Ave,River Forest,625000.0,5.0,5.5,River Forest,1937.0,,151.0,https://www.redfin.com/IL/River-Forest/703-Thatcher-Ave-60305/home/13326285,41.8919735,-87.8252128,"$625,000",1937,$151,blue,334,703 Thatcher Ave River Forest
1632,April-11-2023,1114 Augusta St,Oak Park,625000.0,5.0,3.0,Oak Park,1917.0,,281.0,https://www.redfin.com/IL/Oak-Park/1114-Augusta-St-60302/home/13272060,41.8980928,-87.8045151,"$625,000",1917,$281,blue,335,1114 Augusta St Oak Park
400,April-28-2023,2961 Cherry Ln,Northbrook,625000.0,4.0,2.5,White Plains,1968.0,,224.0,https://www.redfin.com/IL/Northbrook/2961-Cherry-Ln-60062/home/13814586,42.1304088,-87.8532032,"$625,000",1968,$224,blue,336,2961 Cherry Ln Northbrook
98,April-14-2023,1621 Butterfield Rd,Flossmoor,625000.0,4.0,4.5,Flossmoor Estates,1967.0,,127.0,https://www.redfin.com/IL/Flossmoor/1621-Butterfield-Rd-60422/home/12873154,41.532778,-87.6784155,"$625,000",1967,$127,blue,337,1621 Butterfield Rd Flossmoor
1425,April-26-2023,5430 S Dorchester Ave,Chicago,625000.0,3.0,3.0,CHI - Hyde Park,1890.0,,260.0,https://www.redfin.com/IL/Chicago/5430-S-Dorchester-Ave-60615/home/13948687,41.7970729,-87.591993,"$625,000",1890,$260,blue,338,5430 S Dorchester Ave Chicago
1423,April-26-2023,5432 S Dorchester Ave,Chicago,625000.0,3.0,1.5,CHI - Hyde Park,1890.0,,260.0,https://www.redfin.com/IL/Chicago/5432-S-Dorchester-Ave-60615/home/13948686,41.7970248,-87.5920368,"$625,000",1890,$260,blue,339,5432 S Dorchester Ave Chicago
2151,April-12-2023,222 Iowa St,Oak Park,625000.0,5.0,3.5,Oak Park,1906.0,,316.0,https://www.redfin.com/IL/Oak-Park/222-Iowa-St-60302/home/13276241,41.8966383,-87.7811948,"$625,000",1906,$316,blue,340,222 Iowa St Oak Park
301,April-18-2023,711 Lamon Ave,Wilmette,622500.0,3.0,3.5,Wilmette,1959.0,,358.0,https://www.redfin.com/IL/Wilmette/711-Lamon-Ave-60091/home/13780498,42.0764201,-87.7546134,"$622,500",1959,$358,blue,341,711 Lamon Ave Wilmette
2245,April-26-2023,3845 S Emerald Ave,Chicago,620000.0,3.0,3.5,CHI - Bridgeport,2001.0,,207.0,https://www.redfin.com/IL/Chicago/3845-S-Emerald-Ave-60609/home/14072652,41.8239332,-87.6444735,"$620,000",2001,$207,blue,342,3845 S Emerald Ave Chicago
772,April-20-2023,4134 Miller Dr,Glenview,620000.0,4.0,2.5,Glenview / Golf,1976.0,,197.0,https://www.redfin.com/IL/Glenview/4134-Miller-Dr-60026/home/13806570,42.1034149,-87.8579296,"$620,000",1976,$197,blue,343,4134 Miller Dr Glenview
2155,April-5-2023,12 Franklin Ave,River Forest,618000.0,4.0,2.0,River Forest,1920.0,,258.0,https://www.redfin.com/IL/River-Forest/12-Franklin-Ave-60305/home/13323138,41.8799645,-87.8180475,"$618,000",1920,$258,blue,344,12 Franklin Ave River Forest
204,April-13-2023,1737 N Spaulding Ave,Chicago,617000.0,4.0,3.0,CHI - Humboldt Park,1895.0,,309.0,https://www.redfin.com/IL/Chicago/1737-N-Spaulding-Ave-60647/home/13418174,41.9130319,-87.709928,"$617,000",1895,$309,blue,345,1737 N Spaulding Ave Chicago
2195,April-3-2023,9425 Maria Ln,Orland Park,616000.0,3.0,2.5,Charleton,2022.0,,255.0,https://www.redfin.com/IL/Orland-Park/9425-Maria-Ln-60467/home/167815186,41.5926143,-87.8487849,"$616,000",2022,$255,blue,346,9425 Maria Ln Orland Park
0,April-27-2023,1647 W Hollywood Ave,Chicago,615000.0,3.0,1.5,CHI - Edgewater,1927.0,,,https://www.redfin.com/IL/Chicago/1647-W-Hollywood-Ave-60660/home/13405670,41.9849123,-87.6717825,"$615,000",1927,$nan,blue,347,1647 W Hollywood Ave Chicago
516,April-25-2023,417 Jackson Ave,Glencoe,615000.0,3.0,1.5,Glencoe,1929.0,,278.0,https://www.redfin.com/IL/Glencoe/417-Jackson-Ave-60022/home/13790965,42.123363,-87.7530953,"$615,000",1929,$278,blue,348,417 Jackson Ave Glencoe
1733,April-24-2023,1506 Dempster St,Evanston,615000.0,4.0,3.0,Evanston,1921.0,,255.0,https://www.redfin.com/IL/Evanston/1506-Dempster-St-60202/home/13604951,42.0410013,-87.6932647,"$615,000",1921,$255,blue,349,1506 Dempster St Evanston
565,April-27-2023,9300 E Prairie Rd,Evanston,615000.0,4.0,2.5,Evanston,1970.0,,181.0,https://www.redfin.com/IL/Evanston/9300-E-Prairie-Rd-60203/home/13627192,42.050019,-87.7128358,"$615,000",1970,$181,blue,350,9300 E Prairie Rd Evanston
617,April-28-2023,3906 Cleveland St,Skokie,615000.0,3.0,2.0,Skokie,1955.0,,342.0,https://www.redfin.com/IL/Skokie/3906-Cleveland-St-60076/home/13606722,42.0300806,-87.7259877,"$615,000",1955,$342,blue,351,3906 Cleveland St Skokie
797,April-28-2023,825 S Harvard Dr,Palatine,615000.0,5.0,3.5,Palatine,1972.0,,201.0,https://www.redfin.com/IL/Palatine/825-S-Harvard-Dr-60067/home/13874823,42.0952413,-88.0682028,"$615,000",1972,$201,blue,352,825 S Harvard Dr Palatine
334,April-20-2023,6903 Lorel Ave,Skokie,615000.0,4.0,2.5,Skokie,1969.0,,178.0,https://www.redfin.com/IL/Skokie/6903-Lorel-Ave-60077/home/13592886,42.006593,-87.7607076,"$615,000",1969,$178,blue,353,6903 Lorel Ave Skokie
1144,April-10-2023,117 W Boardwalk Dr,Palatine,615000.0,4.0,2.5,Palatine,1988.0,,211.0,https://www.redfin.com/IL/Palatine/117-W-Boardwalk-Dr-60067/home/13875035,42.0928721,-88.0468152,"$615,000",1988,$211,blue,354,117 W Boardwalk Dr Palatine
622,April-14-2023,1213 Rossell Ave,Oak Park,612000.0,3.0,2.0,Oak Park,1926.0,,389.0,https://www.redfin.com/IL/Oak-Park/1213-Rossell-Ave-60302/home/13275325,41.9078989,-87.786344,"$612,000",1926,$389,blue,355,1213 Rossell Ave Oak Park
487,April-28-2023,1132 W Whytecliff Rd,Palatine,611000.0,4.0,3.0,Whytecliff,1977.0,,280.0,https://www.redfin.com/IL/Palatine/1132-W-Whytecliff-Rd-60067/home/13881813,42.102737,-88.0718873,"$611,000",1977,$280,blue,356,1132 W Whytecliff Rd Palatine
406,April-24-2023,1639 W Rosehill Dr,Chicago,610000.0,2.0,2.0,CHI - Edgewater,,,,https://www.redfin.com/IL/Chicago/1639-W-Rosehill-Dr-60660/home/13405716,41.9865205,-87.6711742,"$610,000",nan,$nan,blue,357,1639 W Rosehill Dr Chicago
891,April-28-2023,4828 S Forrestville Ave,Chicago,610000.0,4.0,3.5,CHI - Grand Boulevard,,,203.0,https://www.redfin.com/IL/Chicago/4828-S-Forrestville-Ave-60615/home/13952098,41.8067757,-87.6128493,"$610,000",nan,$203,blue,358,4828 S Forrestville Ave Chicago
815,April-14-2023,8745 Lyons St,Des Plaines,609000.0,4.0,3.0,Des Plaines,2000.0,,232.0,https://www.redfin.com/IL/Des-Plaines/8745-Lyons-St-60016/home/12561504,42.0488376,-87.8449417,"$609,000",2000,$232,blue,359,8745 Lyons St Des Plaines
216,April-24-2023,7657 Long Ave,Skokie,607900.0,7.0,4.5,Skokie,1959.0,,165.0,https://www.redfin.com/IL/Skokie/7657-Long-Ave-60077/home/13597495,42.0208075,-87.7619899,"$607,900",1959,$165,blue,360,7657 Long Ave Skokie
322,April-14-2023,2220 N Brighton Pl,Arlington Heights,607000.0,3.0,2.5,Ivy Hill,1977.0,,190.0,https://www.redfin.com/IL/Arlington-Hts/2220-N-Brighton-Pl-60004/home/13848109,42.1151938,-87.9675068,"$607,000",1977,$190,blue,361,2220 N Brighton Pl Arlington Heights
1766,April-28-2023,606 N Maple St,Prospect Heights,605000.0,5.0,3.5,Smith and Dawsons,1976.0,,254.0,https://www.redfin.com/IL/Prospect-Heights/606-N-Maple-St-60070/home/13843249,42.1071365,-87.9348207,"$605,000",1976,$254,blue,362,606 N Maple St Prospect Heights
470,April-24-2023,3724 Maple Leaf Dr,Glenview,605000.0,4.0,2.5,Willows,1969.0,,244.0,https://www.redfin.com/IL/Glenview/3724-Maple-Leaf-Dr-60026/home/13804712,42.0976875,-87.8479348,"$605,000",1969,$244,blue,363,3724 Maple Leaf Dr Glenview
1140,April-21-2023,17532 Mayher Dr,Orland Park,600000.0,5.0,3.5,Orland Park,1996.0,,263.0,https://www.redfin.com/IL/Orland-Park/17532-Mayher-Dr-60467/home/12999787,41.5701333,-87.9028499,"$600,000",1996,$263,blue,364,17532 Mayher Dr Orland Park
2122,April-7-2023,10727 Maue Dr,Orland Park,600000.0,3.0,4.0,Eagle Ridge,1990.0,,156.0,https://www.redfin.com/IL/Orland-Park/10727-Maue-Dr-60467/home/12999563,41.562682,-87.8788809,"$600,000",1990,$156,blue,365,10727 Maue Dr Orland Park
1189,April-27-2023,1425 Linden Ave,Park Ridge,600000.0,4.0,3.0,Park Ridge,1976.0,,267.0,https://www.redfin.com/IL/Park-Ridge/1425-Linden-Ave-60068/home/13566093,41.9920862,-87.8251395,"$600,000",1976,$267,blue,366,1425 Linden Ave Park Ridge
2255,April-28-2023,3861 Brittany Rd,Northbrook,600000.0,4.0,2.5,Charlemagne,1969.0,,156.0,https://www.redfin.com/IL/Northbrook/3861-Brittany-Rd-60062/home/13818697,42.1396633,-87.8758609,"$600,000",1969,$156,blue,367,3861 Brittany Rd Northbrook
1402,April-26-2023,1456 N Monitor Ave,Chicago,599999.0,4.0,3.5,Austin Village,2023.0,,200.0,https://www.redfin.com/IL/Chicago/1456-N-Monitor-Ave-60651/home/13277910,41.9073736,-87.7721712,"$599,999",2023,$200,blue,368,1456 N Monitor Ave Chicago
73,April-3-2023,10425 Emerald Ave,Orland Park,599900.0,5.0,3.5,Emerald Estates,1995.0,,192.0,https://www.redfin.com/IL/Orland-Park/10425-Emerald-Ave-60467/home/13001119,41.5774762,-87.8726587,"$599,900",1995,$192,blue,369,10425 Emerald Ave Orland Park
685,April-4-2023,8611 Lavergne Ave,Burbank,599500.0,6.0,4.0,Burbank / Nottingham Park,2023.0,,148.0,https://www.redfin.com/IL/Burbank/8611-Lavergne-Ave-60459/home/184613891,41.7359008,-87.7454145,"$599,500",2023,$148,blue,370,8611 Lavergne Ave Burbank
178,April-12-2023,4515 Lawn Ave,Western Springs,599000.0,3.0,2.5,Western Springs,1927.0,,240.0,https://www.redfin.com/IL/Western-Springs/4515-Lawn-Ave-60558/home/26831457,41.8079442,-87.9000631,"$599,000",1927,$240,blue,371,4515 Lawn Ave Western Springs
1201,April-21-2023,5236 N Mason Ave,Chicago,599000.0,6.0,3.0,CHI - Jefferson Park,1922.0,,200.0,https://www.redfin.com/IL/Chicago/5236-N-Mason-Ave-60630/home/185200146,41.976776,-87.7772431,"$599,000",1922,$200,blue,372,5236 N Mason Ave Chicago
113,April-21-2023,1240 Wendy Dr,Northbrook,595000.0,4.0,2.0,Northbrook,1957.0,,322.0,https://www.redfin.com/IL/Northbrook/1240-Wendy-Dr-60062/home/13813982,42.1301245,-87.8123277,"$595,000",1957,$322,blue,373,1240 Wendy Dr Northbrook
1175,April-17-2023,5122 N Kenneth Ave,Chicago,590000.0,5.0,4.0,CHI - Albany Park,1957.0,,242.0,https://www.redfin.com/IL/Chicago/5122-N-Kenneth-Ave-60630/home/13496091,41.9742881,-87.7396425,"$590,000",1957,$242,blue,374,5122 N Kenneth Ave Chicago
573,April-14-2023,606 E Hackberry Dr,Arlington Heights,590000.0,4.0,2.5,Arlington Heights,1973.0,,241.0,https://www.redfin.com/IL/Arlington-Heights/606-E-Hackberry-Dr-60004/home/13859312,42.1295478,-87.9751682,"$590,000",1973,$241,blue,375,606 E Hackberry Dr Arlington Heights
1447,April-14-2023,4131 Prairie Ave,Brookfield,590000.0,4.0,4.0,Brookfield,1977.0,,176.0,https://www.redfin.com/IL/Brookfield/4131-Prairie-Ave-60513/home/14067798,41.815574,-87.8436956,"$590,000",1977,$176,blue,376,4131 Prairie Ave Brookfield
1364,April-10-2023,507 S Hi Lusi Ave,Mount Prospect,590000.0,3.0,3.0,Mount Prospect,1940.0,,192.0,https://www.redfin.com/IL/Mount-Prospect/507-S-Hi-Lusi-Ave-60056/home/13701902,42.0564338,-87.9433028,"$590,000",1940,$192,blue,377,507 S Hi Lusi Ave Mount Prospect
1604,April-28-2023,2401 Wilmette Ave,Wilmette,589000.0,3.0,2.0,Wilmette,1960.0,,,https://www.redfin.com/IL/Wilmette/2401-Wilmette-Ave-60091/home/13776828,42.0717297,-87.7350566,"$589,000",1960,$nan,blue,378,2401 Wilmette Ave Wilmette
591,April-20-2023,8300 Chelsea Ln,Willow Springs,586000.0,4.0,2.0,Willow Springs,1985.0,,238.0,https://www.redfin.com/IL/Willow-Springs/8300-Chelsea-Ln-60480/home/14042984,41.7382124,-87.8910634,"$586,000",1985,$238,blue,379,8300 Chelsea Ln Willow Springs
502,April-28-2023,6410 N Olympia Ave,Chicago,585000.0,4.0,2.5,CHI - Edison Park,1919.0,,,https://www.redfin.com/IL/Chicago/6410-N-Olympia-Ave-60631/home/13636068,41.9972118,-87.8190511,"$585,000",1919,$nan,blue,380,6410 N Olympia Ave Chicago
1953,April-25-2023,2030 N Brighton Pl,Arlington Heights,585000.0,4.0,2.5,Ivy Hill,1976.0,,222.0,https://www.redfin.com/IL/Arlington-Hts/2030-N-Brighton-Pl-60004/home/13848969,42.1140122,-87.9694127,"$585,000",1976,$222,blue,381,2030 N Brighton Pl Arlington Heights
883,April-17-2023,2415 W Cuyler Ave,Chicago,585000.0,3.0,2.0,CHI - North Center,1961.0,,532.0,https://www.redfin.com/IL/Chicago/2415-W-Cuyler-Ave-60618/home/13487699,41.9547175,-87.6891797,"$585,000",1961,$532,blue,382,2415 W Cuyler Ave Chicago
963,April-21-2023,2439 S Cedar Glen Dr,Arlington Heights,585000.0,4.0,3.0,Cedar Glen,1969.0,,199.0,https://www.redfin.com/IL/Arlington-Heights/2439-S-Cedar-Glen-Dr-60005/home/13693238,42.0406812,-87.9693518,"$585,000",1969,$199,blue,383,2439 S Cedar Glen Dr Arlington Heights
284,April-28-2023,4531 Tall Oaks Ln,Rolling Meadows,584900.0,4.0,4.0,Estate Homes of Plum Grove,1976.0,,170.0,https://www.redfin.com/IL/Rolling-Meadows/4531-Tall-Oaks-Ln-60008/home/13872406,42.0753882,-88.0397283,"$584,900",1976,$170,blue,384,4531 Tall Oaks Ln Rolling Meadows
787,April-12-2023,6557 N Oliphant Ave,Chicago,582500.0,5.0,3.0,CHI - Edison Park,1930.0,,233.0,https://www.redfin.com/IL/Chicago/6557-N-Oliphant-Ave-60631/home/13636535,41.9995509,-87.8190698,"$582,500",1930,$233,blue,385,6557 N Oliphant Ave Chicago
1535,April-26-2023,8818 Major Ave,Morton Grove,580250.0,4.0,3.0,Morton Grove,1957.0,,207.0,https://www.redfin.com/IL/Morton-Grove/8818-Major-Ave-60053/home/13618829,42.0417026,-87.7693646,"$580,250",1957,$207,blue,386,8818 Major Ave Morton Grove
1489,April-3-2023,1227 Ashland Ave,River Forest,580000.0,4.0,2.5,River Forest,1934.0,,227.0,https://www.redfin.com/IL/River-Forest/1227-Ashland-Ave-60305/home/13343029,41.9023464,-87.8164965,"$580,000",1934,$227,blue,387,1227 Ashland Ave River Forest
362,April-7-2023,4530 N Troy St,Chicago,580000.0,4.0,3.0,CHI - Albany Park,1912.0,,176.0,https://www.redfin.com/IL/Chicago/4530-N-Troy-St-60625/home/184733382,41.963947,-87.7073896,"$580,000",1912,$176,blue,388,4530 N Troy St Chicago
944,April-24-2023,4647 N Lawler Ave,Chicago,580000.0,4.0,3.0,CHI - Portage Park,1930.0,,252.0,https://www.redfin.com/IL/Chicago/4647-N-Lawler-Ave-60630/home/13478882,41.9655145,-87.7535309,"$580,000",1930,$252,blue,389,4647 N Lawler Ave Chicago
1378,April-5-2023,9524 S Longwood Dr,Chicago,577000.0,5.0,3.5,Beverly Hills,1896.0,,200.0,https://www.redfin.com/IL/Chicago/9524-S-Longwood-Dr-60643/home/13098755,41.7202896,-87.6694735,"$577,000",1896,$200,blue,390,9524 S Longwood Dr Chicago
751,April-12-2023,6323 N Neenah Ave,Chicago,576323.0,4.0,3.0,CHI - Norwood Park,1927.0,,220.0,https://www.redfin.com/IL/Chicago/6323-N-Neenah-Ave-60631/home/13507422,41.9962893,-87.7896248,"$576,323",1927,$220,blue,391,6323 N Neenah Ave Chicago
1735,April-17-2023,6431 N Paulina St,Chicago,576300.0,5.0,3.5,CHI - Rogers Park,2007.0,,169.0,https://www.redfin.com/IL/Chicago/6431-N-Paulina-St-60626/home/13570017,41.999,-87.6720051,"$576,300",2007,$169,blue,392,6431 N Paulina St Chicago
669,April-3-2023,3714 W Sunnyside Ave,Chicago,576000.0,3.0,2.5,CHI - Albany Park,1918.0,,436.0,https://www.redfin.com/IL/Chicago/3714-W-Sunnyside-Ave-60625/home/13485516,41.9630601,-87.7212203,"$576,000",1918,$436,blue,393,3714 W Sunnyside Ave Chicago
1786,April-27-2023,1632 Joy Ln,Glenview,575000.0,4.0,2.5,La Fontaine,1971.0,,255.0,https://www.redfin.com/IL/Glenview/1632-Joy-Ln-60025/home/13798585,42.0858963,-87.8514265,"$575,000",1971,$255,blue,394,1632 Joy Ln Glenview
1414,April-14-2023,630 S Kenilworth Ave,Oak Park,575000.0,4.0,1.5,Oak Park,1912.0,,240.0,https://www.redfin.com/IL/Oak-Park/630-S-Kenilworth-Ave-60304/home/13249992,41.8771602,-87.7969892,"$575,000",1912,$240,blue,395,630 S Kenilworth Ave Oak Park
466,April-20-2023,9806 S Oakley Ave,Chicago,575000.0,4.0,2.5,CHI - Beverly,1956.0,,204.0,https://www.redfin.com/IL/Chicago/9806-S-Oakley-Ave-60643/home/13099811,41.7152075,-87.6797527,"$575,000",1956,$204,blue,396,9806 S Oakley Ave Chicago
1270,April-10-2023,3603 Linneman St,Glenview,575000.0,4.0,2.0,Glenview / Golf,1943.0,,317.0,https://www.redfin.com/IL/Glenview/3603-Linneman-St-60025/home/13796587,42.0691835,-87.8459778,"$575,000",1943,$317,blue,397,3603 Linneman St Glenview
1641,April-17-2023,8939 S Oakley Ave,Chicago,575000.0,4.0,4.0,Beverly Hills,1935.0,,198.0,https://www.redfin.com/IL/Chicago/8939-S-Oakley-Ave-60643/home/13101476,41.7307605,-87.6795747,"$575,000",1935,$198,blue,398,8939 S Oakley Ave Chicago
22,April-4-2023,6629 N Washtenaw Ave,Chicago,575000.0,4.0,2.5,CHI - West Ridge,1927.0,,,https://www.redfin.com/IL/Chicago/6629-N-Washtenaw-Ave-60645/home/13583214,42.0021293,-87.6970649,"$575,000",1927,$nan,blue,399,6629 N Washtenaw Ave Chicago
1078,April-3-2023,2653 N Stuart Dr,Arlington Heights,575000.0,4.0,2.5,Ivy Hill,1972.0,,187.0,https://www.redfin.com/IL/Arlington-Heights/2653-N-Stuart-Dr-60004/home/13847684,42.123607,-87.970959,"$575,000",1972,$187,blue,400,2653 N Stuart Dr Arlington Heights
1060,April-28-2023,5228 Ellington Ave,Western Springs,572500.0,3.0,2.5,Western Springs,1960.0,,293.0,https://www.redfin.com/IL/Western-Springs/5228-Ellington-Ave-60558/home/14058322,41.7941112,-87.8929889,"$572,500",1960,$293,blue,401,5228 Ellington Ave Western Springs
585,April-3-2023,6438 N Nokomis Ave,Chicago,571000.0,4.0,2.5,CHI - Forest Glen,1943.0,,,https://www.redfin.com/IL/Chicago/6438-N-Nokomis-Ave-60646/home/13591587,41.9984418,-87.758738,"$571,000",1943,$nan,blue,402,6438 N Nokomis Ave Chicago
1249,April-19-2023,1644 N 76th Ave,Elmwood Park,570000.0,3.0,2.5,Elmwood Park,1949.0,,251.0,https://www.redfin.com/IL/Elmwood-Park/1644-N-76th-Ave-60707/home/13522000,41.9103645,-87.8159515,"$570,000",1949,$251,blue,403,1644 N 76th Ave Elmwood Park
833,April-14-2023,1721 Seward St,Evanston,570000.0,4.0,2.0,Evanston,1948.0,,317.0,https://www.redfin.com/IL/Evanston/1721-Seward-St-60202/home/13603581,42.0292832,-87.6974577,"$570,000",1948,$317,blue,404,1721 Seward St Evanston
1026,April-28-2023,9434 Maria Ln,Orland Park,569900.0,3.0,2.5,Charleton,2021.0,,233.0,https://www.redfin.com/IL/Orland-Park/9434-Maria-Ln-60467/home/147845909,41.5930659,-87.8491112,"$569,900",2021,$233,blue,405,9434 Maria Ln Orland Park
266,April-21-2023,16438 Pear Ave,Orland Park,568000.0,4.0,3.0,Alpine Heights,1992.0,,196.0,https://www.redfin.com/IL/Orland-Park/16438-Pear-Ave-60467/home/13013525,41.5903201,-87.8842392,"$568,000",1992,$196,blue,406,16438 Pear Ave Orland Park
897,April-3-2023,817 N Humphrey Ave,Oak Park,565000.0,3.0,4.0,Oak Park,1917.0,,189.0,https://www.redfin.com/IL/Oak-Park/817-N-Humphrey-Ave-60302/home/13277372,41.9008232,-87.77683,"$565,000",1917,$189,blue,407,817 N Humphrey Ave Oak Park
83,April-17-2023,307 N Aldine Ave,Park Ridge,565000.0,3.0,2.0,Park Ridge,1959.0,,287.0,https://www.redfin.com/IL/Park-Ridge/307-N-Aldine-Ave-60068/home/13645735,42.0147113,-87.8464187,"$565,000",1959,$287,blue,408,307 N Aldine Ave Park Ridge
133,April-11-2023,2420 Prospect Ave,Evanston,565000.0,3.0,1.0,Evanston,1939.0,,514.0,https://www.redfin.com/IL/Evanston/2420-Prospect-Ave-60201/home/13632652,42.0613064,-87.7258932,"$565,000",1939,$514,blue,409,2420 Prospect Ave Evanston
1209,April-6-2023,10116 Potter Rd,Des Plaines,562080.0,5.0,3.0,Des Plaines,,,,https://www.redfin.com/IL/Des-Plaines/10116-Potter-Rd-60016/home/13681084,42.063982,-87.8602313,"$562,080",nan,$nan,blue,410,10116 Potter Rd Des Plaines
